     2.11           OBSERVATION DATA    G (GPS)             RINEX VERSION / TYPE
teqc  2012Jun6      GSI, JAPAN          20160101 17:06:48UTCPGM / RUN BY / DATE
Linux 2.4.21-27.ELsmp|Opteron|gcc -static|Linux x86_64|=+   COMMENT
0338                                                        MARKER NAME
GSI, JAPAN          GEOSPATIAL INFORMATION AUTHORITY OF JAPAOBSERVER / AGENCY
00000               TRIMBLE NETR9       5.01,07/APR/2015    REC # / TYPE / VERS
                    TRM59800.80     GSI                     ANT # / TYPE
 -3762367.1763  3680867.6206  3590465.3596                  APPROX POSITION XYZ
        0.0000        0.0000        0.0000                  ANTENNA: DELTA H/E/N
     1     1                                                WAVELENGTH FACT L1/2
     6    L1    C1    L2    P2    S1    S2                  # / TYPES OF OBSERV
    30.0000                                                 INTERVAL
Forced Modulo Decimation to 30 seconds                      COMMENT
  2015    12    31     0     0    0.0000000     GPS         TIME OF FIRST OBS
                                                            END OF HEADER
 15 12 31  0  0  0.0000000  0  8G19G02G12G23G06G17G05G09
 121085053.954 7  23041724.148    94351990.57645  23041728.4384         45.600  
        35.9004 
 117137901.924 7  22290603.391    91276300.26246  22290606.4694         47.000  
        36.9004 
 125652796.436 6  23910937.313    97911276.48944  23910943.0824         41.900  
        24.7004 
 121930973.538 7  23202659.273    95011020.64245  23202663.1414         45.400  
        32.5004 
 107986345.043 8  20549118.484    84145241.74747  20549126.4224         53.000  
        46.7004 
 113421018.269 8  21583304.195    88380041.63246  21583309.9614         48.900  
        40.7004 
 122719177.120 7  23352678.859    95625360.12045  23352685.5554         42.300  
        31.1004 
 110781343.640 8  21081002.156    86323209.59547  21081009.1684         51.900  
        43.8004 
 15 12 31  0  0 30.0000000  0  8G19G02G12G23G06G17G05G09
 121184130.983 7  23060576.953    94429193.41445  23060581.4844         45.800  
        35.4004 
 117070482.605 7  22277774.016    91223765.73846  22277776.8554         47.300  
        36.7004 
 125679525.830 7  23916023.305    97932104.55044  23916028.6564         42.100  
        26.0004 
 121992823.443 7  23214429.063    95059215.33645  23214432.7704         46.300  
        32.3004 
 107973808.274 8  20546732.977    84135472.83447  20546740.8594         53.100  
        46.8004 
 113500137.233 8  21598360.000    88441692.74646  21598365.8874         49.300  
        41.1004 
 122638925.273 7  23337408.203    95562826.21144  23337414.3594         42.400  
        29.3004 
 110786142.596 8  21081915.305    86326949.03547  21081922.9454         51.200  
        43.9004 
 15 12 31  0  1  0.0000000  0  8G19G02G12G23G06G17G05G09
 121283437.565 7  23079474.313    94506575.10745  23079478.6214         44.600  
        35.7004 
 117003109.373 7  22264953.398    91171267.12246  22264956.1454         46.700  
        37.0004 
 125706731.325 7  23921200.711    97953303.61644  23921206.3484         43.200  
        26.5004 
 122055081.891 7  23226276.633    95107728.37145  23226280.3674         46.000  
        32.4004 
 107961518.493 8  20544394.250    84125896.38147  20544402.5004         53.400  
        47.0004 
 113579665.079 8  21613493.703    88503662.46146  21613500.0394         48.600  
        41.2004 
 122558895.619 6  23322178.523    95500465.42744  23322185.0984         41.900  
        29.0004 
 110791536.377 8  21082942.141    86331151.98147  21082949.1684         51.100  
        44.5004 
 15 12 31  0  1 30.0000000  0  8G19G02G12G23G06G17G05G09
 121382972.170 7  23098414.984    94584134.47345  23098419.6724         44.800  
        35.1004 
 116935783.552 7  22252141.492    91118805.45146  22252144.0784         45.900  
        36.9004 
 125734410.486 7  23926467.594    97974871.77944  23926473.4694         43.200  
        24.0004 
 122117747.101 7  23238201.109    95156558.36545  23238205.0514         45.400  
        31.5004 
 107949476.891 8  20542102.750    84116513.31047  20542110.7894         52.500  
        47.2004 
 113659600.591 7  21628705.102    88565949.83946  21628711.3204         47.500  
        40.9004 
 122479089.149 7  23306992.430    95438278.57345  23306998.9574         42.400  
        32.3004 
 110797524.976 8  21084081.578    86335818.41347  21084088.3794         51.700  
        44.8004 
 15 12 31  0  2  0.0000000  0  8G19G02G12G23G06G17G05G09
 121482732.653 7  23117399.289    94661869.87045  23117403.3984         44.700  
        35.2004 
 116868505.659 7  22239338.445    91066381.12746  22239342.2584         47.400  
        37.2004 
 125762561.895 7  23931824.461    97996807.91144  23931829.5704         42.600  
        26.1004 
 122180816.744 7  23250202.773    95205703.51745  23250206.5124         45.300  
        31.9004 
 107937684.309 8  20539858.805    84107324.27547  20539867.1294         53.000  
        47.0004 
 113739941.495 8  21643993.656    88628553.11546  21643999.5514         48.600  
        40.3004 
 122399505.901 7  23291847.820    95376265.67445  23291854.5084         42.200  
        31.9004 
 110804107.951 8  21085334.109    86340947.99847  21085341.1024         51.100  
        44.6004 
 15 12 31  0  2 30.0000000  0  8G19G02G12G23G06G17G05G09
 121582716.656 7  23136425.898    94739779.42345  23136430.0904         44.700  
        35.1004 
 116801276.714 7  22226545.492    91013994.94946  22226548.6024         46.800  
        37.1004 
 125791183.495 7  23937271.453    98019110.42044  23937276.7544         43.000  
        27.0004 
 122244289.021 7  23262281.773    95255162.41645  23262285.2584         46.200  
        31.8004 
 107926141.783 8  20537662.641    84098330.08647  20537670.4024         51.700  
        46.7004 
 113820685.651 7  21659358.836    88691470.60846  21659364.7624         47.800  
        40.8004 
 122320146.847 7  23276746.836    95314427.44445  23276753.7814         43.100  
        32.8004 
 110811285.048 8  21086699.719    86346540.53047  21086707.1254         51.100  
        43.7004 
 15 12 31  0  3  0.0000000  0  8G19G02G12G23G06G17G05G09
 121682921.964 7  23155493.984    94817861.41445  23155498.4734         44.500  
        34.4004 
 116734097.822 7  22213761.797    90961647.76846  22213764.6054         46.800  
        37.7004 
 125820273.126 7  23942806.914    98041777.61444  23942812.7304         42.300  
        26.2004 
 122308161.741 7  23274436.086    95304933.32945  23274439.4104         46.100  
        31.8004 
 107914850.201 8  20535513.758    84089531.44747  20535521.3094         52.500  
        46.9004 
 113901830.779 7  21674799.969    88754700.54046  21674806.3794         47.300  
        40.8004 
 122241012.282 7  23261688.727    95252764.16945  23261694.7894         43.400  
        33.0004 
 110819055.893 8  21088178.492    86352595.74447  21088185.4924         49.500  
        43.8004 
 15 12 31  0  3 30.0000000  0  8G19G02G12G23G06G17G05G09
 121783346.941 7  23174604.109    94896114.58745  23174609.0044         43.900  
        34.4004 
 116666970.325 7  22200988.234    90909340.64246  22200991.0554         47.200  
        37.7004 
 125849829.107 7  23948431.273    98064808.21044  23948437.5554         42.600  
        24.8004 
 122372433.416 7  23286666.375    95355015.12545  23286669.5784         46.200  
        31.1004 
 107903811.031 8  20533412.719    84080929.48547  20533420.9614         52.700  
        47.0004 
 113983374.987 7  21690317.930    88818241.45046  21690324.0514         47.900  
        41.4004 
 122162102.967 7  23246672.273    95191276.38245  23246678.8634         43.600  
        32.1004 
 110827420.615 8  21089770.609    86359113.70247  21089777.5204         49.500  
        44.0004 
 15 12 31  0  4  0.0000000  0  8G19G02G12G23G06G17G05G09
 121883989.039 7  23193755.969    94974536.93045  23193759.8324         44.100  
        34.4004 
 116599895.416 7  22188223.820    90857074.48646  22188226.7424         47.700  
        37.7004 
 125879849.461 7  23954143.547    98088200.67544  23954150.3364         42.300  
        26.2004 
 122437101.893 7  23298972.844    95405406.12745  23298975.7704         46.700  
        31.3004 
 107893025.178 8  20531360.484    84072524.91147  20531368.3594         52.900  
        46.8004 
 114065316.309 8  21705910.602    88882091.79046  21705916.9144         48.900  
        40.3004 
 122083418.986 7  23231698.930    95129964.20045  23231705.9144         43.400  
        32.2004 
 110836378.692 8  21091475.070    86366094.02247  21091482.4104         49.600  
        44.2004 
 15 12 31  0  4 30.0000000  0  8G19G02G12G23G06G17G05G09
 121984846.118 7  23212948.625    95053126.80745  23212952.9614         46.000  
        35.0004 
 116532873.662 7  22175470.063    90804849.76846  22175473.0164         47.500  
        37.3004 
 125910332.133 7  23959944.234    98111953.36444  23959950.1524         43.000  
        26.4004 
 122502165.201 7  23311353.945    95456104.77145  23311356.9734         47.000  
        31.4004 
 107882493.567 8  20529356.336    84064318.45647  20529364.6884         52.900  
        46.7004 
 114147652.578 8  21721578.828    88946249.89646  21721584.6254         49.200  
        40.4004 
 122004961.077 7  23216769.039    95068828.16545  23216775.2664         44.100  
        31.6004 
 110845929.693 8  21093292.633    86373536.35947  21093299.6684         49.500  
        43.9004 
 15 12 31  0  5  0.0000000  0  8G19G02G12G23G06G17G05G09
 122085916.185 7  23232181.398    95131882.63945  23232185.5984         47.000  
        34.6004 
 116465906.181 7  22162726.438    90752667.31846  22162729.4924         47.800  
        37.1004 
 125941275.050 7  23965833.133    98136064.69144  23965837.7154         43.100  
        25.1004 
 122567621.339 7  23323809.945    95507109.52745  23323813.3594         46.700  
        32.1004 
 107872217.307 8  20527400.828    84056310.97047  20527408.8914         52.600  
        47.3004 
 114230382.046 8  21737321.570    89010714.37446  21737327.3164         49.100  
        40.9004 
 121926729.824 7  23201882.227    95007868.76745  23201888.9144         43.400  
        31.8004 
 110856073.322 8  21095222.508    86381440.48547  21095229.5664         51.300  
        43.7004 
 15 12 31  0  5 30.0000000  0  8G19G02G12G23G06G17G05G09
 122187197.240 7  23251454.867    95210802.86945  23251459.0664         46.400  
        34.8004 
 116398993.969 7  22149993.648    90700527.95146  22149996.6414         47.100  
        38.3004 
 125972675.923 7  23971808.523    98160532.86044  23971814.1024         43.200  
        26.7004 
 122633468.238 7  23336339.750    95558418.75845  23336343.6054         47.000  
        31.8004 
 107862197.417 8  20525494.156    84048503.26547  20525502.1174         52.900  
        46.8004 
 114313502.005 8  21753138.406    89075483.12846  21753145.4384         49.400  
        39.6004 
 121848725.589 7  23187038.070    94947086.25045  23187045.0164         44.900  
        32.4004 
 110866809.129 8  21097265.578    86389806.04147  21097272.8404         50.700  
        43.9004 
 15 12 31  0  6  0.0000000  0  8G19G02G12G23G06G17G05G09
 122288686.976 7  23270767.406    95289885.71745  23270772.0984         46.400  
        33.9004 
 116332138.311 7  22137271.516    90648432.64146  22137274.4804         46.400  
        37.9004 
 126004533.158 6  23977869.930    98185356.63644  23977876.5234         41.800  
        26.4004 
 122699703.771 7  23348943.805    95610030.83445  23348948.1764         46.400  
        31.2004 
 107852434.757 8  20523636.461    84040895.99147  20523644.2424         52.500  
        47.1004 
 114397010.567 7  21769029.734    89140554.69246  21769035.9964         47.800  
        39.8004 
 121770948.343 7  23172237.711    94886480.61045  23172244.7344         43.900  
        31.2004 
 110878136.539 8  21099421.273    86398632.59747  21099428.3714         51.200  
        43.9004 
 15 12 31  0  6 30.0000000  0  8G19G02G12G23G06G17G05G09
 122390383.216 7  23290119.688    95369129.49145  23290123.2074         45.400  
        34.3004 
 116265340.375 7  22124559.844    90596382.32246  22124563.0704         46.300  
        37.6004 
 126036844.600 6  23984019.125    98210534.36344  23984025.2464         41.400  
        25.9004 
 122766326.528 7  23361621.867    95661944.62545  23361626.2424         45.900  
        30.4004 
 107842930.828 8  20521827.922    84033490.32847  20521836.0314         52.300  
        46.9004 
 114480905.770 8  21784995.102    89205927.53846  21785001.0314         48.100  
        39.7004 
 121693399.092 7  23157480.359    94826052.64245  23157486.8754         43.700  
        32.4004 
 110890055.534 8  21101689.508    86407920.12747  21101696.3444         51.000  
        44.6004 
 15 12 31  0  7  0.0000000  0  8G19G02G12G23G06G17G05G09
 122492283.789 7  23309510.438    95448532.46645  23309515.5124         45.100  
        33.7004 
 116198601.144 7  22111859.820    90544377.73946  22111863.2544         46.200  
        37.3004 
 126069608.182 7  23990253.953    98236064.38044  23990259.7584         42.300  
        25.8004 
 122833333.742 7  23374372.859    95714157.99445  23374376.4614         46.000  
        30.9004 
 107833686.169 8  20520068.742    84026286.69147  20520076.6334         53.500  
        47.1004 
 114565185.370 8  21801032.406    89271599.91146  21801038.9844         49.200  
        39.8004 
 121616077.854 7  23142767.719    94765802.34645  23142773.8364         43.000  
        33.1004 
 110902565.089 8  21104069.672    86417667.83647  21104077.3404         49.200  
        43.8004 
 15 12 31  0  7 30.0000000  0  8G19G02G12G23G06G17G05G09
 122594386.512 7  23328939.898    95528092.96345  23328944.5784         45.500  
        33.6004 
 116131921.796 7  22099171.711    90492419.81146  22099174.7544         46.100  
        38.4004 
 126102821.682 6  23996573.789    98261944.98244  23996580.3324         41.600  
        26.9004 
 122900723.759 7  23387197.188    95766669.64545  23387200.6994         44.300  
        30.9004 
 107824701.932 8  20518359.359    84019285.97247  20518367.1564         52.800  
        47.0004 
 114649847.174 8  21817143.531    89337570.11246  21817149.2504         49.300  
        40.4004 
 121538985.488 7  23128096.508    94705730.39645  23128103.0044         43.200  
        32.6004 
 110915664.873 8  21106562.438    86427875.45647  21106569.8984         49.100  
        44.1004 
 15 12 31  0  8  0.0000000  0  8G19G02G12G23G06G17G05G09
 122696689.585 7  23348408.031    95607809.56545  23348412.7974         43.700  
        34.2004 
 116065303.486 7  22086494.680    90440509.45446  22086497.4654         46.000  
        38.1004 
 126136483.204 7  24002979.969    98288174.70644  24002985.6604         43.200  
        26.1004 
 122968494.480 7  23400093.492    95819477.94545  23400097.1454         44.900  
        31.5004 
 107815979.437 8  20516699.266    84012489.21047  20516707.1054         52.800  
        47.0004 
 114734889.225 8  21833325.992    89403836.59746  21833332.5004         48.400  
        39.9004 
 121462122.122 7  23113470.500    94645836.87445  23113476.0744         43.500  
        32.7004 
 110929354.597 8  21109167.656    86438542.76847  21109175.0594         49.200  
        43.7004 
 15 12 31  0  8 30.0000000  0  8G19G02G12G23G06G17G05G09
 122799190.262 7  23367912.930    95687680.15745  23367917.8954         43.600  
        33.6004 
 115998746.977 7  22073829.203    90388647.25046  22073831.9924         46.400  
        38.4004 
 126170590.118 7  24009469.805    98314751.48144  24009475.8834         42.300  
        25.8004 
 123036643.898 7  23413061.938    95872581.34145  23413065.4494         44.600  
        30.4004 
 107807519.236 8  20515089.297    84005896.84247  20515097.1484         52.700  
        47.1004 
 114820308.688 8  21849580.742    89470397.17346  21849587.0784         48.500  
        40.1004 
 121385488.113 7  23098887.008    94586122.08845  23098892.8914         43.600  
        31.8004 
 110943633.197 8  21111884.672    86449668.94647  21111891.8054         51.300  
        43.9004 
 15 12 31  0  9  0.0000000  0  8G19G02G12G23G06G17G05G09
 122901886.816 7  23387455.469    95767703.37545  23387460.3594         43.500  
        34.0004 
 115932253.827 7  22061176.078    90336834.41346  22061178.7304         46.700  
        38.2004 
 126205140.703 7  24016044.945    98341673.99644  24016050.9454         42.700  
        26.8004 
 123105169.776 7  23426102.055    95925978.07245  23426106.0314         44.400  
        31.4004 
 107799322.909 8  20513529.500    83999510.07847  20513537.8204         53.000  
        47.3004 
 114906103.995 7  21865907.164    89537250.61346  21865913.7934         47.800  
        40.0004 
 121309084.370 7  23084347.438    94526586.72545  23084353.6564         43.600  
        32.3004 
 110958500.633 8  21114714.078    86461253.95947  21114721.1644         51.000  
        43.7004 
 15 12 31  0  9 30.0000000  0  8G19G02G12G23G06G17G05G09
 123004776.871 7  23407035.547    95847877.37145  23407040.1844         43.900  
        33.5004 
 115865825.208 7  22048535.227    90285071.84746  22048537.4144         46.300  
        38.3004 
 126240132.731 7  24022704.023    98368940.47744  24022710.1804         42.600  
        26.8004 
 123174070.073 7  23439213.125    95979666.55745  23439217.1134         44.600  
        31.5004 
 107791391.386 8  20512020.328    83993329.65947  20512028.3164         52.900  
        47.0004 
 114992272.965 8  21882304.859    89604395.22146  21882310.8954         48.300  
        39.2004 
 121232911.059 7  23069852.672    94467230.90145  23069858.1764         43.400  
        32.2004 
 110973956.163 8  21117655.367    86473297.21647  21117662.4414         51.500  
        43.7004 
 15 12 31  0 10  0.0000000  0  8G19G02G12G23G06G17G05G09
 123107858.461 7  23426651.063    95928200.62945  23426655.1564         44.100  
        33.2004 
 115799462.136 7  22035906.563    90233360.36246  22035909.0354         46.400  
        37.9004 
 126275563.728 7  24029445.977    98396549.03244  24029452.2344         42.900  
        27.3004 
 123243342.851 7  23452395.500    96033645.27044  23452399.4734         45.000  
        29.9004 
 107783725.694 8  20510561.531    83987356.38347  20510569.6884         53.400  
        47.2004 
 115078813.188 8  21898773.047    89671829.11746  21898779.0944         48.200  
        39.7004 
 121156968.431 7  23055401.617    94408054.84745  23055406.9304         43.800  
        33.0004 
 110989999.209 8  21120708.094    86485798.28947  21120715.1914         51.700  
        44.4004 
 15 12 31  0 10 30.0000000  0  8G19G02G12G23G06G17G05G09
 123211129.384 7  23446302.813    96008671.40245  23446307.6484         43.900  
        33.3004 
 115733165.752 7  22023290.609    90181700.84146  22023293.5594         46.800  
        38.7004 
 126311431.604 7  24036271.445    98424497.99344  24036276.9414         42.000  
        25.3004 
 123312986.242 7  23465648.461    96087912.79345  23465651.7704         45.300  
        30.0004 
 107776327.022 8  20509153.570    83981591.16847  20509161.8444         52.600  
        47.1004 
 115165722.631 7  21915311.094    89739550.72146  21915317.2814         47.700  
        38.7004 
 121081257.197 7  23040994.125    94349059.09345  23040999.9104         44.000  
        33.0004 
 111006629.195 8  21123872.438    86498756.71747  21123879.5784         51.000  
        44.3004 
 15 12 31  0 11  0.0000000  0  8G19G02G12G23G06G17G05G09
 123314587.003 7  23465990.117    96089287.67545  23465995.1094         43.400  
        33.2004 
 115666937.116 7  22010687.984    90130094.11646  22010690.4804         46.700  
        38.6004 
 126347734.595 6  24043179.648    98452785.99044  24043185.2774         41.800  
        25.9004 
 123382997.579 7  23478971.313    96142467.01145  23478974.7154         46.100  
        30.9004 
 107769196.009 8  20507796.672    83976034.52647  20507804.9384         53.400  
        47.2004 
 115252998.710 7  21931919.555    89807558.00046  21931925.2894         47.400  
        38.8004 
 121005776.968 7  23026630.539    94290243.34245  23026636.6884         43.400  
        33.4004 
 111023845.017 8  21127148.422    86512171.63147  21127155.7894         51.200  
        44.1004 
 15 12 31  0 11 30.0000000  0  8G19G02G12G23G06G17G05G09
 123418229.629 7  23485713.031    96170048.08945  23485717.0634         43.800  
        32.7004 
 115600777.851 7  21998098.594    90078541.44546  21998101.3404         47.000  
        39.2004 
 126384469.912 6  24050169.867    98481410.88244  24050176.1094         41.500  
        26.3004 
 123453374.994 7  23492363.344    96197306.50045  23492367.1254         46.200  
        30.4004 
 107762333.911 8  20506490.727    83970687.42347  20506498.6054         53.300  
        47.2004 
 115340639.417 8  21948597.117    89875849.41346  21948603.1414         48.400  
        39.4004 
 120930528.610 7  23012310.813    94231608.27545  23012317.2274         43.800  
        32.3004 
 111041646.203 8  21130535.781    86526042.68347  21130543.3324         51.000  
        43.8004 
 15 12 31  0 12  0.0000000  0  8G19G02G12G23G06G17G05G09
 123522055.028 7  23505470.180    96250950.91945  23505475.0704         43.800  
        33.7004 
 115534688.544 7  21985521.992    90027043.28546  21985524.8324         47.900  
        38.4004 
 126421635.706 6  24057242.391    98510371.19244  24057248.9224         40.900  
        26.1004 
 123524116.748 7  23505825.547    96252429.88245  23505829.3284         46.700  
        31.0004 
 107755742.020 8  20505236.461    83965550.87247  20505244.6684         53.200  
        47.1004 
 115428642.447 8  21965343.500    89944423.15546  21965349.4024         49.000  
        40.1004 
 120855512.646 7  22998035.938    94173154.29845  22998042.2814         45.400  
        33.0004 
 111060032.261 8  21134034.766    86540369.46747  21134042.3524         51.900  
        43.3004 
 15 12 31  0 12 30.0000000  0  8G19G02G12G23G06G17G05G09
 123626060.520 7  23525261.305    96331994.08645  23525266.7704         43.400  
        33.5004 
 115468670.519 7  21972959.359    89975600.66146  21972961.4774         47.800  
        38.5004 
 126459229.272 6  24064397.016    98539664.86144  24064403.1564         41.200  
        26.9004 
 123595220.118 7  23519355.711    96307835.04944  23519359.4574         44.800  
        29.8004 
 107749420.943 8  20504033.523    83960625.34747  20504041.3484         53.000  
        46.9004 
 115517005.059 8  21982158.680    90013277.09246  21982164.4614         48.900  
        38.9004 
 120780729.262 7  22983805.313    94114881.53845  22983811.6094         45.200  
        33.9004 
 111079001.985 8  21137644.953    86555151.06247  21137652.1134         51.500  
        43.9004 
 15 12 31  0 13  0.0000000  0  8G19G02G12G23G06G17G05G09
 123730244.309 7  23545087.141    96413176.18545  23545092.6484         43.600  
        33.4004 
 115402725.332 7  21960409.531    89924214.79146  21960412.3914         46.800  
        38.5004 
 126497248.610 6  24071631.672    98569290.27844  24071637.6334         40.400  
        24.4004 
 123666683.410 7  23532954.984    96363520.65745  23532958.7034         44.000  
        30.2004 
 107743372.020 8  20502882.695    83955911.88747  20502890.8284         53.300  
        47.2004 
 115605725.669 8  21999040.438    90082409.97646  21999047.2704         49.100  
        39.2004 
 120706179.043 7  22969619.070    94056790.48245  22969625.2504         45.500  
        34.2004 
 111098554.872 8  21141365.336    86570387.06247  21141372.3984         50.900  
        43.6004 
 15 12 31  0 13 30.0000000  0  8G19G02G12G23G06G17G05G09
 123834604.124 7  23564946.305    96494495.43545  23564951.6094         44.300  
        32.6004 
 115336854.303 8  21947875.281    89872886.71046  21947877.9964         48.100  
        38.9004 
 126535691.434 6  24078946.961    98599245.69644  24078952.7774         40.500  
        26.2004 
 123738504.479 7  23546621.594    96419485.05844  23546625.6994         44.100  
        29.1004 
 107737596.397 8  20501783.367    83951411.38647  20501791.8014         53.200  
        47.1004 
 115694801.439 8  22015991.859    90151819.61146  22015998.0784         49.100  
        39.4004 
 120631861.926 7  22955476.789    93998881.05445  22955483.2194         45.900  
        34.0004 
 111118690.272 8  21145197.180    86586076.97647  21145204.5864         49.900  
        43.6004 
 15 12 31  0 14  0.0000000  0  8G19G02G12G23G06G17G05G09
 123939137.743 7  23584838.555    96575950.15045  23584843.1214         44.300  
        32.8004 
 115271058.116 7  21935354.344    89821616.94346  21935357.4774         46.800  
        38.7004 
 126574555.565 6  24086342.148    98629529.39644  24086348.4344         40.400  
        25.6004 
 123810680.918 7  23560356.977    96475726.37344  23560360.9414         44.200  
        29.4004 
 107732094.980 8  20500736.531    83947124.56247  20500744.8714         52.300  
        47.3004 
 115784230.418 8  22033009.500    90221504.47846  22033015.9454         49.500  
        39.2004 
 120557778.661 7  22941379.234    93941153.86345  22941385.1524         45.800  
        34.3004 
 111139407.140 8  21149139.336    86602219.97147  21149146.7234         49.900  
        43.0004 
 15 12 31  0 14 30.0000000  0  8G19G02G12G23G06G17G05G09
 124043843.190 7  23604763.211    96657538.73445  23604768.4494         43.900  
        32.8004 
 115205338.161 7  21922848.711    89770406.58246  21922851.4454         47.000  
        38.4004 
 126613838.046 6  24093817.945    98660139.08044  24093824.6174         41.400  
        24.3004 
 123883210.670 7  23574158.945    96532243.00244  23574162.7304         44.100  
        29.3004 
 107726868.575 8  20499741.961    83943052.02647  20499750.1054         52.800  
        47.0004 
 115874010.262 8  22050094.102    90291462.75346  22050100.2544         49.800  
        38.9004 
 120483929.010 7  22927325.914    93883608.71045  22927331.6134         45.600  
        33.3004 
 111160704.432 8  21153192.258    86618815.25247  21153199.0514         51.400  
        43.7004 
 15 12 31  0 15  0.0000000  0  8G19G02G12G23G06G17G05G09
 124148717.919 7  23624720.305    96739259.21345  23624725.7464         44.300  
        32.4004 
 115139695.811 7  21910357.383    89719256.68946  21910360.0824         46.700  
        38.7004 
 126653537.080 7  24101372.719    98691073.38344  24101378.1094         42.500  
        26.9004 
 123956091.521 7  23588027.477    96589033.19445  23588031.7704         43.600  
        30.5004 
 107721918.487 8  20498799.930    83939194.80647  20498808.2114         51.600  
        47.2004 
 115964138.321 8  22067245.023    90361692.34146  22067251.3554         49.300  
        38.7004 
 120410313.638 7  22913317.805    93826246.10645  22913323.4454         46.400  
        33.9004 
 111182581.502 8  21157355.336    86635862.31047  21157362.5204         50.200  
        43.2004 
 15 12 31  0 15 30.0000000  0  8G19G02G12G23G06G17G05G09
 124253759.787 7  23644709.367    96821109.94145  23644714.3874         44.400  
        33.0004 
 115074132.547 7  21897880.914    89668168.42746  21897884.2074         46.700  
        39.2004 
 126693650.335 7  24109005.117    98722330.43144  24109011.5004         42.800  
        24.0004 
 124029321.549 7  23601963.141    96646095.47545  23601967.5354         44.200  
        30.1004 
 107717245.951 8  20497910.906    83935553.85947  20497918.8714         51.800  
        47.2004 
 116054612.551 8  22084461.797    90432191.68946  22084467.8484         48.200  
        38.1004 
 120336933.026 7  22899353.555    93769066.43345  22899359.7544         46.300  
        33.7004 
 111205037.651 8  21161628.742    86653360.59447  21161635.8244         49.800  
        43.7004 
 15 12 31  0 16  0.0000000  0  8G19G02G12G23G06G17G05G09
 124358966.528 7  23664729.750    96903089.12645  23664734.6024         44.600  
        31.8004 
 115008649.045 7  21885419.945    89617142.31846  21885423.0204         47.000  
        39.2004 
 126734174.934 7  24116716.742    98753908.00644  24116723.1844         42.100  
        24.5004 
 124102898.195 7  23615964.031    96703427.83944  23615968.4964         43.700  
        29.7004 
 107712851.526 8  20497074.828    83932129.62547  20497083.1454         52.000  
        47.3004 
 116145430.527 8  22101743.883    90502958.88046  22101750.1884         48.900  
        38.9004 
 120263787.205 7  22885434.313    93712069.70145  22885440.1174         45.500  
        34.0004 
 111228071.492 8  21166011.391    86671309.02747  21166018.8134         49.400  
        43.0004 
 15 12 31  0 16 30.0000000  0  8G19G02G12G23G06G17G05G09
 124464335.912 7  23684780.695    96985195.07045  23684786.0474         44.300  
        31.8004 
 114943246.415 7  21872974.227    89566179.21746  21872977.1524         47.000  
        38.6004 
 126775109.000 7  24124506.813    98785804.66143  24124512.8594         42.100  
        23.6004 
 124176819.337 7  23630030.859    96761028.66044  23630035.0824         43.800  
        29.4004 
 107708736.229 8  20496291.633    83928922.88347  20496299.6954         51.900  
        47.4004 
 116236589.515 8  22119090.414    90573991.81046  22119097.3634         48.200  
        38.1004 
 120190876.115 7  22871559.188    93655255.89145  22871565.6844         46.000  
        34.2004 
 111251681.998 8  21170504.633    86689706.80547  21170511.6134         50.000  
        43.7004 
 15 12 31  0 17  0.0000000  0  8G19G02G12G23G06G17G05G09
 124569865.929 7  23704862.531    97067426.17245  23704867.2384         44.500  
        31.9004 
 114877926.843 7  21860544.609    89515280.85246  21860547.6174         47.800  
        38.6004 
 126816449.983 6  24132373.047    98818018.37144  24132379.7584         39.200  
        25.6004 
 124251083.116 7  23644162.859    96818896.46444  23644167.2894         45.100  
        29.6004 
 107704901.667 8  20495561.961    83925934.90947  20495569.8404         53.300  
        47.5004 
 116328087.633 8  22136502.336    90645288.97146  22136508.3954         48.000  
        38.4004 
 120118200.728 7  22857730.375    93598625.75345  22857736.3754         46.500  
        33.2004 
 111275868.773 8  21175107.367    86708553.63347  21175114.7974         51.200  
        43.7004 
 15 12 31  0 17 30.0000000  0  8G19G02G12G23G06G17G05G09
 124675554.254 7  23724974.914    97149780.64045  23724979.1174         44.500  
        31.2004 
 114812691.473 7  21848130.523    89464448.08246  21848133.4304         47.200  
        39.2004 
 126858194.972 6  24140317.008    98850546.89044  24140323.5634         39.800  
        24.2004 
 124325687.460 7  23658359.398    96877029.64344  23658363.6564         44.800  
        28.6004 
 107701348.881 8  20494886.086    83923166.49747  20494893.8484         51.900  
        47.3004 
 116419922.357 8  22153978.273    90716848.45146  22153984.1764         48.000  
        38.3004 
 120045761.361 7  22843945.305    93542179.51145  22843951.4454         44.700  
        34.2004 
 111300630.795 8  21179819.367    86727848.69647  21179826.6094         50.400  
        43.1004 
 15 12 31  0 18  0.0000000  0  8G19G02G12G23G06G17G05G09
 124781398.712 7  23745115.953    97232256.75445  23745120.8324         44.300  
        31.1004 
 114747541.151 7  21835732.594    89413681.59746  21835735.6134         46.800  
        39.3004 
 126900342.248 6  24148337.297    98883388.90344  24148343.9344         39.900  
        25.4004 
 124400629.656 7  23672620.195    96935426.08644  23672624.1414         44.700  
        27.9004 
 107698078.565 8  20494263.508    83920618.18947  20494271.8134         52.300  
        47.2004 
 116512091.245 8  22171517.719    90788668.30646  22171523.4774         48.800  
        38.6004 
 119973557.894 7  22830205.656    93485917.09245  22830211.5744         46.100  
        34.4004 
 111325966.760 8  21184640.656    86747590.99247  21184648.1524         50.900  
        43.2004 
 15 12 31  0 18 30.0000000  0  8G19G02G12G23G06G17G05G09
 124887396.923 7  23765286.609    97314852.68345  23765291.7854         44.900  
        31.1004 
 114682477.062 7  21823351.813    89362982.30446  21823354.3984         47.000  
        38.9004 
 126942888.998 6  24156434.531    98916542.15744  24156440.5124         40.300  
        25.8004 
 124475907.653 7  23686945.305    96994084.19844  23686949.8054         45.300  
        28.8004 
 107695091.642 8  20493695.367    83918290.70847  20493703.3954         52.400  
        47.1004 
 116604591.841 8  22189119.281    90860746.62346  22189125.6884         48.100  
        37.5004 
 119901590.424 7  22816510.289    93429838.56645  22816516.4774         45.400  
        33.6004 
 111351875.463 8  21189571.063    86767779.57247  21189578.4734         49.800  
        43.2004 
 15 12 31  0 19  0.0000000  0  8G19G02G12G23G06G17G05G09
 124993546.603 7  23785486.875    97397566.62845  23785491.7664         44.000  
        30.9004 
 114617500.862 7  21810986.906    89312351.49146  21810990.1054         46.800  
        39.1004 
 126985832.856 6  24164606.281    98950004.85344  24164612.6884         40.000  
        26.6004 
 124551519.423 7  23701334.391    97053002.39244  23701338.1134         45.900  
        27.9004 
 107692389.389 8  20493180.672    83916185.04947  20493188.7704         51.300  
        47.2004 
 116697421.763 8  22206785.141    90933081.57446  22206791.0394         48.300  
        37.8004 
 119829859.709 7  22802860.430    93373944.53445  22802866.7464         45.600  
        34.2004 
 111378356.062 8  21194610.078    86788413.79647  21194617.1604         50.100  
        43.1004 
 15 12 31  0 19 30.0000000  0  8G19G02G12G23G06G17G05G09
 125099845.577 7  23805714.586    97480396.91745  23805719.9654         45.400  
        31.8004 
 114552613.870 7  21798639.148    89261790.19946  21798642.1524         46.600  
        38.9004 
 127029171.401 6  24172853.219    98983775.12344  24172859.4414         40.900  
        24.7004 
 124627462.526 7  23715785.359    97112178.77244  23715789.9104         45.100  
        29.0004 
 107689972.793 8  20492721.063    83914301.98447  20492729.3484         52.500  
        46.9004 
 116790578.527 7  22224512.070    91005671.19546  22224517.9804         47.200  
        37.5004 
 119758365.722 7  22789255.656    93318234.96345  22789261.6804         44.700  
        34.4004 
 111405407.479 8  21199757.773    86809492.79547  21199764.6954         50.400  
        43.4004 
 15 12 31  0 20  0.0000000  0  8G19G02G12G23G06G17G05G09
 125206291.816 7  23825970.688    97563341.95045  23825975.3164         44.400  
        30.4004 
 114487817.297 7  21786308.914    89211299.36346  21786311.8914         47.100  
        39.4004 
 127072902.105 6  24181174.633    99017850.94743  24181180.8984         41.200  
        23.4004 
 124703735.158 7  23730299.836    97171611.90644  23730304.1764         43.900  
        28.2004 
 107687843.192 8  20492315.797    83912642.54447  20492323.5274         52.000  
        47.2004 
 116884059.995 8  22242300.859    91078513.84946  22242307.5124         48.600  
        38.0004 
 119687108.952 7  22775695.836    93262710.24145  22775701.5434         45.600  
        34.5004 
 111433028.784 8  21205014.055    86831015.86947  21205021.1294         50.200  
        43.4004 
 15 12 31  0 20 30.0000000  0  8G19G02G12G23G06G17G05G09
 125312882.911 7  23846254.461    97646399.86045  23846259.2774         43.900  
        30.6004 
 114423112.690 7  21773996.359    89160880.18846  21773998.9454         47.200  
        39.7004 
 127117022.189 6  24189571.453    99052230.18944  24189577.1644         41.800  
        26.4004 
 124780334.909 7  23744876.570    97231299.92144  23744880.5904         44.500  
        28.4004 
 107686001.426 8  20491965.391    83911207.39747  20491973.7154         51.100  
        47.0004 
 116977863.413 8  22260151.094    91151607.35046  22260157.5514         48.600  
        37.4004 
 119616089.787 7  22762180.984    93207370.64745  22762187.1724         46.200  
        34.2004 
 111461218.801 8  21210378.273    86852982.09747  21210385.4844         49.600  
        42.7004 
 15 12 31  0 21  0.0000000  0  8G19G02G12G23G06G17G05G09
 125419616.355 7  23866564.961    97729568.67845  23866570.5784         44.100  
        31.7004 
 114358501.253 7  21761701.000    89110533.60846  21761703.8484         47.300  
        39.2004 
 127161529.711 6  24198039.961    99086911.33143  24198045.9964         40.700  
        23.6004 
 124857259.178 7  23759515.133    97291240.85244  23759519.0904         44.200  
        28.3004 
 107684448.339 8  20491670.008    83909997.18947  20491678.5004         51.400  
        47.2004 
 117071986.466 8  22278062.367    91224949.93446  22278068.2304         49.000  
        38.0004 
 119545308.028 7  22748711.875    93152216.05145  22748718.3054         45.800  
        34.4004 
 111489976.041 8  21215850.539    86875390.31847  21215857.7074         49.700  
        44.0004 
 15 12 31  0 21 30.0000000  0  8G19G02G12G23G06G17G05G09
 125526490.043 7  23886903.438    97812846.77345  23886908.4064         45.600  
        31.9004 
 114293984.393 7  21749423.953    89060260.72246  21749426.6994         47.900  
        39.9004 
 127206421.888 6  24206582.602    99121892.20644  24206588.7974         41.600  
        24.7004 
 124934506.046 7  23774214.609    97351433.13344  23774218.3984         44.700  
        28.0004 
 107683185.216 8  20491429.375    83909012.92947  20491437.5784         53.300  
        47.2004 
 117166426.879 8  22296033.664    91298539.80546  22296039.5664         48.100  
        37.6004 
 119474764.098 7  22735288.047    93097246.76645  22735293.6684         45.900  
        34.9004 
 111519299.649 8  21221430.727    86898239.85647  21221438.2704         50.200  
        42.7004 
 15 12 31  0 22  0.0000000  0  8G19G02G12G23G06G17G05G09
 125633501.944 7  23907266.875    97896232.59445  23907271.8244         45.300  
        32.1004 
 114229563.291 8  21737164.531    89010062.46146  21737167.5554         48.800  
        39.8004 
 127251695.835 6  24215198.664    99157170.55344  24215204.9064         41.200  
        24.5004 
 125012072.961 7  23788974.883    97411874.80344  23788979.4534         45.100  
        27.8004 
 107682212.840 8  20491244.266    83908255.23147  20491253.0944         52.700  
        47.5004 
 117261182.101 7  22314064.898    91372374.98946  22314071.3834         47.300  
        36.9004 
 119404457.979 7  22721908.820    93042462.78445  22721915.2074         46.500  
        35.4004 
 111549188.112 8  21227118.352    86921529.54147  21227125.7074         48.800  
        43.1004 
 15 12 31  0 22 30.0000000  0  8G19G02G12G23G06G17G05G09
 125740649.821 7  23927655.742    97979724.34645  23927660.9774         44.100  
        30.5004 
 114165239.484 8  21724924.445    88959940.01646  21724927.6724         49.000  
        40.0004 
 127297349.088 7  24223885.938    99192744.46544  24223892.4384         42.200  
        25.0004 
 125089957.986 7  23803796.477    97472564.33944  23803800.1374         45.700  
        28.8004 
 107681532.458 8  20491115.203    83907725.04447  20491123.0124         53.400  
        47.3004 
 117356249.286 7  22332155.852    91446453.24446  22332162.1684         46.600  
        37.0004 
 119334390.194 7  22708575.531    92987864.53445  22708582.0044         46.600  
        34.5004 
 111579640.505 8  21232913.195    86945258.65247  21232920.4804         49.700  
        43.2004 
 15 12 31  0 23  0.0000000  0  8G19G02G12G23G06G17G05G09
 125847931.157 7  23948070.633    98063320.11644  23948076.3444         43.500  
        29.7004 
 114101014.261 8  21712702.773    88909894.37346  21712705.4104         49.300  
        40.3004 
 127343379.056 6  24232645.523    99228611.93344  24232651.7074         41.300  
        25.6004 
 125168158.813 7  23818677.492    97533499.92544  23818681.3874         44.300  
        28.2004 
 107681144.911 8  20491041.227    83907423.04947  20491049.3484         52.300  
        47.3004 
 117451625.802 7  22350305.641    91520772.53446  22350311.9264         46.600  
        37.6004 
 119264560.767 7  22695287.352    92933452.00945  22695293.8634         46.400  
        35.4004 
 111610655.357 8  21238815.109    86969426.04847  21238822.7344         48.900  
        42.9004 
 15 12 31  0 23 30.0000000  0  8G19G02G12G23G06G17G05G09
 125955343.874 7  23968511.477    98147018.22245  23968516.0594         43.400  
        30.2004 
 114036888.730 8  21700499.789    88859926.41246  21700502.7624         49.500  
        39.9004 
 127389783.453 6  24241475.641    99264771.15844  24241481.7704         41.200  
        25.6004 
 125246673.140 7  23833618.086    97594679.81644  23833622.1644         44.400  
        28.2004 
 107681051.315 8  20491023.313    83907350.10747  20491031.7424         53.000  
        47.0004 
 117547309.771 7  22368513.367    91595331.40846  22368519.7464         45.500  
        37.1004 
 119194969.893 7  22682044.813    92879225.36745  22682051.0514         47.300  
        35.5004 
 111642231.509 8  21244824.367    86994030.80747  21244831.7154         49.400  
        43.4004 
 15 12 31  0 24  0.0000000  0  8G19G02G12G23G06G17G05G09
 126062885.655 7  23988975.516    98230816.89444  23988980.9494         43.100  
        29.1004 
 113972864.602 8  21688316.781    88810037.47746  21688319.5234         48.900  
        39.6004 
 127436559.496 6  24250376.539    99301219.98544  24250383.2774         40.200  
        24.3004 
 125325498.750 7  23848618.570    97656102.26544  23848622.5864         44.800  
        28.9004 
 107681252.711 8  20491061.766    83907507.02247  20491069.9614         51.000  
        47.4004 
 117643298.528 7  22386779.648    91670127.78646  22386785.9384         46.100  
        36.9004 
 119125617.783 7  22668847.766    92825184.77045  22668853.9694         47.300  
        35.0004 
 111674367.646 8  21250939.422    87019071.93147  21250946.8244         49.000  
        43.7004 
 15 12 31  0 24 30.0000000  0  8G19G02G12G23G06G17G05G09
 126170554.285 7  24009464.430    98314714.44544  24009469.2504         43.400  
        29.3004 
 113908943.606 8  21676152.906    88760228.89946  21676155.8444         49.300  
        40.1004 
 127483704.451 6  24259348.078    99337956.25644  24259354.2854         40.900  
        24.2004 
 125404633.480 7  23863677.875    97717765.55644  23863681.9304         44.100  
        29.1004 
 107681750.096 8  20491156.500    83907894.58547  20491164.7234         52.500  
        47.0004 
 117739589.730 7  22405103.195    91745159.82846  22405109.4414         45.500  
        36.5004 
 119056504.617 7  22655695.563    92771330.36445  22655701.9344         47.200  
        35.8004 
 111707062.458 8  21257160.961    87044548.38447  21257168.3364         49.600  
        43.6004 
 15 12 31  0 25  0.0000000  0  8G19G02G12G23G06G17G05G09
 126278347.454 7  24029976.938    98398709.02844  24029981.9774         43.200  
        29.1004 
 113845126.771 8  21664009.117    88710501.49146  21664012.1374         49.400  
        40.0004 
 127531215.988 6  24268388.922    99374978.20244  24268395.7774         41.300  
        25.1004 
 125484074.952 7  23878794.703    97779667.87744  23878799.1334         44.700  
        27.8004 
 107682544.635 8  20491307.516    83908513.68847  20491315.4534         52.200  
        47.1004 
 117836180.472 7  22423484.234    91820425.29246  22423490.5944         46.700  
        37.6004 
 118987630.758 7  22642589.281    92717662.43745  22642595.8714         46.700  
        35.0004 
 111740314.723 8  21263488.539    87070459.21047  21263495.9614         48.800  
        42.5004 
 15 12 31  0 25 30.0000000  0  8G19G02G12G23G06G17G05G09
 126386262.889 7  24050512.875    98482798.88344  24050517.9304         43.400  
        29.3004 
 113781415.489 8  21651885.070    88660856.32546  21651888.3014         48.800  
        40.8004 
 127579091.325 6  24277500.234    99412283.62544  24277506.5434         41.700  
        25.6004 
 125563820.743 7  23893969.672    97841807.33044  23893973.9144         44.700  
        27.7004 
 107683637.289 8  20491515.352    83909365.08947  20491523.5514         53.500  
        47.1004 
 117933068.286 7  22441920.750    91895922.22746  22441927.8094         45.600  
        37.0004 
 118918996.355 7  22629528.883    92664181.09345  22629534.8754         46.300  
        35.5004 
 111774123.058 8  21269922.203    87096803.33847  21269929.4224         49.900  
        43.2004 
 15 12 31  0 26  0.0000000  0  8G19G02G12G23G06G17G05G09
 126494298.343 7  24071071.281    98566982.24745  24071075.7624         44.600  
        30.9004 
 113717811.270 8  21639781.484    88611294.58546  21639784.3594         49.500  
        40.6004 
 127627327.740 7  24286679.391    99449870.36744  24286685.4384         42.700  
        26.5004 
 125643868.724 7  23909202.953    97904182.26844  23909207.9454         44.100  
        28.5004 
 107685029.119 8  20491780.328    83910449.61947  20491788.2464         52.600  
        47.3004 
 118030250.894 7  22460414.313    91971648.86646  22460421.1684         45.400  
        36.1004 
 118850601.501 7  22616513.797    92610886.40645  22616520.2194         46.900  
        35.4004 
 111808486.137 8  21276461.445    87123579.74047  21276468.8364         48.800  
        42.6004 
 15 12 31  0 26 30.0000000  0  8G19G02G12G23G06G17G05G09
 126602451.462 7  24091652.758    98651257.30945  24091656.8954         44.600  
        31.0004 
 113654315.321 8  21627698.688    88561817.19846  21627701.4614         49.000  
        40.5004 
 127675922.765 6  24295926.695    99487736.57544  24295933.3094         41.900  
        25.4004 
 125724216.503 7  23924492.289    97966790.79544  23924496.1844         44.300  
        28.6004 
 107686720.870 8  20492102.453    83911767.84847  20492110.3834         51.600  
        47.1004 
 118127725.525 7  22478963.070    92047603.07846  22478969.4414         45.200  
        36.9004 
 118782445.925 7  22603543.938    92557778.17245  22603550.1524         45.700  
        34.8004 
 111843402.277 8  21283105.664    87150787.08747  21283113.0434         48.800  
        43.1004 
 15 12 31  0 27  0.0000000  0  8G19G02G12G23G06G17G05G09
 126710719.861 7  24112255.383    98735622.19345  24112259.6374         43.700  
        30.2004 
 113590929.404 8  21615637.203    88512425.56546  21615640.0824         49.600  
        40.2004 
 127724873.775 6  24305241.539    99525880.17244  24305247.5554         40.800  
        26.0004 
 125804861.770 7  23939838.398    98029631.15344  23939842.7464         43.800  
        27.1004 
 107688713.729 8  20492481.727    83913320.70147  20492489.6524         52.100  
        47.2004 
 118225489.606 7  22497567.273    92123782.81946  22497573.5594         45.100  
        36.4004 
 118714530.403 7  22590620.195    92504856.99045  22590626.1764         47.300  
        35.4004 
 111878870.253 8  21289854.828    87178424.44347  21289862.6054         48.900  
        42.6004 
 15 12 31  0 27 30.0000000  0  9G19G02G12G23G06G07G17G05G09
 126819101.646 7  24132880.078    98820075.43044  24132884.5784         43.700  
        29.9004 
 113527655.180 8  21603596.414    88463120.96346  21603599.4454         50.000  
        40.7004 
 127774177.815 6  24314623.734    99564298.85144  24314630.2584         41.000  
        25.8004 
 125885802.620 7  23955241.461    98092701.82044  23955245.9844         43.500  
        27.8004 
 107691008.822 8  20492918.391    83915109.06147  20492926.3834         51.500  
        47.3004 
 130818090.57515  24893896.867                                          31.900  
                
 118323540.594 7  22516225.734    92200186.13845  22516231.6724         45.800  
        34.7004 
 118646854.798 7  22577741.672    92452122.76145  22577747.9104         46.700  
        35.4004 
 111914888.731 8  21296708.969    87206490.76747  21296716.4534         48.900  
        43.1004 
 15 12 31  0 28  0.0000000  0  9G19G02G12G23G06G07G17G05G09
 126927594.510 7  24153524.852    98904615.22644  24153530.1414         43.000  
        29.4004 
 113464494.210 8  21591577.023    88413904.61446  21591579.7074         50.300  
        40.6004 
 127823832.440 6  24324073.188    99602990.70844  24324079.1724         41.300  
        25.8004 
 125967036.662 7  23970699.414    98156000.95444  23970704.3204         43.900  
        27.2004 
 107693607.384 8  20493412.633    83917133.88247  20493420.7734         53.400  
        47.1004 
 130750460.722 6  24880969.445   101883447.46442  24880978.7114         36.600  
        16.3004 
 118421876.388 7  22534938.117    92276811.36645  22534944.9694         45.600  
        35.8004 
 118579419.789 7  22564909.750    92399576.00745  22564915.1884         47.100  
        35.5004 
 111951456.503 8  21303667.664    87234985.09947  21303674.9774         50.200  
        42.7004 
 15 12 31  0 28 30.0000000  0  9G19G02G12G23G06G07G17G05G09
 127036196.327 7  24174191.016    98989239.90744  24174197.1884         43.200  
        29.3004 
 113401447.543 8  21579579.828    88364777.32446  21579582.8674         50.000  
        40.7004 
 127873834.758 6  24333588.086    99641953.49543  24333593.7154         41.200  
        22.6004 
 126048561.657 7  23986213.500    98219526.82244  23986218.3634         44.100  
        27.1004 
 107696510.171 8  20493965.344    83919395.77247  20493973.6684         53.500  
        47.2004 
 130682586.502 6  24868054.688   101830558.48943  24868062.2034         40.700  
        23.3004 
 118520494.508 7  22553704.672    92353656.59946  22553711.5664         46.500  
        36.3004 
 118512225.068 7  22552122.719    92347216.49045  22552128.7194         47.300  
        35.1004 
 111988571.865 8  21310730.508    87263906.12447  21310737.5594         48.800  
        42.6004 
 15 12 31  0 29  0.0000000  0  9G19G02G12G23G06G07G17G05G09
 127144904.803 7  24194877.688    99073947.71044  24194883.9574         43.300  
        28.6004 
 113338516.302 8  21567604.313    88315739.98646  21567607.4494         50.100  
        40.5004 
 127924182.231 6  24343168.656    99681185.26144  24343174.5744         41.300  
        25.0004 
 126130374.665 7  24001781.227    98283277.10944  24001786.1914         43.200  
        26.8004 
 107699717.720 8  20494575.711    83921895.12447  20494584.0784         52.800  
        47.3004 
 130614765.407 6  24855149.273   101777710.92743  24855156.2624         39.600  
        22.3004 
 118619391.443 7  22572524.578    92430719.08745  22572530.5904         45.500  
        35.4004 
 118445270.565 7  22539381.484    92295044.16646  22539387.4384         47.500  
        36.0004 
 112026232.774 8  21317897.227    87293252.26047  21317904.5904         50.300  
        42.9004 
 15 12 31  0 29 30.0000000  0  9G19G02G12G23G06G07G17G05G09
 127253717.787 7  24215584.422    99158736.95644  24215590.5044         43.100  
        28.6004 
 113275702.444 8  21555651.320    88266794.10946  21555654.4384         50.200  
        41.2004 
 127974872.108 6  24352814.570    99720683.82644  24352820.7934         39.900  
        25.6004 
 126212473.941 7  24017404.930    98347250.47644  24017409.4344         43.100  
        27.5004 
 107703231.687 8  20495244.297    83924633.25847  20495252.2894         53.200  
        47.0004 
 130547000.221 6  24842253.625   101724906.88243  24842261.1334         40.200  
        21.1004 
 118718565.022 7  22591396.102    92507997.15345  22591403.6334         44.900  
        35.5004 
 118378556.817 7  22526686.633    92243059.43545  22526692.6054         47.400  
        35.9004 
 112064438.380 8  21325167.516    87323022.83247  21325174.6294         49.900  
        43.1004 
 15 12 31  0 30  0.0000000  0  9G19G02G12G23G06G07G17G05G09
 127362632.042 7  24236309.625    99243605.08344  24236315.8404         42.300  
        27.2004 
 113213007.257 8  21543720.875    88217940.70346  21543723.7154         50.200  
        40.4004 
 128025901.736 6  24362526.133    99760447.12843  24362531.6804         41.200  
        22.8004 
 126294856.931 7  24033082.016    98411444.90644  24033087.0984         44.400  
        27.4004 
 107707052.664 8  20495971.531    83927610.60947  20495979.7774         53.900  
        47.3004 
 130479293.671 6  24829368.781   101672148.50643  24829377.4804         39.600  
        22.5004 
 118818012.827 7  22610320.883    92585488.87545  22610327.4964         45.300  
        35.7004 
 118312083.488 7  22514037.461    92191262.04145  22514042.8484         47.000  
        35.9004 
 112103186.788 8  21332540.773    87353216.36747  21332548.6564         49.800  
        42.6004 
 15 12 31  0 30 30.0000000  0  9G19G02G12G23G06G07G17G05G09
 127471645.865 7  24257054.641    99328550.82544  24257060.4024         43.900  
        27.8004 
 113150432.720 8  21531813.508    88169181.31046  21531816.3364         50.000  
        41.0004 
 128077268.211 6  24372299.906    99800472.89143  24372306.7664         40.400  
        23.8004 
 126377521.580 7  24048813.148    98475858.83944  24048817.3364         44.100  
        27.9004 
 107711181.909 9  20496757.266    83930828.17647  20496765.5704         54.000  
        47.0004 
 130411648.797 6  24816496.594   101619438.21343  24816504.7504         39.600  
        22.5004 
 118917731.955 7  22629296.828    92663192.02845  22629304.0664         45.200  
        35.8004 
 118245850.791 7  22501433.414    92139652.15746  22501439.3914         46.600  
        36.0004 
 112142476.699 8  21340017.672    87383831.84447  21340024.7854         49.900  
        42.6004 
 15 12 31  0 31  0.0000000  0  9G19G02G12G23G06G07G17G05G09
 127580757.245 7  24277818.258    99413572.58744  24277823.1254         44.100  
        28.4004 
 113087979.948 8  21519928.500    88120516.79646  21519931.9414         50.100  
        41.4004 
 128128968.288 6  24382137.945    99840758.62844  24382144.8984         39.600  
        24.5004 
 126460465.530 7  24064596.477    98540490.37844  24064601.4454         43.800  
        27.0004 
 107715620.351 8  20497602.172    83934286.68047  20497610.1644         52.200  
        47.1004 
 130344068.324 6  24803636.242   101566778.12243  24803645.1054         37.300  
        20.4004 
 119017720.168 7  22648324.250    92741104.86746  22648330.2974         45.000  
        36.0004 
 118179859.101 7  22488875.469    92088230.07046  22488881.3094         47.300  
        36.6004 
 112182306.448 8  21347597.070    87414867.98947  21347604.3094         49.400  
        42.5004 
 15 12 31  0 31 30.0000000  0  9G19G02G12G23G06G07G17G05G09
 127689963.921 7  24298599.781    99498668.61444  24298605.6374         43.700  
        28.9004 
 113025650.912 8  21508068.000    88071948.70646  21508070.9614         49.900  
        41.3004 
 128180999.946 6  24392040.008    99881302.73143  24392046.0394         41.000  
        23.0004 
 126543686.524 7  24080433.172    98605337.80944  24080437.7504         44.200  
        27.6004 
 107720369.407 9  20498505.695    83937987.21747  20498513.8954         54.300  
        47.4004 
 130276555.604 6  24790789.633   101514170.80543  24790798.5204         38.400  
        22.0004 
 119117975.065 7  22667401.711    92819225.49945  22667408.3054         45.400  
        35.3004 
 118114108.928 7  22476363.664    92036996.17746  22476369.5084         47.200  
        36.0004 
 112222674.877 8  21355278.672    87446323.87847  21355286.3164         49.200  
        42.6004 
 15 12 31  0 32  0.0000000  0  9G19G02G12G23G06G07G17G05G09
 127799263.097 7  24319398.453    99583836.69844  24319404.8594         43.900  
        28.7004 
 112963446.818 8  21496230.953    88023477.97046  21496234.0664         50.000  
        40.9004 
 128233360.499 6  24402004.516    99922103.07943  24402009.9924         41.400  
        22.5004 
 126627181.917 7  24096321.898    98670399.05044  24096326.1374         44.600  
        27.6004 
 107725429.298 8  20499468.742    83941929.96447  20499477.0744         51.100  
        47.2004 
 130209112.886 6  24777955.648   101461618.06843  24777964.1604         40.000  
        22.5004 
 119218493.402 7  22686529.758    92897551.43145  22686536.1254         44.900  
        34.4004 
 118048599.242 7  22463897.820    91985949.67245  22463903.5394         47.200  
        35.3004 
 112263579.635 8  21363063.055    87478197.68147  21363070.3164         48.800  
        42.5004 
 15 12 31  0 32 30.0000000  0  9G19G02G12G23G06G07G17G05G09
 127908652.863 7  24340214.883    99669075.38144  24340220.7274         44.200  
        29.8004 
 112901368.698 7  21484418.000    87975105.39946  21484420.9844         47.800  
        41.3004 
 128286046.790 6  24412029.859    99963157.30443  24412035.0354         41.600  
        22.5004 
 126710949.600 7  24112262.359    98735672.46644  24112266.7734         42.400  
        26.8004 
 107730801.137 8  20500490.563    83946115.79847  20500498.9774         53.800  
        47.3004 
 130141742.829 6  24765135.039   101409122.00643  24765143.7704         38.000  
        21.7004 
 119319272.708 7  22705707.758    92976080.68245  22705714.0824         44.500  
        34.7004 
 117983330.792 7  22451477.391    91935091.14645  22451483.7734         44.800  
        35.8004 
 112305019.001 8  21370948.461    87510488.05447  21370956.2584         49.600  
        42.5004 
 15 12 31  0 33  0.0000000  0  9G19G02G12G23G06G07G17G05G09
 128018130.879 7  24361047.938    99754382.83644  24361053.6994         44.100  
        28.8004 
 112839418.813 7  21472629.227    87926832.75346  21472632.3714         47.900  
        41.0004 
 128339056.093 6  24422117.414   100004463.21644  24422123.7504         41.800  
        24.2004 
 126794987.351 7  24128254.016    98801156.35344  24128258.8754         43.400  
        26.0004 
 107736486.231 9  20501572.695    83950545.71547  20501581.0044         54.100  
        47.0004 
 130074448.812 6  24752328.641   101356685.20743  24752338.0044         39.300  
        21.1004 
 119420310.539 7  22724934.977    93054811.39645  22724940.8204         45.500  
        34.7004 
 117918303.931 7  22439103.102    91884420.87646  22439108.4574         45.100  
        36.0004 
 112346992.083 8  21378935.961    87543194.31047  21378943.5084         51.100  
        42.3004 
 15 12 31  0 33 30.0000000  0  9G19G02G12G23G06G07G17G05G09
 128127694.928 7  24381896.922    99839757.33344  24381903.1884         43.400  
        29.3004 
 112777598.312 8  21460865.258    87878660.92446  21460868.2854         49.200  
        40.8004 
 128392385.452 6  24432265.625   100046018.52944  24432272.1764         41.500  
        25.1004 
 126879292.641 7  24144297.844    98866848.67344  24144302.2384         44.600  
        28.1004 
 107742485.393 8  20502714.172    83955220.36747  20502722.4144         53.700  
        46.9004 
 130007233.551 6  24739538.500   101304309.81043  24739547.1024         39.400  
        21.8004 
 119521604.182 7  22744209.844    93133741.45545  22744216.3444         45.100  
        34.4004 
 117853518.315 7  22426775.063    91833938.59446  22426780.9804         47.100  
        36.0004 
 112389496.799 8  21387024.133    87576314.83247  21387031.5474         50.600  
        42.3004 
 15 12 31  0 34  0.0000000  0  9G19G02G12G23G06G07G17G05G09
 128237342.653 7  24402762.508    99925197.03044  24402769.0944         43.100  
        28.3004 
 112715909.087 8  21449126.242    87830591.40046  21449129.4184         48.000  
        40.9004 
 128446032.424 6  24442474.555   100087821.30444  24442481.9344         41.900  
        27.3004 
