     2.11           OBSERVATION DATA    G (GPS)             RINEX VERSION / TYPE
teqc  2012Jun6      GSI, JAPAN          20160101 17:06:48UTCPGM / RUN BY / DATE
Linux 2.4.21-27.ELsmp|Opteron|gcc -static|Linux x86_64|=+   COMMENT
0339                                                        MARKER NAME
GSI, JAPAN          GEOSPATIAL INFORMATION AUTHORITY OF JAPAOBSERVER / AGENCY
00000               TPS NETG3           4.0 Apr,01,2014     REC # / TYPE / VERS
                    TPSCR.G5        GSI                     ANT # / TYPE
 -3762296.5709  3685992.6142  3585585.5418                  APPROX POSITION XYZ
        0.0000        0.0000        0.0000                  ANTENNA: DELTA H/E/N
     1     1                                                WAVELENGTH FACT L1/2
     6    L1    C1    L2    P2    S1    S2                  # / TYPES OF OBSERV
    30.0000                                                 INTERVAL
Forced Modulo Decimation to 30 seconds                      COMMENT
  2015    12    31     0     0    0.0000000     GPS         TIME OF FIRST OBS
                                                            END OF HEADER
 15 12 31  0  0  0.0000000  0  8G02G09G06G19G05G12G23G17
 117229612.21546  22308053.772    91347750.27646  22308047.6134         41.5004 
        41.6004 
 110880844.09547  21099921.407    86400655.99047  21099918.7704         46.6004 
        46.5004 
 108087160.50648  20568301.722    84223751.25248  20568300.7914         48.8004 
        48.2004 
 121155403.45146  23055109.649    94406800.12146  23055104.4424         38.6004 
        38.5004 
 122779567.23245  23364172.652    95672392.39245  23364169.0964         31.6004 
        31.5004 
 125730536.43845  23925730.163    97971840.89644  23925725.2234         30.0004 
        29.8004 
 122049211.58846  23225194.078    95103281.49745  23225188.7934         36.0004 
        35.6004 
 113490821.18747  21596585.482    88434396.82247  21596581.6004         44.4004 
        43.8004 
 15 12 31  0  0 30.0000000  0  8G02G09G06G19G05G12G23G17
 117136959.77646  22290422.412    91275553.57246  22290416.0324         41.8004 
        41.3004 
 110860483.11147  21096046.591    86384790.27847  21096044.1404         47.2004 
        46.7004 
 108049337.75648  20561104.431    84194278.97648  20561103.4074         48.6004 
        48.2004 
 121229109.14246  23069134.761    94464233.08346  23069129.9284         37.9004 
        38.0004 
 122674114.95545  23344106.196    95590221.78945  23344102.6424         31.6004 
        31.5004 
 125731833.11444  23925976.382    97972851.25244  23925972.5624         29.7004 
        29.7004 
 122085839.38046  23232164.686    95131822.59546  23232158.9784         36.2004 
        36.3004 
 113544550.22847  21606809.685    88476263.58447  21606806.2154         44.1004 
        43.7004 
 15 12 31  0  1  0.0000000  0  8G02G09G06G19G05G12G23G17
 117044345.72946  22272799.051    91203386.79046  22272792.2564         41.4004 
        41.3004 
 110840709.60347  21092283.494    86369382.34447  21092281.4234         46.3004 
        46.1004 
 108011754.01648  20553952.428    84164992.95048  20553951.6694         49.4004 
        48.9004 
 121303037.64446  23083203.298    94521839.66346  23083198.5924         37.8004 
        37.9004 
 122568878.19545  23324079.383    95508219.11345  23324076.4134         31.8004 
        31.7004 
 125733598.83544  23926312.042    97974227.11544  23926308.4144         28.4004 
        29.1004 
 122122868.04646  23239211.527    95160676.05846  23239205.2104         36.5004 
        36.5004 
 113598681.40247  21617110.219    88518443.69347  21617107.4914         44.3004 
        44.1004 
 15 12 31  0  1 30.0000000  0  8G02G09G06G19G05G12G23G17
 116951774.29446  22255183.210    91131253.20246  22255176.8444         41.9004 
        41.7004 
 110821526.46347  21088633.423    86354434.44247  21088630.9094         46.4004 
        46.2004 
 107974413.39248  20546846.759    84135896.34948  20546845.9224         49.5004 
        48.9004 
 121377190.32146  23097314.383    94579620.91246  23097309.6224         38.3004 
        38.4004 
 122463860.73445  23304094.999    95426387.32545  23304092.7734         32.2004 
        32.1004 
 125735834.09744  23926737.725    97975968.87644  23926733.1244         27.5004 
        27.4004 
 122160298.76046  23246334.197    95189842.80846  23246327.3324         36.5004 
        36.5004 
 113653216.34047  21627488.431    88560938.41747  21627485.1164         44.8004 
        44.6004 
 15 12 31  0  2  0.0000000  0  8G02G09G06G19G05G12G23G17
 116859248.62447  22237575.941    91059155.28646  22237569.7984         42.0004 
        41.7004 
 110802935.93447  21085095.344    86339948.30647  21085093.2934         46.4004 
        45.9004 
 107937319.37448  20539787.988    84106991.91448  20539787.1584         49.2004 
        48.7004 
 121451567.69246  23111468.564    94637577.23546  23111462.8134         39.1004 
        39.1004 
 122359065.40845  23284153.889    95344728.60945  23284150.8234         32.8004 
        32.5004 
 125738540.08144  23927252.858    97978077.40644  23927248.5674         27.2004 
        27.1004 
 122198131.84846  23253533.181    95219323.09346  23253527.1654         36.0004 
        36.1004 
 113708155.44347  21637942.991    88603748.08547  21637939.5214         44.4004 
        44.5004 
 15 12 31  0  2 30.0000000  0  8G02G09G06G19G05G12G23G17
 116766768.54647  22219977.808    90987092.89747  22219971.1984         42.3004 
        42.0004 
 110784936.51547  21081670.124    86325922.78047  21081668.3324         46.4004 
        45.6004 
 107900471.76548  20532775.934    84078279.48448  20532775.3864         49.2004 
        48.9004 
 121526166.15846  23125663.742    94695705.84546  23125658.8904         38.9004 
        38.8004 
 122254491.85945  23264253.727    95263242.72545  23264250.5424         33.0004 
        32.8004 
 125741713.57844  23927856.599    97980550.23744  23927852.3404         27.0004 
        27.1004 
 122236364.27845  23260808.399    95249114.55645  23260802.3714         35.6004 
        35.6004 
 113763495.40247  21648473.219    88646870.09547  21648470.7074         44.0004 
        43.8004 
 15 12 31  0  3  0.0000000  0  8G02G09G06G19G05G12G23G17
 116674337.36947  22202388.421    90915068.61746  22202382.3364         42.0004 
        41.7004 
 110767530.08547  21078357.822    86312359.32147  21078355.9524         46.6004 
        46.3004 
 107863873.70648  20525811.335    84049761.51048  20525810.9384         48.6004 
        48.3004 
 121600985.76446  23139901.687    94754006.78146  23139896.6964         39.3004 
        39.2004 
 122150142.61445  23244397.042    95181931.63445  23244392.9304         33.0004 
        32.9004 
 125745354.68044  23928549.641    97983387.39344  23928545.1184         26.8004 
        25.9004 
 122274996.06445  23268159.423    95279217.21045  23268154.1354         35.2004 
        35.2004 
 113819236.11147  21659080.777    88690304.37647  21659077.3664         44.1004 
        43.8004 
 15 12 31  0  3 30.0000000  0  8G02G09G06G19G05G12G23G17
 116581955.32147  22184808.344    90843082.62347  22184802.4624         42.4004 
        42.0004 
 110750715.63147  21075158.526    86299257.14447  21075156.3234         46.8004 
        46.1004 
 107827525.55348  20518894.862    84021438.26148  20518894.0904         48.8004 
        48.1004 
 121676023.71046  23154180.408    94812477.85946  23154176.1384         38.4004 
        38.6004 
 122046017.35645  23224582.367    95100795.07245  23224578.8074         33.5004 
        33.5004 
 125749460.53044  23929331.185    97986586.70944  23929324.2904         25.6004 
        25.9004 
 122314024.64845  23275586.690    95309629.06045  23275581.1204         35.3004 
        35.2004 
 113875374.57847  21669763.984    88734048.60747  21669759.6964         44.1004 
        44.0004 
 15 12 31  0  4  0.0000000  0  8G02G09G06G19G05G12G23G17
 116489625.73447  22167239.076    90771137.51546  22167232.8974         42.2004 
        41.8004 
 110734494.74847  21072071.493    86286617.48747  21072069.4824         46.9004 
        46.8004 
 107791430.29848  20512026.372    83993312.07648  20512025.2114         48.5004 
        48.1004 
 121751279.62246  23168500.616    94871118.77846  23168497.5444         38.8004 
        38.8004 
 121942118.28045  23204810.558    95019834.77145  23204808.4504         34.4004 
        34.1004 
 125754031.29744  23930200.627    97990148.30844  23930195.6794         25.0004 
        25.1004 
 122353449.96545  23283089.242    95340350.05145  23283083.3184         35.4004 
        35.5004 
 113931911.00847  21680522.333    88778102.92547  21680518.1514         44.0004 
        43.9004 
 15 12 31  0  4 30.0000000  0  8G02G09G06G19G05G12G23G17
 116397345.93946  22149678.795    90699231.19546  22149672.5794         41.8004 
        41.8004 
 110718863.76847  21069097.357    86274437.50547  21069095.0674         47.0004 
        46.8004 
 107755585.65848  20505205.554    83965381.17848  20505204.0704         48.4004 
        48.1004 
 121826748.14946  23182862.585    94929925.36946  23182857.8694         38.0004 
        37.9004 
 121838442.82846  23185082.547    94939048.71345  23185079.5304         36.0004 
        35.8004 
 125759061.63844  23931157.607    97994068.04444  23931153.2564         25.6004 
        25.6004 
 122393266.81845  23290667.062    95371376.14345  23290660.9914         35.6004 
        35.6004 
 113988839.95047  21691355.789    88822463.10347  21691352.0474         43.6004 
        43.5004 
 15 12 31  0  5  0.0000000  0  8G02G09G06G19G05G12G23G17
 116305119.92747  22132128.679    90627366.77247  22132122.0714         42.5004 
        42.0004 
 110703825.30447  21066235.425    86262719.22047  21066233.4194         47.0004 
        46.5004 
 107719995.65248  20498432.804    83937648.69147  20498431.6074         48.4004 
        47.8004 
 121902430.12546  23197264.836    94988898.27746  23197259.6964         38.6004 
        38.8004 
 121734994.61046  23165396.871    94858439.69646  23165393.7394         36.4004 
        36.2004 
 125764552.56044  23932203.465    97998346.64044  23932198.0524         25.6004 
        25.8004 
 122433476.09345  23298318.513    95402708.00745  23298312.1924         35.4004 
        35.5004 
 114046162.56647  21702263.413    88867130.03647  21702260.5494         43.5004 
        43.1004 
 15 12 31  0  5 30.0000000  0  8G02G09G06G19G05G12G23G17
 116212943.48947  22114587.985    90555540.99146  22114581.4434         42.2004 
        41.8004 
 110689373.67147  21063485.358    86251458.20347  21063483.1664         46.6004 
        46.8004 
 107684656.05048  20491707.798    83910111.33548  20491706.7444         48.8004 
        48.3004 
 121978318.43246  23211706.159    95048031.94646  23211700.2074         38.8004 
        38.7004 
 121631768.68746  23145753.927    94778003.91746  23145750.5354         36.4004 
        36.5004 
 125770496.38744  23933334.267    98002978.18044  23933329.0684         26.4004 
        26.0004 
 122474070.53945  23306043.606    95434340.00645  23306037.0714         35.3004 
        35.4004 
 114103870.94347  21713245.199    88912097.57847  21713242.6184         43.4004 
        43.4004 
 15 12 31  0  6  0.0000000  0  8G02G09G06G19G05G12G23G17
 116120818.58047  22097057.613    90483755.36147  22097051.1774         42.2004 
        42.1004 
 110675508.98547  21060846.854    86240654.55247  21060845.0124         47.2004 
        47.0004 
 107649568.46148  20485030.793    83882770.35448  20485029.8774         48.6004 
        48.3004 
 122054411.33746  23226185.110    95107325.03546  23226179.9824         37.1004 
        37.0004 
 121528765.71546  23126153.121    94697741.86646  23126149.0914         36.1004 
        36.2004 
 125776892.30544  23934551.636    98007961.98044  23934546.2174         26.7004 
        26.6004 
 122515048.72645  23313841.010    95466271.00545  23313834.7844         35.0004 
        35.1004 
 114161963.90647  21724300.164    88957364.78547  21724296.9154         43.6004 
        43.1004 
 15 12 31  0  6 30.0000000  0  8G02G09G06G19G05G12G23G17
 116028749.01347  22079536.637    90412012.85347  22079530.7834         42.1004 
        42.1004 
 110662233.84647  21058320.730    86230310.28547  21058318.9354         45.7004 
        45.4004 
 107614736.94648  20478402.566    83855628.90448  20478401.8524         49.2004 
        48.4004 
 122130709.43746  23240704.163    95166778.01746  23240699.7774         36.8004 
        36.8004 
 121425989.31346  23106595.245    94617656.36946  23106591.4744         36.6004 
        36.4004 
 125783740.76944  23935854.961    98013298.39644  23935849.6844         27.4004 
        27.1004 
 122556411.79845  23321711.710    95498501.91245  23321705.7584         34.9004 
        34.9004 
 114220442.08447  21735428.388    89002932.15447  21735424.0924         42.8004 
        42.7004 
 15 12 31  0  7  0.0000000  0  8G02G09G06G19G05G12G23G17
 115936735.89647  22062026.975    90340314.33646  22062021.6124         42.0004 
        41.5004 
 110649547.39947  21055906.689    86220424.73647  21055904.6814         46.7004 
        47.1004 
 107580162.20548  20471823.331    83828687.53748  20471822.6144         49.4004 
        49.2004 
 122207210.56146  23255261.219    95226389.21746  23255257.1964         36.6004 
        36.4004 
 121323439.72646  23087080.653    94537747.62146  23087077.6534         36.7004 
        36.7004 
 125791039.82644  23937243.806    98018985.93144  23937238.7674         27.9004 
        28.0004 
 122598157.14145  23329655.330    95531030.71345  23329649.8724         34.3004 
        34.2004 
 114279303.44747  21746629.245    89048798.09947  21746625.5134         43.0004 
        43.0004 
 15 12 31  0  7 30.0000000  0  8G02G09G06G19G05G12G23G17
 115844782.72147  22044529.446    90268662.52546  22044522.8544         42.0004 
        41.9004 
 110637451.56547  21053605.004    86210999.40847  21053602.8564         46.8004 
        46.9004 
 107545847.70748  20465293.366    83801948.95248  20465292.8494         49.3004 
        48.8004 
 122283914.84246  23269858.295    95286158.73846  23269854.3994         36.8004 
        36.8004 
 121221120.00446  23067609.238    94458017.98746  23067605.9624         36.1004 
        36.3004 
 125798789.54044  23938717.050    98025024.64144  23938714.6444         28.8004 
        28.8004 
 122640285.46045  23337672.093    95563857.91945  23337666.2394         33.8004 
        33.9004 
 114338548.00147  21757903.109    89094962.64147  21757899.0304         43.2004 
        43.0004 
 15 12 31  0  8  0.0000000  0  8G02G09G06G19G05G12G23G17
 115752892.89446  22027043.500    90197060.07646  22027036.8974         41.9004 
        41.8004 
 110625948.32847  21051415.875    86202035.85147  21051413.8524         47.1004 
        46.4004 
 107511797.05148  20458813.671    83775415.95548  20458813.1484         49.4004 
        49.0004 
 122360822.81746  23284493.824    95346086.98546  23284489.6664         37.2004 
        37.2004 
 121119032.55646  23048183.277    94378469.34546  23048179.4304         36.0004 
        36.0004 
 125806990.39344  23940278.357    98031414.85344  23940274.9384         28.8004 
        28.9004 
 122682796.89545  23345762.466    95596983.66845  23345755.5464         33.5004 
        33.6004 
 114398176.14647  21769250.285    89141426.09047  21769245.9874         43.2004 
        42.9004 
 15 12 31  0  8 30.0000000  0  8G02G09G06G19G05G12G23G17
 115661060.86747  22009568.601    90125502.66447  22009561.7904         42.1004 
        42.2004 
 110615030.32547  21049338.144    86193528.31447  21049336.2444         46.3004 
        45.9004 
 107478004.42048  20452383.488    83749084.03148  20452382.6544         49.2004 
        48.9004 
 122437925.47346  23299166.140    95406166.91646  23299161.6594         36.8004 
        37.0004 
 121017171.47746  23028799.422    94299097.08246  23028796.4264         36.7004 
        36.5004 
 125815633.35345  23941923.758    98038149.58445  23941920.2724         30.4004 
        30.9004 
 122725683.11545  23353923.587    95630401.44745  23353916.5834         33.4004 
        33.5004 
 114458178.68647  21780668.182    89188181.27047  21780664.6784         43.5004 
        43.4004 
 15 12 31  0  9  0.0000000  0  8G02G09G06G19G05G12G23G17
 115569288.93746  21992104.615    90053992.07246  21992097.9664         41.9004 
        41.9004 
 110604698.23247  21047371.856    86185477.32447  21047369.8434         46.1004 
        46.1004 
 107444472.19448  20446002.521    83722955.01548  20446001.4834         49.8004 
        49.2004 
 122515221.67546  23313875.289    95466397.64846  23313871.0054         37.7004 
        37.8004 
 120915538.36446  23009459.079    94219902.48746  23009456.3714         37.1004 
        37.1004 
 125824717.47145  23943652.081    98045228.07445  23943649.2234         31.5004 
        31.4004 
 122768942.59245  23362154.835    95664110.08145  23362148.6864         33.3004 
        33.3004 
 114518554.80747  21792157.268    89235227.55147  21792154.2084         43.3004 
        43.2004 
 15 12 31  0  9 30.0000000  0  8G02G09G06G19G05G12G23G17
 115477579.96146  21974653.337    89982530.53746  21974646.1154         41.9004 
        41.6004 
 110594953.07347  21045517.544    86177883.69247  21045515.6204         46.4004 
        46.0004 
 107411203.00248  20439671.546    83697030.96248  20439670.7764         48.9004 
        48.9004 
 122592710.94046  23328620.631    95526778.81246  23328616.5014         36.8004 
        36.9004 
 120814135.17946  22990162.668    94140887.03546  22990160.0484         37.4004 
        37.4004 
 125834242.25345  23945463.984    98052649.93645  23945461.3734         31.7004 
        31.6004 
 122812575.08445  23370457.758    95698109.37345  23370451.9404         33.3004 
        33.4004 
 114579304.09747  21803716.968    89282564.61647  21803714.6464         43.4004 
        43.1004 
 15 12 31  0 10  0.0000000  0  8G02G09G06G19G05G12G23G17
 115385932.42246  21957213.757    89911116.86946  21957206.3834         41.9004 
        41.9004 
 110585791.56547  21043774.174    86170744.84947  21043772.4934         46.5004 
        46.3004 
 107378195.25148  20433390.257    83671310.62648  20433389.5774         49.0004 
        48.6004 
 122670388.53546  23343402.002    95587306.72546  23343398.1974         36.4004 
        36.5004 
 120712959.46646  22970909.942    94062048.84446  22970906.5604         37.2004 
        37.1004 
 125844202.60645  23947359.521    98060411.20945  23947356.9764         31.1004 
        31.0004 
 122856575.97945  23378830.330    95732395.72645  23378825.6664         33.3004 
        33.5004 
 114640421.48947  21815347.369    89330188.51147  21815344.9714         43.2004 
        43.0004 
 15 12 31  0 10 30.0000000  0  8G02G09G06G19G05G12G23G17
 115294352.33446  21939786.036    89839755.76447  21939779.6794         41.9004 
        42.1004 
 110577218.20647  21042142.618    86164064.29747  21042141.2004         46.3004 
        46.4004 
 107345455.12248  20427160.056    83645798.83148  20427159.1304         49.1004 
        48.7004 
 122748257.33845  23358219.494    95647983.65245  23358216.2554         35.8004 
        35.8004 
 120612016.94046  22951701.560    93983392.34846  22951697.8054         37.6004 
        37.4004 
 125854601.39145  23949338.369    98068514.12345  23949334.3954         31.1004 
        31.2004 
 122900948.41145  23387274.357    95766971.57145  23387269.8374         33.5004 
        33.4004 
 114701909.94547  21827048.400    89378101.55047  21827045.3024         42.6004 
        42.7004 
 15 12 31  0 11  0.0000000  0  8G02G09G06G19G05G12G23G17
 115202839.17746  21922371.746    89768446.81846  21922365.3594         41.8004 
        41.8004 
 110569230.12947  21040622.829    86157839.81247  21040621.0334         47.2004 
        47.0004 
 107312981.55448  20420980.502    83620494.74148  20420979.5424         48.5004 
        48.1004 
 122826312.99045  23373073.362    95708806.17245  23373068.5854         35.1004 
        35.2004 
 120511305.58446  22932536.776    93904915.98146  22932532.6314         37.9004 
        37.9004 
 125865435.24945  23951400.604    98076956.05245  23951397.6514         30.9004 
        30.7004 
 122945687.97045  23395788.523    95801833.50745  23395783.5734         33.5004 
        33.5004 
 114763765.18847  21838819.749    89426300.40147  21838816.1914         42.7004 
        42.4004 
 15 12 31  0 11 30.0000000  0  8G02G09G06G19G05G12G23G17
 115111390.11146  21904969.538    89697187.81246  21904963.2214         41.9004 
        41.9004 
 110561822.54747  21039213.343    86152067.66647  21039211.4624         47.5004 
        47.4004 
 107280771.47348  20414851.238    83595395.96648  20414850.1294         48.7004 
        48.4004 
 122904549.43346  23387962.171    95769769.58146  23387957.0334         36.4004 
        36.5004 
 120410821.83946  22913415.159    93826616.98346  22913412.0254         37.7004 
        37.6004 
 125876697.00245  23953543.749    98085731.40045  23953539.8464         31.2004 
        31.2004 
 122990788.54445  23404370.754    95836976.74345  23404366.4854         33.4004 
        33.6004 
 114825980.86147  21850658.361    89474780.09647  21850655.4144         42.3004 
        42.1004 
 15 12 31  0 12  0.0000000  0  8G02G09G06G19G05G12G23G17
 115020006.48647  21887579.248    89625979.80247  21887573.5304         42.3004 
        42.2004 
 110554995.60947  21037913.748    86146747.96447  21037912.0724         46.7004 
        46.8004 
 107248826.82648  20408772.923    83570504.02848  20408771.4674         48.8004 
        48.3004 
 122982965.17046  23402884.141    95830872.66846  23402878.4394         36.1004 
        36.1004 
 120310566.92146  22894337.147    93748496.28146  22894334.0164         38.0004 
        37.9004 
 125888385.40745  23955768.519    98094839.21845  23955764.2514         31.7004 
        31.7004 
 123036249.00945  23413022.040    95872400.43245  23413016.7524         33.2004 
        33.5004 
 114888555.36147  21862566.004    89523539.39347  21862562.8424         42.1004 
        42.1004 
 15 12 31  0 12 30.0000000  0  8G02G09G06G19G05G12G23G17
 114928691.76147  21870203.397    89554825.47446  21870196.8284         42.0004 
        41.9004 
 110548750.31847  21036725.321    86141881.49647  21036723.8114         47.0004 
        46.3004 
 107217150.41248  20402744.837    83545821.09248  20402743.5894         49.1004 
        48.7004 
 123061559.66546  23417840.489    95892115.05046  23417834.6674         36.7004 
        36.6004 
 120210543.20146  22875302.756    93670555.73146  22875299.8374         37.9004 
        37.9004 
 125900500.04445  23958073.650    98104279.15845  23958069.5014         31.9004 
        32.1004 
 123082068.83045  23421740.985    95908104.15045  23421736.6664         33.0004 
        33.0004 
 114951488.11347  21874541.837    89572577.83946  21874538.0964         42.2004 
        41.9004 
 15 12 31  0 13  0.0000000  0  8G02G09G06G19G05G12G23G17
 114837449.44546  21852840.752    89483727.56146  21852833.8394         41.9004 
        41.8004 
 110543088.14647  21035648.087    86137469.40447  21035646.4794         46.9004 
        46.4004 
 107185745.54248  20396768.615    83521349.75048  20396767.4284         49.4004 
        48.7004 
 123140333.08846  23432830.290    95953496.85346  23432825.6314         36.3004 
        36.4004 
 120110753.21646  22856314.390    93592797.31546  22856310.8734         38.8004 
        38.9004 
 125913040.79345  23960459.789    98114051.13745  23960455.3964         31.8004 
        31.7004 
 123128248.21145  23430528.682    95944088.02145  23430523.5474         32.5004 
        32.7004 
 115014779.49547  21886586.294    89621895.74447  21886582.5034         42.1004 
        42.0004 
 15 12 31  0 13 30.0000000  0  8G02G09G06G19G05G12G23G17
 114746281.93146  21835491.694    89412687.93747  21835484.9304         41.6004 
        42.0004 
 110538009.43547  21034681.748    86133511.94947  21034680.2474         46.3004 
        46.0004 
 107154614.41548  20390844.270    83497091.71648  20390843.4494         48.6004 
        48.0004 
 123219284.19445  23447854.399    96015017.09645  23447849.8294         35.5004 
        35.5004 
 120011197.96846  22837369.231    93515221.82046  22837366.1014         38.4004 
        38.3004 
 125926006.55445  23962927.696    98124154.29945  23962923.5474         32.4004 
        32.4004 
 123174786.18445  23439384.634    95980351.31945  23439379.8804         32.3004 
        32.3004 
 115078427.72947  21898697.766    89671491.72247  21898694.2104         42.1004 
        42.0004 
 15 12 31  0 14  0.0000000  0  8G02G09G06G19G05G12G23G17
 114655187.43446  21818156.913    89341705.19446  21818150.2474         41.7004 
        41.8004 
 110533510.70347  21033825.576    86130006.43447  21033824.2784         47.0004 
        46.4004 
 107123755.45548  20384971.981    83473045.75847  20384971.1464         48.1004 
        47.8004 
 123298408.38845  23462910.569    96076672.25245  23462906.6714         34.8004 
        34.7004 
 119911875.72446  22818468.480    93437827.88146  22818465.1724         38.3004 
        38.3004 
 125939392.53045  23965474.076    98134584.89445  23965471.6704         32.2004 
        32.3004 
 123221677.78345  23448308.201    96016890.15345  23448302.6044         32.1004 
        32.2004 
 115142428.39846  21910876.193    89721362.34246  21910873.7624         41.9004 
        41.8004 
 15 12 31  0 14 30.0000000  0  8G02G09G06G19G05G12G23G17
 114564166.02946  21800836.216    89270779.41146  21800829.5784         41.4004 
        41.9004 
 110529589.60647  21033079.489    86126951.01947  21033078.0174         46.8004 
        46.3004 
 107093168.18248  20379151.485    83449211.50748  20379150.4554         48.5004 
        48.5004 
 123377702.28745  23477999.643    96138459.66545  23477995.7274         34.7004 
        34.7004 
 119812784.97146  22799611.867    93360614.32646  22799608.8034         38.0004 
        38.0004 
 125953194.59645  23968101.122    98145339.71045  23968098.0094         32.8004 
        32.9004 
 123268919.69645  23457297.396    96053701.95945  23457292.4194         31.8004 
        31.9004 
 115206777.90247  21923122.155    89771504.77047  21923119.3624         42.5004 
        42.4004 
 15 12 31  0 15  0.0000000  0  8G02G09G06G19G05G12G23G17
 114473220.79246  21783530.022    89199912.98046  21783523.7424         41.8004 
        41.7004 
 110526247.16347  21032443.067    86124346.51047  21032441.7554         46.6004 
        45.8004 
 107062855.56548  20373383.265    83425591.27448  20373382.3614         49.7004 
        48.9004 
 123457165.09145  23493121.314    96200378.65445  23493118.2864         35.5004 
        35.5004 
 119713927.99946  22780800.338    93283582.94346  22780797.1974         38.1004 
        38.2004 
 125967412.54145  23970806.544    98156418.60145  23970803.1464         32.4004 
        32.4004 
 123316511.35645  23466353.918    96090786.29145  23466349.0124         31.4004 
        31.8004 
 115271475.20947  21935433.871    89821918.19647  21935430.6004         42.0004 
        42.1004 
 15 12 31  0 15 30.0000000  0  9G02G09G07G06G19G05G12G23G17
 114382350.09246  21766237.763    89129104.63346  21766231.3124         41.6004 
        41.6004 
 110523479.57747  21031916.979    86122189.94047  21031915.2894         46.9004 
        46.6004 
 131759234.134 6  25072947.460                                          39.400  
                
 107032815.77648  20367667.095    83402183.64248  20367666.3004         49.0004 
        49.0004 
 123536791.54945  23508273.718    96262425.15945  23508269.6414         34.9004 
        35.0004 
 119615302.25346  22762032.587    93206731.74046  22762029.3464         38.4004 
        38.3004 
 125982040.96645  23973590.181    98167817.34445  23973586.2244         32.3004 
        32.3004 
 123364447.74445  23475476.394    96128139.24145  23475471.0814         31.2004 
        31.3004 
 115336515.20646  21947810.616    89872598.64846  21947806.3464         41.0004 
        40.9004 
 15 12 31  0 16  0.0000000  0  9G02G09G07G06G19G05G12G23G17
 114291557.46646  21748960.558    89058357.12446  21748953.8234         41.9004 
        41.8004 
 110521288.34147  21031500.081    86120482.47347  21031498.0784         47.0004 
        46.6004 
 131665696.172 6  25055148.530                                          40.600  
                
 107003052.23348  20362003.000    83378991.25747  20362002.4964         48.3004 
        47.7004 
 123616582.28245  23523457.588    96324599.66045  23523453.0054         35.0004 
        35.2004 
 119516910.58446  22743309.170    93130062.92446  22743305.8024         38.0004 
        38.0004 
 125997079.98345  23976451.708    98179536.03745  23976447.3254         31.5004 
        31.7004 
 123412729.22645  23484663.699    96165761.09345  23484658.3544         30.8004 
        30.9004 
 115401898.39146  21960251.651    89923546.51846  21960248.5504         40.7004 
        40.4004 
 15 12 31  0 16 30.0000000  0  9G02G09G07G06G19G05G12G23G17
 114200842.42446  21731697.990    88987670.06746  21731691.2204         41.7004 
        41.6004 
 110519670.84047  21031191.948    86119222.06947  21031190.0934         46.4004 
        46.2004 
 131572138.690 6  25037343.659                                          36.600  
                
 106973564.34848  20356392.027    83356013.67848  20356390.9884         49.3004 
        48.5004 
 123696533.45646  23538672.874    96386899.18746  23538668.1434         36.4004 
        36.5004 
 119418751.36346  22724630.018    93053575.24546  22724627.1134         38.2004 
        38.2004 
 126012525.92645  23979391.565    98191571.82445  23979387.2984         30.7004 
        30.8004 
 123461352.01745  23493917.033    96203648.90545  23493911.1834         30.3004 
        30.5004 
 115467620.37046  21972758.661    89974758.39246  21972754.7454         40.6004 
        40.3004 
 15 12 31  0 17  0.0000000  0  9G02G09G07G06G19G05G12G23G17
 114110208.33847  21714450.950    88917046.09346  21714444.2224         42.0004 
        41.7004 
 110518627.82647  21030993.597    86118409.32147  21030991.5334         46.4004 
        46.4004 
 131478566.302 6  25019538.186                                          38.400  
                
 106944354.90448  20350833.400    83333253.06548  20350832.6504         49.3004 
        48.5004 
 123776644.24145  23553916.292    96449323.09145  23553913.2874         35.0004 
        35.0004 
 119320826.71946  22705995.636    92977270.35446  22705992.2364         37.7004 
        37.9004 
 126028377.57345  23982407.426    98203923.74645  23982403.9404         31.0004 
        31.0004 
 123510315.47745  23503234.547    96241802.17345  23503229.4454         30.6004 
        30.5004 
 115533680.44046  21985329.884    90026233.71646  21985326.1304         41.4004 
        41.4004 
 15 12 31  0 17 30.0000000  0  9G02G09G07G06G19G05G12G23G17
 115595077.45546  21997012.172    90074086.94846  21997005.2134         41.8004 
        41.7004 
 112093576.36547  21330696.487    87345641.93247  21330694.6954         47.1004 
        46.6004 
 132960402.371 6  25301522.474                                          40.000  
                
 108490843.98248  20645120.399    84538309.48748  20645119.7894         49.6004 
        48.7004 
 125432327.66345  23868982.071    97739465.94945  23868978.6714         34.2004 
        34.2004 
 120798558.31946  22987198.484    94128749.54246  22987195.4484         37.3004 
        37.5004 
 127620049.50245  24285292.022    99444187.55245  24285289.8654         31.0004 
        30.8004 
 125135033.93045  23812408.530    97507816.48145  23812403.7824         30.9004 
        30.9004 
 117175492.00047  22297756.286    91305567.33946  22297753.0164         42.0004 
        41.7004 
 15 12 31  0 18  0.0000000  0  9G02G09G07G06G19G05G12G23G17
 115504604.24147  21979795.391    90003588.33547  21979788.7644         42.1004 
        42.1004 
 112093674.77347  21330715.053    87345718.60247  21330713.6614         46.9004 
        46.5004 
 132866803.110 6  25283710.627                                          40.400  
                
 108462190.05048  20639668.084    84515981.73948  20639667.1544         49.0004 
        48.7004 
 125512746.62545  23884285.567    97802130.01745  23884281.3144         33.9004 
        33.6004 
 120701099.14346  22968652.499    94052807.34846  22968648.8284         37.3004 
        37.2004 
 127636700.73145  24288461.137    99457162.50145  24288457.9144         31.6004 
        31.5004 
 125184667.65745  23821853.136    97546492.04945  23821848.2974         31.2004 
        31.2004 
 117242216.63646  22310453.492    91357560.51346  22310450.5244         41.4004 
        41.3004 
 15 12 31  0 18 30.0000000  0  9G02G09G07G06G19G05G12G23G17
 115414213.52647  21962594.975    89933154.00847  21962588.2194         42.4004 
        42.2004 
 112094342.57847  21330842.150    87346238.95247  21330840.4614         46.4004 
        46.0004 
 132773194.914 6  25265897.698                                          39.800  
                
 108433815.64048  20634268.650    84493871.80448  20634267.6474         49.3004 
        49.3004 
 125593316.70545  23899617.647    97864911.82845  23899612.8334         34.3004 
        34.2004 
 120603873.28646  22950151.667    93977046.95146  22950147.7184         37.2004 
        37.2004 
 127653748.59445  24291705.637    99470446.51345  24291703.1354         31.4004 
        31.5004 
 125234633.63145  23831361.743    97585426.49845  23831356.6534         31.3004 
        31.3004 
 117309270.38846  22323213.451    91409810.13446  22323210.2714         41.0004 
        40.8004 
 15 12 31  0 19  0.0000000  0  9G02G09G07G06G19G05G12G23G17
 115323906.84147  21945410.040    89862785.15947  21945403.6224         42.5004 
        42.6004 
 112095578.69147  21331077.324    87347202.14347  21331075.5804         46.3004 
        46.1004 
 132679580.567 6  25248082.908                                          37.000  
                
 108405721.83148  20628922.468    84471980.51748  20628921.4914         48.5004 
        48.0004 
 125674035.46945  23914978.884    97927809.47445  23914973.7034         35.9004 
        35.8004 
 120506881.29246  22931694.204    93901468.80346  22931690.3634         37.3004 
        37.3004 
 127671190.56645  24295025.174    99484037.59145  24295021.9244         32.6004 
        32.4004 
 125284929.59845  23840932.889    97624618.09845  23840926.7614         30.9004 
        31.1004 
 117376650.72046  22336035.801    91462314.23446  22336031.3234         40.7004 
        40.5004 
 15 12 31  0 19 30.0000000  0  9G02G09G07G06G19G05G12G23G17
 115233685.04047  21928241.737    89792482.44947  21928234.9954         42.9004 
        42.7004 
 112097381.63947  21331420.856    87348607.01547  21331418.4514         46.7004 
        46.2004 
 132585962.258 6  25230268.044                                          36.900  
                
 108377909.20348  20623629.481    84450308.33248  20623628.8584         49.4004 
        48.4004 
 125754900.33345  23930367.483    97990820.94345  23930362.4564         35.3004 
        35.2004 
 120410122.66346  22913281.377    93826072.50046  22913277.5684         37.1004 
        37.1004 
 127689023.75145  24298417.573    99497933.51945  24298415.4274         31.8004 
        31.4004 
 125335552.70745  23850565.459    97664064.61645  23850560.6024         30.4004 
        30.5004 
 117444354.66146  22348919.879    91515070.48346  22348914.9634         40.6004 
        40.8004 
 15 12 31  0 20  0.0000000  0  9G02G09G07G06G19G05G12G23G17
 115143548.53347  21911089.217    89722246.19847  21911082.0674         42.5004 
        42.2004 
 112099749.71247  21331871.321    87350452.25147  21331869.0834         46.8004 
        46.5004 
 132492342.285 6  25212453.686                                          40.100  
                
 108350378.31648  20618390.590    84428855.67848  20618389.7714         49.6004 
        48.8004 
 125835908.45245  23945781.544    98053944.05045  23945778.4024         33.9004 
        34.2004 
 120313597.12946  22894913.460    93750857.83946  22894909.5864         37.0004 
        37.0004 
 127707244.85745  24301886.277    99512131.72945  24301882.9344         32.5004 
        32.4004 
 125386500.37645  23860260.347    97703764.01345  23860255.5334         30.1004 
        30.3004 
 117512379.33746  22361864.457    91568076.64046  22361860.5334         40.9004 
        40.7004 
 15 12 31  0 20 30.0000000  0  9G02G09G07G06G19G05G12G23G17
 115053499.42147  21893953.136    89652078.05447  21893946.4414         42.7004 
        42.8004 
 112102682.18847  21332428.932    87352737.28347  21332427.0584         45.9004 
        45.7004 
 132398723.897 6  25194637.255                                          40.200  
                
 108323130.48148  20613205.390    84407623.59048  20613204.5814         48.7004 
        48.1004 
 125917057.88845  23961223.523    98117177.30545  23961220.3764         33.9004 
        33.9004 
 120217305.60446  22876590.508    93675825.50146  22876585.7514         36.8004 
        36.9004 
 127725851.63345  24305426.563    99526630.46345  24305424.1964         32.1004 
        32.0004 
 125437770.68344  23870017.309    97743714.82644  23870010.7264         29.9004 
        29.9004 
 117580722.43946  22374869.637    91621330.94746  22374866.1324         41.3004 
        41.0004 
 15 12 31  0 21  0.0000000  0  9G02G09G07G06G19G05G12G23G17
 114963539.90347  21876834.810    89581979.72747  21876828.0534         43.2004 
        43.2004 
 112106178.65247  21333094.829    87355461.77247  21333092.3104         46.0004 
        46.1004 
 132305110.662 6  25176823.068                                          38.400  
                
 108296167.61448  20608074.570    84386613.55648  20608073.6404         49.0004 
        48.6004 
 125998347.25445  23976693.100    98180519.58145  23976689.4704         34.2004 
        33.9004 
 120121248.89146  22858310.168    93600976.14346  22858307.3954         36.2004 
        36.3004 
 127744843.17745  24309039.947    99541429.02745  24309037.8254         31.1004 
        30.8004 
 125489362.12444  23879834.648    97783915.86544  23879829.0424         29.5004 
        29.8004 
 117649382.77146  22387934.452    91674832.45446  22387932.3294         41.2004 
        40.9004 
 15 12 31  0 21 30.0000000  0  9G02G09G07G06G19G05G12G23G17
 114873673.96447  21859733.829    89511954.31347  21859727.1164         43.3004 
        43.0004 
 112110240.78447  21333867.718    87358627.05347  21333865.3204         46.1004 
        45.9004 
 132211507.977 6  25159010.153                                          38.300  
                
 108269493.57148  20602998.704    84365828.58148  20602997.8674         48.1004 
        48.1004 
 126079776.92245  23992189.214    98243971.21145  23992184.7014         34.6004 
        34.6004 
 120025429.97745  22840076.426    93526312.08645  22840073.3024         35.7004 
        35.5004 
 127764219.25045  24312727.682    99556527.24145  24312724.7854         30.6004 
        30.6004 
 125541275.29245  23889713.864    97824367.59945  23889708.3364         30.3004 
        30.2004 
 117718360.60546  22401060.615    91728581.36446  22401059.0784         41.5004 
        41.4004 
 15 12 31  0 22  0.0000000  0  9G02G09G07G06G19G05G12G23G17
 114783902.73047  21842650.872    89442002.70147  21842644.1924         43.2004 
        43.2004 
 112114867.08247  21334748.183    87362231.93347  21334745.9404         46.0004 
        45.9004 
 132117918.477 6  25141200.339                                          38.900  
                
 108243109.04748  20597978.203    84345269.20547  20597977.0334         48.7004 
        47.8004 
 126161344.86945  24007711.573    98307530.58145  24007707.3734         35.3004 
        35.3004 
 119929848.80145  22821888.461    93451833.27145  22821885.1514         35.8004 
        35.8004 
 127783976.92345  24316487.857    99571922.77045  24316485.0674         30.8004 
        30.9004 
 125593507.58845  23899653.925    97865067.97945  23899647.3694         30.0004 
        30.1004 
 117787653.31646  22414247.042    91782575.62346  22414244.8934         41.4004 
        41.1004 
 15 12 31  0 22 30.0000000  0  9G02G09G07G06G19G05G12G23G17
 114694229.00347  21825586.468    89372127.06647  21825579.8144         43.6004 
        43.4004 
 112120057.79147  21335735.995    87366276.61047  21335733.5904         46.0004 
        45.9004 
 132024346.353 6  25123394.799                                          40.000  
                
 108217016.60248  20593013.017    84324937.41747  20593011.8214         48.2004 
        47.8004 
 126243050.14345  24023259.564    98371196.91145  24023255.2294         34.5004 
        34.6004 
 119834507.18345  22803745.109    93377541.10845  22803741.9424         35.9004 
        35.9004 
 127804115.02044  24320319.740    99587614.78544  24320314.9114         29.6004 
        29.5004 
 125646058.33144  23909653.521    97906016.51144  23909648.0074         29.7004 
        29.7004 
 117857259.31846  22427492.515    91836814.01046  22427489.8774         40.9004 
        40.8004 
 15 12 31  0 23  0.0000000  0  9G02G09G07G06G19G05G12G23G17
 114604650.62247  21808540.593    89302325.72147  21808533.8474         43.3004 
        43.4004 
 112125808.10347  21336830.241    87370757.34247  21336827.7914         46.2004 
        45.9004 
 131930791.063 6  25105591.347                                          40.100  
                
 108191213.64548  20588102.636    84304831.20848  20588101.7094         48.5004 
        48.1004 
 126324886.78445  24038832.136    98434965.61245  24038828.6364         34.5004 
        34.6004 
 119739401.67746  22785647.535    93303432.93246  22785643.5864         36.4004 
        36.5004 
 127824627.51744  24324223.745    99603598.52844  24324219.5024         28.0004 
        27.9004 
 125698921.79645  23919713.763    97947208.71444  23919707.8574         30.0004 
        29.8004 
 117927172.57946  22440796.676    91891291.81446  22440793.8624         40.5004 
        40.4004 
 15 12 31  0 23 30.0000000  0  9G02G09G07G06G19G05G12G23G17
 114515168.51447  21791512.437    89232599.39447  21791505.9004         43.7004 
        43.7004 
 112132116.57547  21338030.450    87375673.00547  21338028.2894         46.0004 
        46.0004 
 131837254.968 6  25087792.309                                          39.300  
                
 108165701.07648  20583247.990    84284951.27048  20583246.9914         49.1004 
        48.9004 
 126406852.48345  24054429.666    98498834.86445  24054426.0154         33.9004 
        34.0004 
 119644532.26346  22767594.368    93229508.72846  22767591.3584         36.8004 
        36.9004 
 127845511.92044  24328196.923    99619872.03244  24328194.2844         27.2004 
        27.7004 
 125752095.49345  23929831.794    97988642.65545  23929827.1054         30.0004 
        30.1004 
 117997391.02146  22454158.823    91946007.42846  22454155.3984         40.0004 
        39.9004 
 15 12 31  0 24  0.0000000  0  9G02G09G07G06G19G05G12G23G17
 114425787.24047  21774503.899    89162951.63747  21774497.0894         43.6004 
        43.8004 
 112138984.76247  21339337.910    87381024.81047  21339335.3184         45.7004 
        45.7004 
 131743743.938 6  25069998.495                                          40.800  
                
 108140482.76748  20578449.287    84265300.62748  20578448.3314         49.3004 
        49.0004 
 126488947.75745  24070051.908    98562805.13345  24070049.2704         33.5004 
        33.7004 
 119549902.01146  22749587.154    93155770.88346  22749583.9024         37.1004 
        37.0004 
 127866768.34044  24332242.829    99636435.43244  24332239.8614         26.1004 
        26.7004 
 125805580.06345  23940009.672    98030318.82845  23940005.4204         30.2004 
        30.0004 
 118067914.82346  22467579.385    92000960.96246  22467575.6884         40.0004 
        40.0004 
 15 12 31  0 24 30.0000000  0  9G02G09G07G06G19G05G12G23G17
 114336499.30147  21757513.146    89093376.61447  21757506.3754         43.7004 
        43.9004 
 112146402.16847  21340749.502    87386804.58247  21340746.9784         45.7004 
        46.1004 
 131650251.484 6  25052207.309                                          41.800  
                
 108115550.55148  20573704.549    84245872.91748  20573703.8964         48.5004 
        48.4004 
 126571161.20945  24085697.099    98626867.44745  24085693.9674         34.4004 
        34.3004 
 119455501.89246  22731622.986    93082212.35346  22731619.9424         36.7004 
        36.8004 
 127888384.82344  24336356.128    99653279.40644  24336352.7514         26.1004 
        24.7004 
 125859364.05345  23950244.107    98072228.32445  23950240.3974         30.3004 
        30.3004 
 118138732.43246  22481055.600    92056143.44646  22481051.7704         40.3004 
        40.0004 
 15 12 31  0 25  0.0000000  0  9G02G09G07G06G19G05G12G23G17
 114247311.27247  21740540.863    89023879.44547  21740534.6314         44.1004 
        44.0004 
 112154373.07347  21342266.337    87393015.64847  21342263.6774         45.5004 
        46.0004 
 131556786.049 6  25034421.806                                          41.800  
                
 108090911.07948  20569015.844    84226673.31648  20569015.0994         49.0004 
        48.8004 
 126653496.12745  24101364.695    98691024.44045  24101361.1024         33.7004 
        33.7004 
 119361337.79445  22713703.769    93008837.75245  22713701.4054         35.6004 
        35.4004 
 127910364.55944  24340539.017    99670406.38344  24340536.4354         24.1004 
        24.7004 
 125913450.73845  23960536.989    98114373.66445  23960532.8564         30.3004 
        30.4004 
 118209846.50246  22494589.041    92111556.93546  22494585.1774         41.0004 
        41.1004 
 15 12 31  0 25 30.0000000  0  9G02G09G07G06G19G05G12G23G17
 114158222.45247  21723588.530    88954459.58247  21723581.3774         43.7004 
        43.7004 
 112162894.02147  21343887.629    87399655.32247  21343884.9884         46.2004 
        46.2004 
 131463348.075 6  25016641.996                                          41.300  
                
 108066563.26948  20564382.524    84207700.97748  20564381.9234         49.2004 
        48.9004 
 126735948.06845  24117055.409    98755272.60245  24117050.2754         34.3004 
        34.5004 
 119267407.81145  22695830.079    92935645.58145  22695826.6344         35.5004 
        35.5004 
 127932702.63844  24344790.165    99687812.64444  24344784.0224         24.5004 
        24.3004 
 125967835.50145  23970886.644    98156751.28445  23970881.1754         30.7004 
        30.5004 
 118281252.45646  22508176.578    92167197.88546  22508173.6504         40.8004 
        40.9004 
 15 12 31  0 26  0.0000000  0  9G02G09G07G06G19G05G12G23G17
 114069238.44147  21706655.156    88885121.38247  21706648.1014         43.6004 
        43.7004 
 112171967.74847  21345613.958    87406725.73147  21345611.9374         45.8004 
        45.7004 
 131369944.629 6  24998867.788                                          41.000  
                
 108042512.24448  20559805.676    84188959.91348  20559805.2164         49.6004 
        49.1004 
 126818518.89245  24132767.591    98819613.40345  24132762.5594         33.0004 
        32.6004 
 119173716.07545  22677999.829    92862639.02645  22677997.3094         33.6004 
        33.6004 
 127955400.48243  24349108.251    99705499.25743  24349102.9784         22.8004 
        23.0004 
 126022520.35445  23981292.552    98199362.73245  23981287.7654         30.9004 
        30.9004 
 118352952.07846  22521820.500    92223067.67046  22521817.4134         40.4004 
        40.1004 
 15 12 31  0 26 30.0000000  0  9G02G09G07G06G19G05G12G23G17
 113980360.74247  21689742.466    88815866.01147  21689735.0964         43.5004 
        43.5004 
 112181592.89247  21347445.641    87414225.80547  21347443.8774         45.8004 
        45.7004 
 131276578.816 6  24981100.305                                          41.900  
                
 108018759.09848  20555285.568    84170450.95348  20555285.0904         49.5004 
        50.2004 
 126901206.59645  24148502.416    98884045.28145  24148498.8924         32.9004 
        32.9004 
 119080262.63245  22660216.600    92789818.18645  22660214.0324         33.3004 
        33.0004 
 127978455.91343  24353496.486    99723464.49043  24353491.3414         22.5004 
        22.8004 
 126077503.21345  23991756.430    98242206.39245  23991750.5854         30.7004 
        30.6004 
 118424942.97046  22535519.580    92279164.43046  22535516.4914         39.3004 
        39.3004 
 15 12 31  0 27  0.0000000  0  9G02G09G07G06G19G05G12G23G17
 113891588.08647  21672849.159    88746692.49847  21672842.3444         43.7004 
        43.6004 
 112191765.19147  21349381.222    87422152.24447  21349379.4844         45.6004 
        46.1004 
 131183250.490 7  24963341.540                                          42.200  
                
 107995301.93348  20550822.421    84152172.61548  20550821.4114         50.0004 
        49.5004 
 126984005.69845  24164258.924    98948563.96545  24164255.0934         32.4004 
        32.3004 
 118987045.21045  22642478.178    92717181.21445  22642474.8214         33.1004 
        33.1004 
 128001863.26844  24357949.722    99741703.94143  24357946.9724         24.2004 
        22.8004 
 126132778.72945  24002274.444    98285278.09845  24002269.3014         30.6004 
        30.6004 
 118497219.48346  22549273.676    92335483.72846  22549270.3934         39.6004 
        39.4004 
 15 12 31  0 27 30.0000000  0  9G02G09G07G06G19G05G12G23G17
 113802926.13747  21655977.555    88677605.25447  21655970.7854         43.9004 
        43.8004 
 112202487.32547  21351421.847    87430507.12647  21351419.8564         45.6004 
        45.3004 
 131089966.133 6  24945589.218                                          41.700  
                
 107972145.92148  20546416.006    84134128.94048  20546414.8874         49.5004 
        48.9004 
 127066918.33445  24180036.360    99013171.10845  24180032.8384         33.7004 
        33.7004 
 118894067.73045  22624785.251    92644731.24545  22624781.7704         33.2004 
        33.2004 
 128025623.63044  24362472.776    99760218.45144  24362468.4414         25.5004 
        24.3004 
 126188348.98645  24012849.413    98328579.48545  24012844.2444         30.9004 
        30.6004 
 118569783.09846  22563081.814    92392026.73246  22563079.5184         39.5004 
        39.2004 
 15 12 31  0 28  0.0000000  0  9G02G09G07G06G19G05G12G23G17
 113714373.43647  21639126.604    88608603.13247  21639119.9354         43.9004 
        43.4004 
 112213755.01947  21353565.976    87439287.12047  21353564.0634         45.8004 
        45.6004 
 130996725.912 6  24927845.476                                          41.300  
                
 107949289.23448  20542066.134    84116318.50948  20542065.3454         49.6004 
        49.2004 
 127149939.19145  24195835.466    99077862.57145  24195829.9464         32.9004 
        33.0004 
 118801327.74245  22607137.149    92572466.33045  22607133.6444         33.5004 
        33.4004 
 128049731.51544  24367060.123    99779003.76744  24367057.3364         27.4004 
        26.3004 
 126244208.56945  24023479.351    98372106.32545  24023474.0224         30.7004 
        30.7004 
 118642628.62146  22576944.370    92448789.41446  22576940.1034         38.8004 
        38.8004 
 15 12 31  0 28 30.0000000  0  9G02G09G07G06G19G05G12G23G17
 113625934.06547  21622296.462    88539689.32747  21622290.3944         43.5004 
        43.7004 
 112225569.65447  21355813.959    87448493.29847  21355812.4504         46.2004 
        46.0004 
 130903535.659 6  24910111.408                                          40.200  
                
 107926735.72348  20537774.377    84098744.31448  20537773.5864         48.4004 
        48.8004 
 127233069.18045  24211654.153    99142639.08545  24211650.4744         32.7004 
        32.8004 
 118708828.08545  22589535.919    92500388.69145  22589532.1784         35.6004 
        35.6004 
 128074187.07544  24371713.078    99798059.97544  24371710.5674         27.7004 
        27.7004 
 126300358.34745  24034164.986    98415859.28345  24034159.3844         30.8004 
        30.7004 
 118715756.77146  22590860.079    92505772.33046  22590856.3444         38.5004 
        38.3004 
 15 12 31  0 29  0.0000000  0  9G02G09G07G06G19G05G12G23G17
 113537605.79647  21605488.465    88470862.09247  21605481.9374         43.7004 
        43.5004 
 112237925.78947  21358165.642    87458121.42447  21358163.9914         46.6004 
        46.5004 
 130810394.837 6  24892387.943                                          40.800  
                
 107904482.53148  20533539.796    84081404.14048  20533538.9284         49.3004 
        48.7004 
 127316302.61945  24227492.985    99207496.20545  24227489.9464         32.9004 
        32.8004 
 118616565.27746  22571979.286    92428495.59246  22571975.7344         37.0004 
        36.7004 
 128098984.42944  24376432.894    99817382.54044  24376429.9714         27.3004 
        27.5004 
 126356791.92545  24044903.596    98459833.39545  24044898.9024         31.2004 
        31.1004 
 118789160.55146  22604828.105    92562970.02446  22604824.5424         38.7004 
        38.7004 
 15 12 31  0 29 30.0000000  0  9G02G09G07G06G19G05G12G23G17
 113449389.86047  21588701.526    88402122.38947  21588695.1534         43.8004 
        43.5004 
 112250821.90847  21360619.967    87468170.32547  21360618.0464         46.2004 
        46.1004 
 130717305.613 7  24874673.765                                          42.700  
                
 107882530.61748  20529362.482    84064298.72148  20529361.6314         49.0004 
        48.4004 
 127399636.71245  24243350.450    99272431.78745  24243348.4064         32.5004 
        32.4004 
 118524539.12846  22554467.075    92356786.91246  22554463.7354         37.7004 
        37.6004 
 128124120.08944  24381214.193    99836968.73444  24381212.7854         26.5004 
        26.7004 
 126413506.90845  24055695.386    98504026.79245  24055691.1434         31.0004 
        31.2004 
 118862837.12546  22618848.321    92620380.28346  22618845.0504         38.4004 
        38.4004 
 15 12 31  0 30  0.0000000  0  9G02G09G07G06G19G05G12G23G17
 113361289.70747  21571936.808    88333472.90547  21571930.4854         43.7004 
        43.5004 
 112264258.24247  21363176.520    87478640.16447  21363175.0664         46.3004 
        46.0004 
 130624272.710 6  24856970.678                                          41.400  
                
 107860882.75748  20525243.358    84047430.23347  20525242.1924         48.4004 
        47.9004 
 127483070.27845  24259227.750    99337444.86845  24259224.8594         33.0004 
        32.9004 
 118432751.50146  22537000.878    92285264.07946  22536997.1684         37.7004 
        37.8004 
 128149593.61844  24386062.785    99856818.16344  24386060.2134         25.5004 
        25.5004 
 126470502.89745  24066542.206    98548439.16445  24066536.8724         31.5004 
        31.1004 
 118936786.20946  22632920.768    92678002.89146  22632917.6204         38.9004 
        38.7004 
 15 12 31  0 30 30.0000000  0  9G02G09G07G06G19G05G12G23G17
 113273309.35347  21555194.165    88264916.77847  21555188.1644         44.0004 
        43.9004 
 112278235.51647  21365836.296    87489531.52147  21365834.9944         47.1004 
        46.8004 
 130531301.209 6  24839278.256                                          41.800  
                
 107839542.22648  20521182.338    84030801.21548  20521181.3064         49.4004 
        49.4004 
 127566603.79345  24275123.575    99402535.79245  24275119.7634         32.4004 
        32.4004 
 118341204.59146  22519579.142    92213928.83546  22519576.1384         37.2004 
        37.1004 
 128175404.12743  24390974.455    99876930.20943  24390970.5094         23.5004 
        23.4004 
 126527779.88345  24077441.090    98593070.48245  24077436.4434         31.6004 
        31.6004 
 119011007.04046  22647044.567    92735837.23146  22647041.5424         39.2004 
        39.1004 
 15 12 31  0 31  0.0000000  0  9G02G09G07G06G19G05G12G23G17
 113185446.72247  21538474.704    88196452.37847  21538468.0154         44.0004 
        44.0004 
 112292748.85047  21368598.185    87500840.58247  21368596.6124         47.0004 
        46.0004 
 130438390.745 6  24821598.018                                          41.400  
                
 107818506.71548  20517179.314    84014409.88548  20517178.4254         48.8004 
        48.3004 
 127650231.94145  24291037.782    99467700.50145  24291034.4514         31.9004 
        32.0004 
 118249895.58746  22502203.668    92142778.97246  22502200.5344         37.1004 
        37.0004 
 128201545.22543  24395947.288    99897299.85443  24395945.0994         20.2004 
        23.4004 
 126585332.21745  24088393.149    98637916.37245  24088388.5504         31.3004 
        31.3004 
 119085494.05046  22661218.802    92793879.00346  22661216.6534         39.2004 
        39.2004 
 15 12 31  0 31 30.0000000  0  9G02G09G07G06G19G05G12G23G17
 113097699.96647  21521777.727    88128078.26647  21521770.5764         44.8004 
        44.8004 
 112307793.31347  21371460.973    87512563.50547  21371459.4314         46.5004 
        45.8004 
 130345540.823 7  24803929.117                                          42.400  
                
 107797773.89048  20513233.994    83998254.40948  20513233.1004         49.4004 
        48.6004 
 127733948.69145  24306969.047    99532934.21045  24306965.7044         32.3004 
        32.5004 
 118158821.20646  22484872.444    92071811.93546  22484869.1894         37.2004 
        36.9004 
 128228010.89143  24400984.413    99917922.40843  24400984.4054         20.2004 
        19.7004 
 126643153.94645  24099396.881    98682972.15845  24099392.5754         31.1004 
        31.1004 
 119160241.07346  22675442.128    92852123.37646  22675440.1884         38.3004 
        38.3004 
 15 12 31  0 32  0.0000000  0  9G02G09G07G06G19G05G12G23G17
 113010075.35447  21505102.816    88059799.33347  21505096.6124         44.2004 
        44.2004 
 112323371.61547  21374425.637    87524702.40947  21374423.6564         46.0004 
        45.6004 
 130252758.743 6  24786273.191                                          41.200  
                
 107777349.04648  20509347.253    83982338.92348  20509346.2494         49.1004 
        48.8004 
 127817756.28745  24322917.162    99598238.72145  24322912.5344         31.9004 
        32.0004 
 118067985.49246  22467587.871    92001030.85346  22467583.9274         37.9004 
        37.6004 
 128254803.66743  24406084.401    99938799.86943  24406081.6224         18.8004 
        18.7004 
 126701247.44345  24110450.867    98728239.71245  24110446.0414         31.1004 
        31.0004 
 119235249.96846  22689715.825    92910571.81246  22689713.1274         37.1004 
        37.2004 
 15 12 31  0 32 30.0000000  0  9G02G09G07G06G19G05G12G23G17
 112922571.42347  21488451.373    87991614.43747  21488444.8784         44.3004 
        44.2004 
 112339479.50647  21377491.011    87537253.97347  21377489.0444         45.5004 
        45.7004 
 130160044.644 6  24768631.101                                          41.900  
                
 107757230.77748  20505518.808    83966662.32848  20505517.9134         49.0004 
        48.7004 
 127901650.35345  24338880.390    99663610.62545  24338877.9294         30.9004 
        31.0004 
 117977386.66146  22450347.319    91930434.36646  22450343.7634         38.2004 
        37.9004 
 128281917.89642  24411243.621    99959927.77943  24411240.9814         17.9004 
        18.7004 
