     2.11           OBSERVATION DATA    G (GPS)             RINEX VERSION / TYPE
teqc  2012Jun6      GSI, JAPAN          20160101 17:25:46UTCPGM / RUN BY / DATE
Linux 2.4.21-27.ELsmp|Opteron|gcc -static|Linux x86_64|=+   COMMENT
0761                                                        MARKER NAME
GSI, JAPAN          GEOSPATIAL INFORMATION AUTHORITY OF JAPAOBSERVER / AGENCY
00000               TPS NETG3           4.0 Apr,01,2014     REC # / TYPE / VERS
                    TPSCR.G5        GSI                     ANT # / TYPE
 -3755382.9656  3675126.9128  3603381.8903                  APPROX POSITION XYZ
        0.0000        0.0000        0.0000                  ANTENNA: DELTA H/E/N
     1     1                                                WAVELENGTH FACT L1/2
     6    L1    C1    L2    P2    S1    S2                  # / TYPES OF OBSERV
    30.0000                                                 INTERVAL
Forced Modulo Decimation to 30 seconds                      COMMENT
  2015    12    31     0     0    0.0000000     GPS         TIME OF FIRST OBS
                                                            END OF HEADER
 15 12 31  0  0  0.0000000  0  7G02G05G09G17G06G19G23
 116650017.93843  22197761.078    90896124.17843  22197752.3764         18.5004 
        20.0004 
 122298614.51745  23272649.036    95297623.31245  23272646.5414         31.1004 
        31.3004 
 110337380.85646  20996503.825    85977178.49946  20996502.0284         36.4004 
        38.5004 
 113033771.47445  21509613.474    88078259.24545  21509609.6594         34.6004 
        35.1004 
 107511208.31046  20458701.234    83774960.81346  20458700.5994         40.6004 
        41.0004 
 120705774.25445  22969544.981    94056432.45845  22969539.4694         31.8004 
        32.0004 
 121443300.27444  23109895.190    94631146.26644  23109890.1584         24.2004 
        24.3004 
 15 12 31  0  0 30.0000000  0  7G02G05G09G17G06G19G23
 116593850.15943  22187072.574    90852357.10843  22187064.7554         21.0004 
        22.2004 
 122229380.06345  23259473.128    95243674.39345  23259471.3484         30.7004 
        31.1004 
 110353093.77245  20999493.777    85989422.32446  20999491.5114         35.6004 
        36.6004 
 113124421.08645  21526863.274    88148895.27845  21526860.5484         33.6004 
        34.3004 
 107510112.00846  20458492.433    83774106.54946  20458491.9564         38.3004 
        38.1004 
 120816312.64345  22990580.506    94142566.22045  22990574.7634         31.1004 
        31.3004 
 121516193.77043  23123767.745    94687946.39043  23123759.4314         23.7004 
        23.7004 
 15 12 31  0  1  0.0000000  0  7G02G05G09G17G06G19G23
 116537729.04643  22176392.841    90808626.37643  22176384.5394         22.4004 
        22.2004 
 122160366.41344  23246340.595    95189897.52644  23246337.8994         29.5004 
        29.9004 
 110369400.87446  21002597.035    86002129.15446  21002594.8954         37.2004 
        37.5004 
 113215477.33845  21544190.850    88219848.17745  21544187.8314         35.5004 
        34.3004 
 107509263.35546  20458331.070    83773445.25946  20458330.4974         40.6004 
        40.8004 
 120927078.34945  23011658.479    94228877.11045  23011654.0254         31.4004 
        31.6004 
 121589496.22244  23137716.044    94745065.14843  23137709.0414         24.1004 
        23.7004 
 15 12 31  0  1 30.0000000  0  7G02G05G09G17G06G19G23
 116481656.38243  22165718.859    90764933.37843  22165713.4644         22.6004 
        22.6004 
 122091574.75944  23233250.718    95136293.63844  23233246.4574         29.2004 
        29.3004 
 110386302.57046  21005813.579    86015299.30746  21005811.2274         36.8004 
        37.5004 
 113306939.35445  21561595.772    88291117.25246  21561592.2654         35.4004 
        36.1004 
 107508663.94246  20458216.308    83772978.17846  20458216.3974         37.8004 
        38.1004 
 121038070.16845  23032779.004    94315364.17745  23032774.5874         30.7004 
        31.4004 
 121663206.11844  23151742.334    94802501.41644  23151737.0314         24.0004 
        24.3004 
 15 12 31  0  2  0.0000000  0  7G02G05G09G17G06G19G23
 116425627.51643  22155057.477    90721274.52843  22155053.0624         22.6004 
        22.6004 
 122023000.30844  23220201.996    95082858.99444  23220197.8724         29.7004 
        29.9004 
 110403793.40246  21009142.298    86028928.52546  21009139.6544         39.0004 
        39.4004 
 113398799.83545  21579076.345    88362696.81145  21579072.4784         35.2004 
        35.6004 
 107508309.54746  20458149.474    83772702.01546  20458148.9924         40.1004 
        40.8004 
 121149280.92045  23053941.983    94402021.85645  23053937.6194         30.6004 
        30.4004 
 121737316.18944  23165842.972    94860249.47944  23165838.7094         24.0004 
        24.0004 
 15 12 31  0  2 30.0000000  0  7G02G05G09G17G06G19G23
 116369651.53343  22144406.935    90677656.89343  22144401.0294         22.6004 
        22.6004 
 121954651.94045  23207195.744    95029600.53545  23207192.4334         30.0004 
        30.3004 
 110421881.12246  21012583.689    86043022.86146  21012581.7154         37.7004 
        36.6004 
 113491064.67445  21596634.259    88434591.46745  21596629.7804         34.6004 
        35.3004 
 107508209.23646  20458130.890    83772623.84545  20458129.8764         36.2004 
        34.7004 
 121260716.22545  23075148.020    94488854.51745  23075141.9104         30.2004 
        30.8004 
 121811832.55043  23180024.371    94918314.14743  23180019.6974         23.2004 
        22.8004 
 15 12 31  0  3  0.0000000  0  7G02G05G09G17G06G19G23
 116313725.83643  22133766.015    90634078.43543  22133758.0574         22.1004 
        22.3004 
 121886526.18844  23194230.971    94976515.53844  23194228.5634         27.3004 
        27.6004 
 110440561.65046  21016138.510    86057579.10546  21016136.4754         37.5004 
        38.1004 
 113583727.82045  21614266.830    88506796.48345  21614263.0034         35.2004 
        35.0004 
 107508360.14246  20458159.301    83772741.42146  20458158.5184         40.1004 
        40.3004 
 121372370.20944  23096394.630    94575857.55944  23096389.8624         27.4004 
        29.9004 
 121886749.38943  23194281.135    94976690.85043  23194274.7724         20.8004 
        22.8004 
 15 12 31  0  3 30.0000000  0  7G02G05G09G17G06G19G23
 116257850.85344  22123133.440    90590539.52044  22123125.8014         24.5004 
        24.2004 
 121818623.05544  23181310.054    94923604.03144  23181307.1204         29.3004 
        28.6004 
 110459834.22146  21019805.471    86072596.69046  21019804.1934         38.3004 
        38.2004 
 113676786.48646  21631975.432    88579309.69446  21631971.7054         36.5004 
        36.5004 
 107508762.84246  20458235.978    83773055.20746  20458235.0094         39.8004 
        40.3004 
 121484240.28745  23117682.512    94663028.98145  23117677.5694         30.1004 
        30.6004 
 121962064.27743  23208611.576    95035377.73443  23208605.4944         20.8004 
        20.5004 
 15 12 31  0  4  0.0000000  0  7G02G05G09G17G06G19G23
 116202027.40444  22112509.302    90547040.73944  22112502.0654         24.5004 
        24.8004 
 121750942.12444  23168430.039    94870865.64844  23168427.2854         28.0004 
        28.0004 
 110479697.94546  21023585.580    86088074.90446  21023583.6184         37.8004 
        38.5004 
 113770238.33846  21649758.398    88652129.27746  21649755.1174         36.1004 
        36.3004 
 107509417.80446  20458360.324    83773565.56346  20458359.7234         40.0004 
        40.7004 
 121596323.57044  23139011.942    94750366.55344  23139006.9854         29.9004 
        29.6004 
 122037774.64143  23223017.658    95094372.79443  23223015.0764         21.5004 
        20.5004 
 15 12 31  0  4 30.0000000  0  7G02G05G09G17G06G19G23
 116146257.61244  22101895.703    90503583.77044  22101890.9914         24.7004 
        25.2004 
 121683485.72244  23155593.827    94818302.20844  23155589.9554         28.3004 
        28.5004 
 110500153.98846  21027477.894    86104014.67546  21027476.5674         38.0004 
        38.4004 
 113864082.76245  21667616.647    88725254.75945  21667613.1204         35.4004 
        35.8004 
 107510327.58646  20458533.514    83774274.46646  20458532.9034         39.8004 
        40.3004 
 121708619.45745  23160380.035    94837869.76545  23160376.4524         30.2004 
        30.5004 
 122113880.11243  23237503.491    95153675.72343  23237497.0124         22.6004 
        22.1004 
 15 12 31  0  5  0.0000000  0  7G02G05G09G17G06G19G23
 116090539.84444  22091293.345    90460167.33444  22091288.5754         25.1004 
        25.2004 
 121616251.73044  23142799.662    94765912.10744  23142796.0734         27.9004 
        28.1004 
 110521199.20946  21031482.971    86120413.55246  21031481.4344         38.2004 
        38.5004 
 113958315.13946  21685548.900    88798682.55946  21685545.2224         36.6004 
        36.7004 
 107511490.43446  20458755.027    83775180.57446  20458754.3684         40.0004 
        40.8004 
 121821123.07745  23181789.205    94925534.87544  23181784.5594         30.0004 
        29.8004 
 122190375.83143  23252058.835    95213282.74343  23252053.3384         22.6004 
        23.2004 
 15 12 31  0  5 30.0000000  0  7G02G05G09G17G06G19G23
 116034878.62144  22080702.741    90416794.94644  22080694.7984         26.0004 
        25.8004 
 121549243.96244  23130048.269    94713698.27344  23130045.4724         27.9004 
        27.9004 
 110542836.78846  21035600.833    86137273.99546  21035598.5484         37.8004 
        38.1004 
 114052936.40845  21703555.018    88872413.36845  21703551.2304         35.2004 
        35.8004 
 107512910.96846  20459025.324    83776287.48546  20459024.6514         39.8004 
        40.1004 
 121933836.18144  23203238.738    95013363.19845  23203233.9094         29.9004 
        30.0004 
 122267263.42343  23266688.521    95273195.10943  23266684.4074         23.4004 
        23.0004 
 15 12 31  0  6  0.0000000  0  7G02G05G09G17G06G19G23
 115979280.31944  22070121.870    90373471.61444  22070115.3384         26.3004 
        26.3004 
 121482467.64344  23117340.761    94661664.80544  23117337.1464         28.0004 
        27.5004 
 110565071.28246  21039831.790    86154599.58546  21039829.8594         38.4004 
        38.7004 
 114147949.81546  21721634.529    88946449.74146  21721631.2834         36.1004 
        36.4004 
 107514595.18746  20459345.965    83777599.85646  20459345.3304         40.5004 
        41.0004 
 122046761.39045  23224726.729    95101356.81945  23224722.1374         30.1004 
        30.3004 
 122344545.90343  23281398.051    95333415.17643  23281391.3344         22.4004 
        23.0004 
 15 12 31  0  6 30.0000000  0  7G02G05G09G17G06G19G23
 115923737.62444  22059553.154    90330191.63044  22059545.2834         27.2004 
        27.7004 
 121415915.14644  23104676.904    94609805.74044  23104672.6154         28.0004 
        28.0004 
 110587894.11046  21044174.191    86172383.61146  21044172.9194         38.5004 
        38.7004 
 114243344.74246  21739788.159    89020783.41546  21739784.4524         36.2004 
        36.5004 
 107516535.95846  20459715.217    83779112.13746  20459714.6554         39.8004 
        40.4004 
 122159888.08845  23246255.476    95189507.42945  23246249.6614         30.2004 
        30.3004 
 122422213.16343  23296175.250    95393935.08243  23296169.4694         22.5004 
        22.5004 
 15 12 31  0  7  0.0000000  0  7G02G05G09G17G06G19G23
 115868254.51944  22048994.983    90286958.05044  22048987.7284         27.8004 
        27.9004 
 121349589.59244  23092054.946    94558123.51744  23092051.8114         27.5004 
        27.4004 
 110611307.31246  21048630.058    86190627.66846  21048628.4094         38.2004 
        39.0004 
 114339122.08946  21758013.797    89095415.05946  21758010.4764         36.1004 
        36.4004 
 107518736.87846  20460133.586    83780827.13546  20460133.2354         39.8004 
        39.9004 
 122273217.15745  23267820.656    95277815.73245  23267816.3554         30.3004 
        30.6004 
 122500265.58543  23311027.458    95454755.09943  23311021.4814         22.5004 
        21.6004 
 15 12 31  0  7 30.0000000  0  7G02G05G09G17G06G19G23
 115812832.80844  22038447.671    90243772.30344  22038441.9934         28.0004 
        28.1004 
 121283492.39844  23079478.397    94506619.22844  23079473.4754         26.9004 
        26.8004 
 110635311.18045  21053197.738    86209331.97146  21053196.4564         35.4004 
        38.6004 
 114435280.16345  21776312.534    89170343.38546  21776308.0934         34.7004 
        36.0004 
 107521199.73946  20460602.694    83782746.22646  20460601.9434         39.5004 
        39.7004 
 122386746.88945  23289423.933    95366280.38045  23289420.2634         30.2004 
        30.3004 
 122578702.07143  23325955.501    95515874.37943  23325946.5944         21.1004 
        21.6004 
 15 12 31  0  8  0.0000000  0  7G02G05G09G17G06G19G23
 115757473.53244  22027913.800    90200635.21744  22027906.9784         28.0004 
        28.1004 
 121217623.58844  23066943.933    94455292.88544  23066939.8764         26.3004 
        26.2004 
 110659905.26746  21057878.236    86228496.19246  21057876.7414         38.7004 
        39.2004 
 114531816.93246  21794682.797    89245566.79746  21794678.6444         36.1004 
        36.3004 
 107523925.69246  20461121.070    83784870.33446  20461120.5114         40.3004 
        40.8004 
 122500475.48744  23311066.899    95454899.98244  23311060.9184         29.3004 
        29.4004 
 122657520.42243  23340956.019    95577291.26343  23340944.6264         21.1004 
        21.3004 
 15 12 31  0  8 30.0000000  0  7G02G05G09G17G06G19G23
 115702176.20144  22017390.552    90157546.38644  22017383.2784         28.8004 
        28.9004 
 121151982.33444  23054452.614    94404143.86944  23054448.7354         26.0004 
        26.1004 
 110685087.36846  21062669.485    86248118.59746  21062668.2044         38.5004 
        38.9004 
 114628728.31745  21813124.389    89321082.11446  21813120.9604         35.7004 
        36.1004 
 107526914.02646  20461690.051    83787198.90346  20461689.1874         40.4004 
        40.9004 
 122614398.91644  23332745.122    95543671.42144  23332741.7364         29.5004 
        29.6004 
 122736717.40543  23356025.399    95639003.16943  23356016.9364         21.2004 
        21.3004 
 15 12 31  0  9  0.0000000  0  7G02G05G09G17G06G19G23
 115646941.10744  22006879.264    90114506.06844  22006872.8194         29.1004 
        29.2004 
 121086568.24644  23042004.345    94353171.85944  23042001.7554         25.8004 
        26.1004 
 110710856.11146  21067573.068    86268198.12946  21067572.0494         38.4004 
        38.7004 
 114726011.43645  21831636.913    89396887.10345  21831632.6834         35.5004 
        35.7004 
 107530165.09546  20462308.636    83789732.18546  20462307.8504         40.1004 
        40.5004 
 122728514.12444  23354461.755    95632592.29544  23354456.6344         29.6004 
        29.7004 
 122816289.48743  23371165.714    95701007.34243  23371159.7844         21.7004 
        21.8004 
 15 12 31  0  9 30.0000000  0  7G02G05G09G17G06G19G23
 115591772.41645  21996381.415    90071517.47045  21996374.9884         30.2004 
        30.3004 
 121021384.51344  23029601.233    94302379.36744  23029596.6764         24.7004 
        25.5004 
 110737213.82946  21072589.176    86288736.59946  21072587.5634         38.4004 
        38.7004 
 114823667.18545  21850219.626    89472982.44345  21850216.3494         34.8004 
        35.2004 
 107533682.79846  20462978.406    83792473.24646  20462977.3584         39.8004 
        40.3004 
 122842821.86144  23376212.657    95721663.20144  23376207.7864         29.7004 
        29.7004 
 122896237.69743  23386379.583    95763304.58743  23386374.6924         22.0004 
        22.1004 
 15 12 31  0 10  0.0000000  0  7G02G05G09G17G06G19G23
 115536665.48845  21985895.089    90028577.00245  21985888.1824         31.0004 
        31.3004 
 120956425.70944  23017238.418    94251762.12644  23017235.7844         24.2004 
        24.6004 
 110764154.16646  21077715.605    86309729.06746  21077714.2004         38.6004 
        38.8004 
 114921687.40145  21868872.747    89549361.78145  21868869.4924         34.9004 
        35.0004 
 107537462.43846  20463697.335    83795418.41746  20463696.4224         40.5004 
        40.9004 
 122957314.34644  23398000.754    95810878.06444  23397995.8574         29.1004 
        29.4004 
 122976554.34543  23401663.807    95825888.93343  23401659.5764         22.0004 
        22.1004 
 15 12 31  0 10 30.0000000  0  7G02G05G09G17G06G19G23
 115481626.66945  21975421.756    89985689.60445  21975414.8064         31.6004 
        31.8004 
 120891697.76144  23004921.397    94201324.78444  23004918.5254         24.2004 
        24.1004 
 110791681.88746  21082953.759    86331179.23246  21082952.4964         38.7004 
        38.9004 
 115020075.29445  21887595.225    89626027.62445  21887591.3354         34.6004 
        34.9004 
 107541510.50546  20464467.735    83798572.73846  20464466.6334         40.4004 
        40.8004 
 123071994.71544  23419823.576    95900239.31544  23419817.7794         29.3004 
        29.3004 
 123057242.84343  23417017.346    95888763.02743  23417013.5504         21.6004 
        21.9004 
 15 12 31  0 11  0.0000000  0  7G02G05G09G17G06G19G23
 115426659.31945  21964961.738    89942857.91145  21964955.6754         32.1004 
        32.4004 
 120827202.58343  22992648.811    94151068.83343  22992646.8344         23.9004 
        23.6004 
 110819798.13446  21088304.442    86353087.98846  21088303.3224         38.5004 
        39.1004 
 115118830.52045  21906388.214    89702979.69845  21906384.3134         34.4004 
        34.7004 
 107545829.84346  20465289.674    83801938.43746  20465288.5894         40.1004 
        40.6004 
 123186862.52544  23441681.611    95989746.62844  23441676.1654         28.7004 
        28.7004 
 123138302.72743  23432440.626    95951926.51443  23432440.1264         21.6004 
        21.6004 
 15 12 31  0 11 30.0000000  0  7G02G05G09G17G06G19G23
 115371765.91845  21954516.116    89900083.82645  21954509.8184         32.6004 
        32.8004 
 120762941.94143  22980420.169    94100995.62943  22980418.1774         23.1004 
        23.6004 
 110848503.34946  21093767.365    86375455.67946  21093766.0954         38.7004 
        39.1004 
 115217952.00645  21925250.255    89780217.17745  21925245.8704         34.6004 
        35.0004 
 107550422.61346  20466163.396    83805517.21246  20466162.8154         39.7004 
        40.2004 
 123301917.01144  23463575.052    96079399.41244  23463571.9864         28.6004 
        28.9004 
 123219733.17243  23447933.793    96015378.73143  23447938.8274         21.3004 
        21.6004 
 15 12 31  0 12  0.0000000  0  7G02G05G09G17G06G19G23
 115316937.24945  21944081.753    89857360.18045  21944075.8504         32.6004 
        33.1004 
 120698906.44443  22968234.258    94051097.85143  22968230.3184         22.0004 
        22.6004 
 110877787.17646  21099339.521    86398274.24246  21099338.0704         37.5004 
        38.0004 
 115317427.55445  21944179.467    89857730.53845  21944175.9894         34.1004 
        34.2004 
 107555280.22746  20467088.426    83809302.34846  20467087.1814         38.9004 
        39.0004 
 123417146.05244  23485503.822    96169188.17944  23485499.0484         29.2004 
        29.5004 
 123301522.43143  23463500.427    96079110.50843  23463501.3794         20.0004 
        20.2004 
 15 12 31  0 12 30.0000000  0  7G02G05G09G17G06G19G23
 115262181.70945  21933661.877    89814693.51445  21933655.9134         33.3004 
        33.5004 
 120635103.46743  22956093.783    94001381.26343  22956091.0554         22.0004 
        22.1004 
 110907655.53146  21105022.503    86421548.27346  21105021.7304         38.2004 
        38.7004 
 115417261.51045  21963177.380    89935523.18245  21963173.1454         35.0004 
        35.3004 
 107560410.37146  20468064.045    83813299.86046  20468063.3594         40.1004 
        40.3004 
 123532554.11144  23507465.219    96259116.47644  23507460.3924         29.0004 
        29.5004 
 123383674.93143  23479135.163    96143125.36943  23479132.9714         20.0004 
        20.6004 
 15 12 31  0 13  0.0000000  0  7G02G05G09G17G06G19G23
 115207497.35245  21923256.607    89772082.31945  21923249.5544         32.8004 
        33.4004 
 120571530.13543  22943996.305    93951843.62543  22943993.5504         22.3004 
        22.1004 
 110938104.47246  21110817.373    86445274.71246  21110815.8544         37.7004 
        38.1004 
 115517448.83645  21982242.364    90013591.18345  21982238.8824         33.7004 
        34.0004 
 107565810.95146  20469092.189    83817508.09146  20469090.9704         40.5004 
        40.7004 
 123648135.85144  23529460.072    96349180.11244  23529454.9904         29.0004 
        29.2004 
 123466185.47043  23494838.887    96207419.21243  23494833.9594         20.7004 
        20.6004 
 15 12 31  0 13 30.0000000  0  7G02G05G09G17G06G19G23
 115152888.34545  21912865.028    89729529.84245  21912857.9594         34.5004 
        34.7004 
 120508189.15343  22931941.745    93902487.03943  22931938.7754         22.5004 
        22.8004 
 110969136.11346  21116722.793    86469455.19346  21116720.9044         38.5004 
        39.2004 
 115617989.48845  22001375.805    90091934.49145  22001371.5684         35.3004 
        35.5004 
 107571485.87446  20470171.879    83821930.09646  20470170.9294         40.2004 
        40.6004 
 123763891.84244  23551487.602    96439379.52544  23551483.1114         29.0004 
        29.2004 
 123549054.80443  23510609.915    96271992.64443  23510603.8264         21.8004 
        21.5004 
 15 12 31  0 14  0.0000000  0  7G02G05G09G17G06G19G23
 115098351.26245  21902486.951    89687033.40945  21902480.3264         34.8004 
        35.2004 
 120445077.19443  22919932.349    93853308.89343  22919929.8914         22.5004 
        21.7004 
 111000745.35146  21122737.601    86494085.74846  21122735.8324         38.4004 
        38.8004 
 115718877.39145  22020573.762    90170548.40145  22020569.5964         34.7004 
        35.0004 
 107577431.95146  20471303.498    83826563.38946  20471302.5374         40.4004 
        40.7004 
 123879815.82844  23573545.454    96529709.83344  23573543.1864         27.7004 
        28.2004 
 123632276.33343  23526447.093    96336840.52244  23526440.3644         21.8004 
        24.4004 
 15 12 31  0 14 30.0000000  0  7G02G05G09G17G06G19G23
 115043891.72245  21892123.548    89644597.39045  21892116.9554         34.9004 
        35.2004 
 120382198.26643  22907966.503    93804312.34443  22907964.2464         21.1004 
        21.7004 
 111032935.38346  21128863.519    86519168.87446  21128861.7104         38.1004 
        38.2004 
 115820114.49045  22039838.339    90249434.39845  22039834.6914         34.3004 
        34.5004 
 107583654.21246  20472487.362    83831411.89346  20472486.5674         38.7004 
        39.5004 
 123995909.96144  23595638.058    96620172.71344  23595635.3444         27.6004 
        27.9004 
 123715852.29144  23542349.638    96401964.56144  23542345.2684         24.6004 
        24.4004 
 15 12 31  0 15  0.0000000  0  7G02G05G09G17G06G19G23
 114989512.33445  21881775.147    89602223.83345  21881769.0514         34.8004 
        35.8004 
 120319554.22143  22896045.487    93755498.81443  22896042.1844         21.1004 
        20.6004 
 111065706.80346  21135099.719    86544705.02846  21135097.7754         37.8004 
        38.3004 
 115921699.30445  22059168.826    90328591.32945  22059165.9384         34.6004 
        34.6004 
 107590155.18046  20473724.570    83836477.57646  20473723.6684         38.7004 
        39.2004 
 124112172.97644  23617762.682    96710767.20944  23617759.6364         27.3004 
        27.7004 
 123799781.67144  23558323.820    96467364.00144  23558315.1844         25.1004 
        25.3004 
 15 12 31  0 15 30.0000000  0  7G02G05G09G17G06G19G23
 114935208.87945  21871441.904    89559909.45046  21871435.5874         35.7004 
        36.3004 
 120257139.94143  22884168.538    93706864.35343  22884165.9544         20.5004 
        20.6004 
 111099053.19346  21141445.157    86570689.21046  21141443.7014         39.0004 
        38.9004 
 116023624.04645  22078564.347    90408013.15545  22078561.6824         34.7004 
        34.9004 
 107596930.36746  20475013.994    83841756.93946  20475012.8194         39.8004 
        39.5004 
 124228597.01744  23639917.644    96801487.13844  23639913.8894         27.5004 
        27.3004 
 123884056.83044  23574358.925    96533032.90744  23574351.6134         25.2004 
        25.3004 
 15 12 31  0 16  0.0000000  0  7G02G05G09G17G06G19G23
 114880987.33545  21861123.945    89517658.88746  21861117.3324         35.6004 
        36.0004 
 120194960.67643  22872334.893    93658412.99443  22872333.2674         20.2004 
        20.3004 
 111132978.53446  21147901.606    86597124.52846  21147899.8114         39.0004 
        39.2004 
 116125891.69145  22098025.395    90487702.16345  22098022.1974         33.1004 
        33.4004 
 107603985.65946  20476356.267    83847254.56346  20476355.5204         40.6004 
        40.7004 
 124345185.09444  23662104.826    96892334.90644  23662099.6964         28.5004 
        28.4004 
 123968680.59144  23590462.446    96598973.42144  23590454.5484         25.5004 
        25.7004 
 15 12 31  0 16 30.0000000  0  7G02G05G09G17G06G19G23
 114826846.71046  21850821.162    89475471.37346  21850814.5254         36.3004 
        36.8004 
 120133014.31243  22860548.388    93610143.12343  22860545.1254         20.2004 
        20.7004 
 111167479.66346  21154466.701    86624008.50946  21154464.6794         38.8004 
        39.3004 
 116228497.34645  22117550.641    90567654.56745  22117547.2064         34.0004 
        34.2004 
 107611319.93646  20477751.800    83852969.57146  20477751.2704         39.4004 
        40.2004 
 124461932.90744  23684320.434    96983307.14344  23684315.9334         28.1004 
        28.4004 
 124053648.66244  23606631.960    96665182.22744  23606624.6864         25.2004 
        25.4004 
 15 12 31  0 17  0.0000000  0  7G02G05G09G17G06G19G23
 114772787.31345  21840534.055    89433347.17145  21840527.3244         35.3004 
        35.4004 
 120071299.97743  22848804.601    93562054.02743  22848801.2454         20.7004 
        20.7004 
 111202554.34846  21161140.925    86651339.42246  21161138.8194         36.8004 
        37.6004 
 116331437.25045  22137139.836    90647867.42245  22137135.5504         33.6004 
        33.3004 
 107618932.94146  20479200.717    83858901.77146  20479200.1514         37.6004 
        38.3004 
 124578836.57044  23706566.602    97074400.82644  23706562.0354         27.7004 
        28.1004 
 124138957.35044  23622865.905    96731656.46744  23622859.7314         24.4004 
        24.5004 
 15 12 31  0 17 30.0000000  0  7G02G05G09G17G06G19G23
 114718809.24846  21830261.809    89391286.32946  21830255.6744         36.4004 
        37.0004 
 120009816.89443  22837103.855    93514145.16443  22837100.3484         19.4004 
        20.1004 
 111238200.53946  21167924.126    86679115.65846  21167922.6034         36.7004 
        37.1004 
 116434707.85145  22156791.273    90728337.95345  22156788.0934         34.1004 
        34.3004 
 107626824.62146  20480702.639    83865051.13246  20480701.7134         39.0004 
        37.5004 
 124695892.67944  23728842.371    97165613.28644  23728837.3394         27.8004 
        27.9004 
 124224603.49043  23639163.684    96798393.65144  23639157.5034         23.4004 
        24.5004 
 15 12 31  0 18  0.0000000  0  7G02G05G09G17G06G19G23
 114664917.83146  21820007.041    89349293.01646  21820000.7014         36.0004 
        36.5004 
 119948569.41343  22825450.195    93466419.86743  22825445.9084         19.4004 
        20.1004 
 111274421.33546  21174817.433    86707339.64246  21174815.5934         38.2004 
        37.3004 
 116538311.11445  22176506.251    90809067.70645  22176503.4904         33.2004 
        33.6004 
 107635000.15446  20482258.374    83871421.66446  20482257.5034         39.2004 
        39.7004 
 124813103.53244  23751146.411    97256946.34144  23751142.9624         27.2004 
        27.2004 
 124310588.89643  23655524.473    96865395.21243  23655518.3064         23.4004 
        23.5004 
 15 12 31  0 18 30.0000000  0  7G02G05G09G17G06G19G23
 114611112.15446  21809768.311    89307366.51146  21809761.8084         37.0004 
        37.5004 
 119887555.65543  22813840.716    93418876.68543  22813835.9514         18.1004 
        18.3004 
 111311213.56546  21181818.251    86736008.90146  21181816.5424         38.0004 
        38.2004 
 116642242.55545  22196284.344    90890053.18845  22196280.9384         33.4004 
        33.8004 
 107643458.41346  20483867.888    83878012.50746  20483867.0954         39.1004 
        39.8004 
 124930464.73244  23773477.915    97348396.51544  23773474.7874         27.1004 
        27.1004 
 124396909.42343  23671951.338    96932657.89643  23671944.3684         22.4004 
        22.5004 
 15 12 31  0 19  0.0000000  0  7G02G05G09G17G06G19G23
 114557393.71946  21799546.444    89265507.98946  21799539.7404         37.2004 
        37.7004 
 119826776.15343  22802274.196    93371516.06743  22802269.5704         18.1004 
        18.3004 
 111348576.14846  21188927.847    86765122.58146  21188926.4214         37.5004 
        37.9004 
 116746499.60645  22216123.737    90971292.39945  22216119.9304         33.2004 
        33.6004 
 107652200.42546  20485531.716    83884824.45346  20485530.4544         39.9004 
        39.4004 
 125047973.73944  23795840.702    97439961.89044  23795836.4294         26.7004 
        26.4004 
 124483562.81243  23688441.603    97000179.96843  23688434.0404         21.7004 
        22.5004 
 15 12 31  0 19 30.0000000  0  7G02G05G09G17G06G19G23
 114503764.23245  21789340.516    89223718.77445  21789334.2914         35.3004 
        35.7004 
 119766231.22542  22790752.637    93324338.25142  22790747.0474         16.8004 
        17.4004 
 111386508.45046  21196146.461    86794680.19246  21196144.6854         37.7004 
        38.6004 
 116851080.16845  22236024.333    91052783.68545  22236021.1314         33.2004 
        33.5004 
 107661227.60846  20487249.230    83891858.61646  20487248.2134         39.9004 
        40.5004 
 125165628.80844  23818229.987    97531641.08844  23818225.4174         26.2004 
        26.9004 
 124570547.08643  23704994.843    97067959.85543  23704987.2804         21.7004 
        21.5004 
 15 12 31  0 20  0.0000000  0  7G02G05G09G17G06G19G23
 114450223.95346  21779152.165    89181999.07246  21779146.3174         37.1004 
        37.2004 
 119705920.51142  22779273.998    93277342.93442  22779269.5684         16.8004 
        17.4004 
 111425008.60946  21203472.501    86824680.29146  21203470.9634         38.0004 
        38.2004 
 116955981.12745  22255987.508    91134524.64145  22255983.1264         33.4004 
        33.8004 
 107670540.30846  20489021.443    83899115.25446  20489020.5064         40.2004 
        40.5004 
 125283426.96244  23840646.687    97623431.78844  23840641.3784         26.7004 
        26.9004 
 124657859.43443  23721607.985    97135995.38343  23721602.4964         20.0004 
        20.2004 
 15 12 31  0 20 30.0000000  0  7G02G05G09G17G06G19G23
 114396774.91346  21768981.112    89140350.46545  21768974.8864         37.0004 
        34.0004 
 119645844.80641  22767843.664    93230530.73542  22767838.5544         11.5004 
        12.8004 
 111464075.87146  21210907.376    86855122.29146  21210905.3674         37.9004 
        38.2004 
 117061200.22945  22276009.505    91216513.49445  22276006.1044         34.0004 
        33.8004 
 107680139.87045  20490848.009    83906595.41445  20490847.4384         33.9004 
        33.2004 
 125401366.24944  23863089.432    97715332.43944  23863085.5344         27.1004 
        27.4004 
 124745497.93243  23738283.803    97204285.03643  23738276.2584         20.0004 
        20.2004 
 15 12 31  0 21  0.0000000  0  8G02G07G05G09G17G06G19G23
 114343421.15545  21758828.151    89098776.10845  21758821.8954         34.3004 
        34.7004 
 131776163.8044   25076169.629   102682720.7734   25076171.2314          2.4004 
         1.0004 
 119586006.86541  22756457.727    93183903.77442  22756449.6164         11.5004 
        12.8004 
 111503711.68346  21218449.670    86886007.31945  21218447.5434         36.9004 
        35.4004 
 117166738.00745  22296092.298    91298750.67045  22296089.0964         32.7004 
        32.8004 
 107690029.95246  20492730.417    83914301.96246  20492729.4454         36.9004 
        39.1004 
 125519447.06044  23885559.234    97807343.37544  23885554.5274         26.5004 
        26.8004 
 124833462.97143  23755023.485    97272829.15442  23755014.5904         18.0004 
        17.2004 
 15 12 31  0 21 30.0000000  0  8G02G07G05G09G17G06G19G23
 114290159.03946  21748692.640    89057273.14946  21748686.3884         36.8004 
        37.4004 
 131718828.39941  25065258.796   102638043.84841  25065256.7454         10.6004 
         6.7004 
 119526401.97741  22745113.093    93137458.43641  22745106.6384          6.0004 
         6.7004 
 111543910.11346  21226098.881    86917330.74646  21226097.5684         38.6004 
        38.6004 
 117272587.17745  22316235.242    91381230.46845  22316231.6314         31.8004 
        32.0004 
 107700206.81546  20494666.769    83922231.97546  20494666.2454         39.9004 
        40.4004 
 125637662.21744  23908054.629    97899458.98044  23908050.6004         26.2004 
        26.3004 
 124921747.49743  23771819.943    97341622.17542  23771815.4844         18.0004 
        17.2004 
 15 12 31  0 22  0.0000000  0  8G02G07G05G09G17G06G19G23
 114236991.99546  21738575.756    89015844.28346  21738568.6324         36.9004 
        37.5004 
 131661503.45342  25054351.049   102593375.14541  25054347.6534         12.7004 
         9.5004 
 119467032.46941  22733816.788    93091196.49941  22733807.9024          6.0004 
         6.7004 
 111584671.88946  21233855.353    86949093.14346  21233854.2954         38.3004 
        38.4004 
 117378747.33645  22336436.510    91463952.60645  22336434.0834         31.9004 
        32.2004 
 107710673.40446  20496658.452    83930387.74946  20496657.7494         40.0004 
        40.4004 
 125756011.88244  23930576.952    97991679.39944  23930572.8374         27.1004 
        27.3004 
 125010351.06542  23788681.768    97410663.84342  23788677.0634         12.9004 
        12.3004 
 15 12 31  0 22 30.0000000  0  8G02G07G05G09G17G06G19G23
 114183919.45345  21728476.595    88974489.05746  21728469.3314         35.2004 
        36.0004 
 131604189.94442  25043443.915   102548715.31141  25043440.5854         12.7004 
         9.5004 
 119407896.7474   22722566.912    93045116.7494   22722556.2234          1.0004 
         1.1004 
 111625994.01946  21241719.071    86981292.17746  21241717.6184         36.4004 
        36.7004 
 117485213.55045  22356696.165    91546913.24145  22356694.1244         33.1004 
        33.1004 
 107721428.91346  20498705.616    83938768.65046  20498704.7774         37.0004 
        37.6004 
 125874491.78244  23953123.086    98084001.28044  23953116.9774         26.8004 
        27.0004 
 125099269.72642  23805602.740    97479951.03742  23805598.9004         12.9004 
        12.3004 
 15 12 31  0 23  0.0000000  0  8G02G07G05G09G17G06G19G23
 114130943.21746  21718395.238    88933208.86146  21718388.3584         36.6004 
        36.4004 
 131546891.25842  25032539.125   102504067.03442  25032538.8094         15.9004 
        15.9004 
 119348995.1464   22711353.465    92999219.4454   22711343.9064          1.0004 
         1.1004 
 111667875.58346  21249689.167    87013927.13746  21249687.8084         37.2004 
        37.2004 
 117591983.74845  22377014.329    91630110.72945  22377011.1824         32.8004 
        33.3004 
 107732474.70346  20500807.300    83947375.74346  20500806.6614         38.0004 
        38.2004 
 125993099.87044  23975693.498    98176423.08444  23975687.8594         26.4004 
        26.6004 
 125188501.74642  23822583.502    97549482.37842  23822580.6804         13.3004 
        13.6004 
 15 12 31  0 23 30.0000000  0  8G02G07G05G09G17G06G19G23
 114078064.21546  21708332.291    88892004.44046  21708326.0914         36.8004 
        37.0004 
 131489609.74642  25021640.646   102459432.14042  25021637.9564         15.9004 
        15.9004 
 119290327.9944   22700193.007    92953504.8074   22700180.2494          1.0004 
         1.0004 
 111710315.20846  21257765.104    87046996.94846  21257763.7894         38.4004 
        38.4004 
 117699055.87645  22397389.668    91713543.50245  22397386.3244         32.4004 
        33.0004 
 107743811.69846  20502964.703    83956209.74646  20502963.9154         39.7004 
        40.3004 
 126111833.95244  23998287.353    98268943.03244  23998283.0714         26.5004 
        26.7004 
 125278044.65442  23839621.648    97619255.94242  23839621.4554         13.3004 
        13.6004 
 15 12 31  0 24  0.0000000  0  8G02G07G05G09G17G06G19G23
 114025284.98546  21698288.905    88850877.75746  21698282.7864         36.6004 
        36.8004 
 131432349.22642  25010742.907   102414813.65943  25010741.6184         17.8004 
        18.1004 
 119231895.902 5  22689076.048                                          32.500  
                
 111753312.39246  21265947.503    87080501.21346  21265945.4794         38.0004 
        38.6004 
 117806428.03645  22417821.707    91797210.03645  22417818.7774         32.5004 
        32.5004 
 107755441.67546  20505177.699    83965272.04946  20505176.9134         40.1004 
        40.3004 
 126230692.40544  24020904.707    98361559.89444  24020901.7734         26.3004 
        26.4004 
 125367896.96541  23856722.728    97689270.61641  23856719.4644         11.6004 
        11.8004 
 15 12 31  0 24 30.0000000  0  8G02G07G05G09G17G06G19G23
 113972607.08446  21688264.779    88809830.03946  21688258.7854         36.5004 
        37.0004 
 131375112.32443  24999852.788   102370213.54443  24999850.5344         20.3004 
        18.1004 
 119173699.8084   22677993.488    92862625.7114   22677987.7504          1.0004 
         1.0004 
 111796865.71546  21274234.780    87114438.84446  21274233.5674         38.1004 
        38.6004 
 117914097.72245  22438310.866    91881108.42745  22438307.1664         32.0004 
        32.2004 
 107767365.52546  20507446.559    83974563.34546  20507445.8744         39.3004 
        39.7004 
 126349672.94644  24043546.220    98454271.89144  24043543.0994         26.6004 
        27.0004 
 125458056.36341  23873882.107    97759524.56841  23873878.6004         11.6004 
        11.8004 
 15 12 31  0 25  0.0000000  0  8G02G07G05G09G17G06G19G23
 113920026.74845  21678259.464    88768858.34346  21678253.4234         35.9004 
        36.3004 
 131317896.98443  24988963.551   102325630.26443  24988962.3994         20.3004 
        20.8004 
 119115734.3514   22666966.399    92817457.8104   22666959.1004          1.0004 
         1.0004 
 111840969.13446  21282627.997    87148805.11946  21282626.1144         37.2004 
        37.8004 
 118022057.24045  22458854.559    91965232.67245  22458851.3484         32.2004 
        32.5004 
 107779579.57546  20509770.958    83984080.76346  20509770.1304         39.7004 
        39.9004 
 126468768.46744  24066210.195    98547073.49844  24066205.9194         27.0004 
        27.1004 
 125548515.74342  23891094.992    97830012.25842  23891092.3464         14.3004 
        15.5004 
 15 12 31  0 25 30.0000000  0  7G02G07G09G17G06G19G23
 113867552.79046  21668274.020    88727969.53946  21668267.3934         36.2004 
        36.3004 
 131260713.37243  24978081.202   102281071.69343  24978080.4554         21.9004 
        21.9004 
 111885628.72946  21291126.103    87183604.77046  21291124.2354         37.9004 
        38.3004 
 118130311.58245  22479455.146    92049586.65545  22479450.7524         31.8004 
        32.1004 
 107792092.24546  20512152.182    83993830.87746  20512151.4124         40.3004 
        40.6004 
 126587984.12644  24088896.356    98639968.70744  24088892.8654         26.8004 
        27.1004 
 125639280.04042  23908364.929    97900737.55542  23908363.0894         17.6004 
        15.5004 
 15 12 31  0 26  0.0000000  0  7G02G07G09G17G06G19G23
 113815183.58645  21658308.307    88687162.35946  21658301.9464         35.5004 
        36.0004 
 131203561.28343  24967207.127   102236537.66743  24967204.6704         22.3004 
        21.9004 
 111930840.00346  21299730.396    87218834.30846  21299727.8624         37.6004 
        37.9004 
 118238855.24445  22500109.945    92134166.09245  22500106.8734         31.5004 
        31.7004 
 107804901.38746  20514589.029    84003812.01646  20514589.1924         40.0004 
        40.8004 
 126707314.44144  24111603.568    98732953.26744  24111599.1514         26.7004 
        26.5004 
 125730344.04142  23925693.831    97971696.36742  23925690.1744         17.6004 
        17.7004 
 15 12 31  0 26 30.0000000  0  7G02G07G09G17G06G19G23
 113762918.75145  21648362.160    88646436.49945  21648356.0194         34.4004 
        34.7004 
 131146441.81343  24956336.003   102192029.04743  24956335.8644         22.3004 
        22.4004 
 111976599.71146  21308437.872    87254491.19946  21308435.9114         37.5004 
        37.9004 
 118347683.95145  22520819.709    92218967.62345  22520816.2284         31.3004 
        30.9004 
 107818006.20546  20517083.107    84014023.54646  20517082.9824         39.6004 
        40.0004 
 126826755.60444  24134331.790    98826024.21944  24134330.1504         24.6004 
        24.5004 
 125821703.76942  23943083.094    98042885.62142  23943074.7494         16.9004 
        17.7004 
 15 12 31  0 27  0.0000000  0  8G02G07G09G17G06G05G19G23
 113710762.47645  21638437.613    88605795.23145  21638431.2264         34.8004 
        35.1004 
 131089360.33643  24945474.899   102147550.01743  24945473.7284         21.7004 
        21.7004 
 112022909.09246  21317250.025    87290576.40446  21317247.7194         37.6004 
        38.0004 
 118456797.49745  22541583.028    92303991.11545  22541579.5244         32.0004 
        32.3004 
 107831410.25346  20519633.993    84024468.23546  20519633.4704         40.2004 
        41.0004 
 118886228.533 5  22623297.525                                          34.400  
                
 126946307.58244  24157082.683    98919181.46844  24157079.6274         24.7004 
        25.0004 
 125913359.25642  23960525.049    98114305.37442  23960515.6134         16.9004 
        17.6004 
 15 12 31  0 27 30.0000000  0  8G02G07G09G17G06G05G19G23
 113658718.55745  21628534.327    88565241.51045  21628527.2124         34.8004 
        35.0004 
 131032321.47143  24934620.091   102103104.17743  24934619.0034         22.1004 
        21.7004 
 112069768.92846  21326166.987    87327090.53246  21326165.5694         37.4004 
        37.5004 
 118566195.50245  22562401.513    92389236.26645  22562397.8464         32.2004 
        32.5004 
 107845116.81146  20522242.313    84035148.63846  20522241.7534         38.6004 
        38.9004 
 118829447.051 5  22612490.165                                          34.200  
                
 127065970.57044  24179853.183    99012425.27044  24179849.6874         24.9004 
        25.0004 
 126005310.77343  23978022.813    98185955.79943  23978014.3464         19.7004 
        20.5004 
 15 12 31  0 28  0.0000000  0  8G02G07G09G17G06G05G19G23
 113606788.31745  21618651.458    88524776.37645  21618645.6134         35.5004 
        35.7004 
 130975328.18743  24923773.909   102058693.88043  24923772.7144         22.1004 
        22.4004 
 112117177.76146  21335189.221    87364032.44446  21335186.6164         37.3004 
        38.1004 
 118675875.55345  22583273.025    92474701.17445  22583269.9544         32.1004 
        32.6004 
 107859126.83546  20524908.023    84046065.52046  20524907.8584         40.2004 
        40.5004 
 118772904.191 5  22601727.567                                          31.100  
                
 127185742.10044  24202645.139    99105753.65044  24202641.8594         24.9004 
        25.0004 
 126097555.72843  23995574.557    98257834.87843  23995568.9964         20.4004 
        20.5004 
 15 12 31  0 28 30.0000000  0  8G02G07G09G17G06G05G19G23
 113554973.25245  21608791.824    88484400.99045  21608785.5574         35.4004 
        35.7004 
 130918383.71043  24912939.711   102014321.56143  24912938.3344         22.3004 
        22.5004 
 112165134.37746  21344315.110    87401401.20446  21344312.5624         37.1004 
        37.9004 
 118785835.77145  22604196.736    92560384.39745  22604193.9884         31.8004 
        32.2004 
 107873441.57146  20527631.948    84057219.83346  20527631.7314         40.0004 
        40.5004 
 118716600.957 5  22591017.624                                          34.600  
                
 127305620.47044  24225458.044    99199165.26144  24225455.2544         24.9004 
        25.0004 
 126190092.31543  24013184.074    98329941.19343  24013178.3584         20.4004 
        20.8004 
 15 12 31  0 29  0.0000000  0  8G02G07G09G17G06G05G19G23
 113503271.00945  21598953.499    88444113.50846  21598946.8364         35.8004 
        36.1004 
 130861487.33743  24902110.446   101969986.71243  24902110.7624         22.6004 
        22.5004 
 112213633.26446  21353543.308    87439192.51546  21353541.6294         37.5004 
        38.1004 
 118896069.02245  22625174.035    92646280.38445  22625170.2264         31.8004 
        32.1004 
 107888058.05646  20530414.310    84068609.26846  20530413.2954         40.5004 
        40.6004 
 118660533.689 5  22580348.171                                          34.100  
                
 127425599.89744  24248289.260    99292655.59544  24248286.0714         25.4004 
        26.1004 
 126282914.05243  24030847.018    98402269.73543  24030841.9854         21.5004 
        22.0004 
 15 12 31  0 29 30.0000000  0  8G02G07G09G17G06G05G19G23
 113451682.71045  21589136.569    88403914.81745  21589130.1594         30.2004 
        30.7004 
 130804641.21443  24891295.222   101925691.00143  24891293.1574         22.6004 
        22.5004 
 112262672.77745  21362875.187    87477405.09245  21362873.5244         33.0004 
        33.6004 
 119006572.34445  22646202.277    92732386.81345  22646198.7534         30.5004 
        31.7004 
 107902977.04545  20533253.332    84080234.43645  20533252.6164         33.8004 
        34.5004 
 118604702.1914   22569720.856    92419238.1474   22569715.9944          2.4004 
         3.0004 
 127545677.44444  24271139.081    99386222.39144  24271136.2244         26.1004 
        26.0004 
 126376018.42843  24048563.691    98474818.50543  24048559.0124         20.6004 
        22.0004 
 15 12 31  0 30  0.0000000  0  8G02G07G09G17G06G05G19G23
 113400209.29045  21579341.152    88363805.64045  21579334.9294         32.5004 
        33.3004 
 130747847.51843  24880487.192   101881436.15443  24880486.1754         21.4004 
        21.5004 
 112312250.64145  21372310.103    87516037.15545  21372307.9974         32.3004 
        33.3004 
 119117342.97444  22667280.499    92818701.52844  22667277.1824         27.7004 
        28.4004 
 107918198.86146  20536149.766    84092095.56746  20536149.0754         38.8004 
        38.8004 
 118549105.4134   22559142.341    92375916.0294   22559137.4784          4.9004 
         5.4004 
 127665849.46843  24294006.981    99479862.82043  24294003.8194         23.3004 
        22.3004 
 126469402.55243  24066333.017    98547585.25843  24066329.5354         20.6004 
        19.1004 
 15 12 31  0 30 30.0000000  0  8G02G07G09G17G06G05G19G23
 113348851.64744  21569568.495    88323786.68244  21569561.8344         28.5004 
        28.9004 
 130691108.23843  24869688.568   101837223.72743  24869688.3754         21.3004 
        21.5004 
 112362364.46445  21381846.510    87555086.85745  21381844.2734         32.1004 
        32.6004 
 119228376.98944  22688410.070    92905221.48544  22688406.6844         28.3004 
        27.8004 
 107933723.60345  20539104.047    84104192.74345  20539103.1304         32.9004 
        33.3004 
 118493742.7404   22548609.159    92332776.2794   22548603.4294          5.4004 
         5.8004 
 127786113.22943  24316893.526    99573574.73343  24316890.4454         21.7004 
        22.3004 
 126563063.24642  24084156.060    98620567.52843  24084151.3894         17.3004 
        19.1004 
 15 12 31  0 31  0.0000000  0  8G02G07G09G17G06G05G19G23
 113297615.38345  21559818.209    88283862.30846  21559811.6094         35.8004 
        36.2004 
 130634430.59543  24858904.776   101793059.33143  24858902.0574         21.3004 
        21.1004 
 112413017.09646  21391484.619    87594556.41246  21391482.7694         36.2004 
        36.6004 
 119339676.49845  22709590.111    92991948.31645  22709587.3164         31.0004 
        31.2004 
 107949556.65746  20542116.805    84116530.16146  20542116.0744         39.2004 
        39.5004 
 118438619.0264   22538118.291    92289822.7924   22538115.4704          5.4004 
         5.8004 
 127906471.11743  24339794.551    99667359.97943  24339793.0414         21.7004 
        23.0004 
 126657002.57342  24102031.545    98693766.93242  24102028.0834         17.3004 
        17.3004 
 15 12 31  0 31 30.0000000  0  8G02G07G09G17G06G05G19G23
 113246500.05946  21550091.087    88244032.17346  21550084.8244         36.3004 
        36.8004 
 130577815.49443  24848129.926   101748943.72843  24848129.0924         22.2004 
        22.6004 
 112464204.98646  21401225.313    87634443.04046  21401223.7894         37.1004 
        37.5004 
 119451236.74745  22730819.056    93078878.32545  22730816.1934         31.0004 
        31.2004 
 107965697.04046  20545187.994    84129107.06646  20545187.4674         40.3004 
        40.7004 
 118383732.38442  22527672.587    92247054.00342  22527669.3764         12.6004 
        12.8004 
 128026918.58244  24362717.521    99761215.03044  24362713.8894         25.3004 
        25.3004 
 126751216.04642  24119961.012    98767179.93342  24119955.7204         17.7004 
        17.3004 
 15 12 31  0 32  0.0000000  0  8G02G07G09G17G06G05G19G23
 113195506.33246  21540387.374    88204296.79046  21540381.1464         36.7004 
        37.1004 
 130521264.70743  24837370.498   101704878.26643  24837367.9904         22.1004 
        22.6004 
 112515925.23946  21411067.426    87674744.49946  21411066.0734         37.1004 
        37.7004 
 119563054.02045  22752097.530    93166008.59345  22752094.0934         30.9004 
        31.1004 
 107982144.46046  20548317.727    84141923.22746  20548317.5694         40.0004 
        40.6004 
 118329081.29042  22517274.159    92204468.74142  22517269.2864         12.6004 
        12.8004 
 128147452.19044  24385653.766    99855137.23944  24385650.4014         25.4004 
        25.6004 
 126845700.29042  24137941.441    98840803.91542  24137935.5074         17.7004 
        17.7004 
 15 12 31  0 32 30.0000000  0  8G02G07G09G17G06G05G19G23
 113144634.89046  21530707.110    88164656.69046  21530700.8634         36.6004 
        36.9004 
 130464780.52843  24826620.599   101660864.72543  24826619.2034         22.1004 
        22.5004 
 112568175.83046  21421010.706    87715459.20746  21421008.8244         36.6004 
        37.0004 
 119675125.36245  22773424.036    93253336.84645  22773420.9664         31.3004 
        31.6004 
 107998899.64546  20551506.693    84154979.18846  20551505.7744         39.7004 
        40.6004 
 118274666.06842  22506918.624    92162067.27642  22506914.8074         15.0004 
        15.0004 
 128268069.72744  24408606.363    99949124.84144  24408604.0424         25.3004 
        25.5004 
 126940452.95142  24155972.068    98914637.07742  24155965.2644         17.5004 
        17.7004 
 15 12 31  0 33  0.0000000  0  8G02G07G09G17G06G05G19G23
 113093887.06546  21521050.252    88125112.91546  21521044.0714         37.1004 
        37.6004 
 130408365.45543  24815883.490   101616905.04243  24815883.7884         22.6004 
        22.5004 
 112620954.90346  21431054.540    87756585.72346  21431052.8294         36.9004 
        37.3004 
 119787447.49345  22794798.127    93340860.52145  22794794.0914         30.4004 
        30.6004 
 108015962.97546  20554753.829    84168275.26346  20554752.8114         39.6004 
        40.0004 
 118220486.21842  22496607.854    92119849.23542  22496605.2354         15.6004 
        15.0004 
 128388767.97644  24431575.860   100043175.30044  24431571.1874         25.1004 
        25.5004 
 127035470.86042  24174052.428    98988676.93442  24174047.7774         17.5004 
        17.5004 
 15 12 31  0 33 30.0000000  0  8G02G07G09G17G06G05G19G23
 113043268.32846  21511417.706    88085669.72646  21511411.5024         37.2004 
        37.6004 
 130352026.37943  24805164.923   101573004.60743  24805161.7754         21.4004 
        22.5004 
 112674264.68046  21441199.207    87798125.78046  21441197.2524         37.1004 
        37.4004 
 119900022.01645  22816220.436    93428580.86945  22816217.2324         30.2004 
        30.4004 
 108033339.52546  20558059.913    84181815.41446  20558059.5874         39.7004 
        39.7004 
 118166545.70342  22486346.659    92077817.65642  22486339.8924         15.6004 
        15.7004 
 128509548.90444  24454558.754   100137290.21244  24454555.3684         25.0004 
        25.1004 
 127130755.75942  24192184.965    99062924.81642  24192180.2204         16.4004 
        17.5004 
 15 12 31  0 34  0.0000000  0  8G02G07G09G17G06G05G19G23
 112992777.98846  21501809.830    88046326.59246  21501802.8944         37.3004 
        37.7004 
 130295763.24243  24794456.795   101529163.36843  24794455.3294         21.4004 
        21.1004 
 112728100.99246  21451443.745    87840076.12546  21451441.4994         37.3004 
        37.4004 
 120012843.90344  22837688.553    93516493.94944  22837686.5944         29.7004 
        29.9004 
 108051027.72446  20561425.873    84195598.40846  20561425.7424         39.8004 
        40.0004 
 118112842.16142  22476123.666    92035970.73542  22476121.3324         14.8004 
        15.7004 
 128630407.65944  24477558.066   100231465.77944  24477553.1674         24.3004 
        25.0004 
 127226302.74342  24210367.614    99137376.91342  24210365.2904         16.4004 
        16.3004 
 15 12 31  0 34 30.0000000  0  8G02G07G09G17G06G05G19G23
 112942415.51946  21492226.481    88007083.09146  21492219.5564         37.5004 
        37.9004 
 130239577.42443  24783765.841   101485382.37643  24783764.2034         19.6004 
        19.3004 
 112782460.21646  21461788.213    87882433.93646  21461785.7964         37.5004 
        37.9004 
 120125908.02144  22859204.823    93604595.78844  22859203.0644         29.0004 
        29.5004 
 108069026.61346  20564850.926    84209623.49046  20564850.8864         40.4004 
        41.2004 
 118059373.49342  22465950.346    91994306.83642  22465947.4384         14.8004 
        14.9004 
 128751339.80244  24500569.844   100325698.56743  24500566.8554         24.3004 
        22.6004 
 127322107.82842  24228599.132    99212030.10342  24228595.6654         16.0004 
        16.3004 
 15 12 31  0 35  0.0000000  0  8G02G07G09G17G06G05G19G23
 112892183.10646  21482667.535    87967940.94246  21482660.7644         37.6004 
        38.0004 
 130183472.57043  24773088.655   101441664.49243  24773088.4584         19.6004 
        19.3004 
 112837341.39946  21472231.497    87925198.46346  21472230.1984         37.6004 
        37.7004 
 120239213.18745  22880766.195    93692885.46645  22880763.7354         31.1004 
        31.3004 
 108087337.90346  20568336.314    84223892.00446  20568335.4794         40.0004 
        40.5004 
 118006140.78842  22455818.878    91952826.82342  22455817.8714         14.8004 
        14.9004 
 128872344.10843  24523594.980   100419987.52343  24523593.4714         21.3004 
        22.6004 
 127418169.34442  24246877.686    99286883.11642  24246874.3034         14.4004 
        15.2004 
 15 12 31  0 35 30.0000000  0  8G02G07G09G17G06G05G19G23
 112842086.14245  21473133.999    87928904.33245  21473127.5974         30.7004 
        31.8004 
 130127454.95743  24762429.536   101398014.58643  24762428.0464         19.6004 
        20.3004 
 112892746.43345  21482774.969    87968371.19645  21482772.8944         30.7004 
        31.0004 
 120352760.20045  22902373.612    93781363.59644  22902371.2864         30.1004 
        29.2004 
 108105966.18145  20571880.814    84238407.51445  20571880.0834         31.5004 
        32.0004 
 117953147.40142  22445735.553    91911533.28842  22445733.5084         14.8004 
        14.9004 
 128993422.32443  24546638.019   100514334.06143  24546633.2434         22.3004 
        22.0004 
 127514488.56942  24265207.931    99361936.97142  24265203.5404         14.4004 
        15.2004 
 15 12 31  0 36  0.0000000  0  8G02G07G09G17G06G05G19G23
 112792123.92645  21463626.562    87889972.72546  21463620.0384         35.3004 
        37.1004 
 130071525.35843  24751787.822   101354433.25143  24751784.9514         19.2004 
        20.3004 
 112948671.35845  21493416.248    88011949.02545  21493415.1504         33.9004 
        34.1004 
 120466543.94645  22924025.841    93870026.17445  22924023.7484         30.8004 
        30.7004 
 108124910.15646  20575485.743    84253169.01646  20575484.9454         39.9004 
        40.4004 
 117900391.47742  22435696.594    91870424.77442  22435692.9924         13.5004 
        14.9004 
 129114569.55543  24569690.414   100608734.40743  24569686.5494         22.3004 
        23.1004 
 127611060.83642  24283585.790    99437187.98642  24283584.2164         14.6004 
        13.6004 
 15 12 31  0 36 30.0000000  0  8G02G07G09G17G06G05G19G23
 112742294.57746  21454144.248    87851144.64446  21454137.8094         36.0004 
        37.0004 
 130015683.10843  24741160.021   101310919.97043  24741159.1044         19.2004 
        18.8004 
 113005110.86446  21504157.007    88055927.82046  21504155.1264         37.1004 
        37.4004 
 120580558.31644  22945721.820    93958868.46044  22945720.1744         29.6004 
        28.8004 
 108144167.23946  20579150.018    84268174.50546  20579149.5324         37.1004 
        37.8004 
 117847869.67642  22425701.268    91829498.69142  22425698.3784         13.5004 
        13.5004 
 129235780.08043  24592755.447   100703184.08243  24592751.2424         23.2004 
        23.1004 
 127707880.26042  24302007.467    99512631.59042  24302010.5554         14.6004 
        13.6004 
 15 12 31  0 37  0.0000000  0  8G02G07G09G17G06G05G19G23
 112692599.56746  21444688.006    87812421.25046  21444681.3224         36.5004 
        36.8004 
 129959930.85843  24730551.764   101267476.81943  24730549.1804         18.7004 
        18.8004 
 113062063.19146  21514994.896    88100306.22746  21514993.2714         37.5004 
        37.7004 
 120694800.65945  22967461.668    94047888.38745  22967459.8364         30.1004 
        30.3004 
 108163738.41446  20582874.251    84283424.73546  20582874.0484         39.9004 
        40.5004 
 117795582.02541  22415750.403    91788755.10642  22415748.7124         11.9004 
        13.5004 
 129357051.52143  24615833.294   100797681.21643  24615829.6324         21.4004 
        22.1004 
 127804944.84242  24320477.209    99588266.17942  24320481.7964         16.2004 
        16.6004 
 15 12 31  0 37 30.0000000  0  8G02G07G09G17G06G05G19G23
 112643041.98945  21435257.749    87773804.94846  21435250.9364         35.6004 
        36.5004 
 129904272.85043  24719958.934   101224107.08243  24719958.5074         18.7004 
        18.5004 
