     2.11           OBSERVATION DATA    G (GPS)             RINEX VERSION / TYPE
AndroidGNSSReceiver RITSUMEIKAN KUBOLAB 1548141089718       PGM / RUN BY / DATE
flounder                                                    MARKER NAME
GRitzLogger         KUBOLAB                                 OBSERVER / AGENCY
0                   Android Receiver                        REC # / TYPE / VERS
0                   Android Anttena                         ANT # / TYPE
        0.0000        0.0000        0.0000                  APPROX POSITION XYZ
        0.0000        0.0000        0.0000                  ANTENNA: DELTA H/E/N
1     0                                                     WAVELENGTH FACT L1/2
3         L1    C1    S1                                    # / TYPES OF OBSERV
1.000                                                       INTERVAL
  2019     1    22     7     6   40.9998367     GPS         TIME OF FIRST OBS
                                                            END OF HEADER
 19  1 22  7  6 40.9998369  0  6G14G16G25G26G31G32
      1088.866    20348609.448          33.685  
    -66817.324    23934581.135          33.346  
     61888.165    22831803.867          39.144  
    -46677.632    21801746.063          31.199  
    -23066.956    20962639.264          40.306  
     36195.439    20783771.993          34.999  
 19  1 22  7  6 41.9998369  0  6G14G16G25G26G31G32
      1168.037    20348642.725          35.475  
    -70136.217    23933942.571          34.635  
     64853.327    22832373.774          38.567  
    -48876.612    21801308.664          30.502  
    -24144.213    20962439.607          39.957  
     37943.241    20784087.074          36.250  
 19  1 22  7  6 42.9998369  0  7G14G16G25G26G29G31G32
      1247.951    20348645.727          37.025  
    -73454.419    23933311.213          36.733  
     67818.713    22832937.381          38.619  
    -51074.749    21800906.349          31.714  
     -3554.528    21475465.739          48.160  
    -25220.850    20962226.453          38.967  
     39691.809    20784426.140          37.886  
 19  1 22  7  6 43.9998369  0  7G14G16G25G26G29G31G32
      1329.817    20348671.204          35.428  
    -76771.383    23932664.560          35.218  
     70785.462    22833498.894          39.432  
    -53270.4311   21800506.722          33.667  
     -3683.824    21475432.767          47.732  
    -26294.842    20962031.883          40.119  
     41440.9151   20784779.891          36.085  
 19  1 22  7  6 44.9998369  0  7G14G16G25G26G29G31G32
      1413.3811   20348682.599          35.764  
    -80085.9311   23932031.693          33.822  
     73753.7741   22834066.401          40.703  
    -55463.6551   21800079.514          30.864  
     -3811.908    21475408.180          47.257  
    -27365.9241   20961820.229          39.286  
     43190.9671   20785093.777          36.837  
 19  1 22  7  6 45.9998369  0  7G14G16G25G26G29G31G32
      1501.6821   20348704.185          35.712  
    -83399.3251   23931407.534          35.907  
     76723.5031   22834627.312          41.109  
    -57653.0371   21799684.389          29.605  
     -3937.7201   21475384.203          47.537  
    -28433.1551   20961622.370          40.786  
     44949.2071   20785431.639          35.651  
 19  1 22  7  6 46.9998369  0  7G14G16G25G26G29G31G32
      1591.7601   20348710.781          36.542  
    -86709.9551   23930792.353          32.765  
     79695.1291   22835196.617          36.897  
    -59838.8211   21799243.396          30.722  
     -4060.0341   21475361.116          44.969  
    -29498.5671   20961411.013          40.504  
     46707.6871   20785756.615          36.836  
 19  1 22  7  6 47.9998369  0  7G14G16G25G26G29G31G32
      1682.3751   20348741.956          37.038  
    -90021.9151   23930148.405          32.197  
     82666.5761   22835765.930          39.838  
    -62028.6711   21798842.573          34.336  
     -4183.6901   21475341.930          46.399  
    -30563.1881   20961213.755          39.074  
     48463.1541   20786097.182          37.584  
 19  1 22  7  6 48.9998369  0  7G14G16G25G26G29G31G32
      1772.6951   20348742.261          35.360  
    -93329.9221   23929519.735          30.698  
     85638.3091   22836331.335          40.582  
    -64217.7441   21798423.166          33.368  
     -4305.7111   21475314.350          45.908  
    -31626.7261   20961014.090          37.807  
     50220.7751   20786434.451          38.013  
 19  1 22  7  6 49.9998369  0  7G14G16G25G26G29G31G32
      1862.9221   20348771.935          35.834  
    -96633.9571   23928885.079          30.588  
     88611.4571   22836896.146          40.941  
    -66405.7881   21798016.942          31.941  
     -4426.497    21475297.257          46.322  
    -32690.4321   20960807.235          38.842  
     51976.4001   20786766.921          37.735  
 19  1 22  7  6 50.9998369  0  7G14G16G25G26G29G31G32
      1949.6281   20348781.228          34.931  
    -99941.9441   23928289.093          30.212  
     91585.3021   22837456.158          40.013  
    -68589.0431   21797578.349          31.177  
     -4549.7211   21475277.477          44.657  
    -33758.2701   20960599.778          40.641  
     53733.6451   20787101.189          36.991  
 19  1 22  7  6 51.9998369  0  7G14G16G25G26G29G31G32
      2035.0101   20348796.217          34.161  
   -103252.6921   23927644.237          30.419  
     94559.2451   22838030.855          39.997  
    -70771.9201   21797160.739          32.273  
     -4668.6771   21475247.795          44.239  
    -34818.2031   20960399.214          42.033  
     55492.7161   20787437.551          36.999  
 19  1 22  7  6 52.9998369  0  7G14G16G25G26G29G31G32
      2130.5791   20348826.799          35.385  
   -106562.1741   23927054.246          29.577  
     97534.7911   22838592.368          40.591  
    -72961.2181   21796779.704          34.245  
     -4782.0521   21475231.007          44.850  
    -35881.6381   20960201.957          41.506  
     57253.0961   20787773.022          37.458  
 19  1 22  7  6 53.9998369  0  7G14G16G25G26G29G31G32
      2223.7501   20348843.586          35.867  
   -109870.7371   23926410.586          31.232  
    100510.0791   22839154.780          40.963  
    -75147.3181   21796360.288          32.420  
     -4897.735    21475205.521          44.771  
    -36943.8371   20959995.399          40.568  
     59013.1891   20788099.193          37.803  
 19  1 22  7  6 54.9998369  0  7G14G16G25G26G29G31G32
      2322.1941   20348862.773          36.465  
   -113177.7461   23925739.354          30.941  
    103486.4241   22839724.687          41.485  
    -77333.5681   21795935.489          33.680  
     -5015.2821   21475176.746          45.063  
    -38004.0541   20959795.131          40.054  
     60780.7381   20788447.255          38.020  
 19  1 22  7  6 55.9998369  0  7G14G16G25G26G29G31G32
      2418.5341   20348870.573          35.145  
   -116478.1441   23925157.756          30.682  
    106463.0341   22840286.497          40.441  
    -79519.8451   21795520.270          33.508  
     -5128.4941   21475156.355          45.052  
    -39062.6341   20959599.069          40.692  
     62543.6991   20788766.236          37.603  
 19  1 22  7  6 56.9998369  0  7G14G16G25G26G29G31G32
      2515.2911   20348899.348          36.074  
   -119782.4061   23924494.019          32.275  
    109439.6831   22840857.904          40.541  
    -81701.7571   21795102.965          34.499  
     -5240.907    21475139.272          45.657  
    -40121.4791   20959397.013          39.487  
     64307.4901   20789104.404          37.811  
 19  1 22  7  6 57.9998369  0  7G14G16G25G26G29G31G32
      2614.6151   20348906.546          35.860  
   -123087.8921   23923879.440          30.312  
    112414.7561   22841423.308          40.237  
    -83883.0141   21794687.449          33.620  
     -5351.861    21475117.686          46.241  
    -41175.1691   20959195.550          39.504  
     66072.3371   20789448.566          37.488  
 19  1 22  7  6 58.9998369  0  7G14G16G25G26G29G31G32
      2715.7611   20348938.925          36.263  
   -126392.3941   23923232.491          30.895  
    115389.9521   22841990.214          40.365  
    -86064.3251   21794264.744          34.914  
     -5463.123    21475100.593          46.416  
    -42229.6191   20958989.891          40.162  
     67840.5471   20789786.725          36.777  
 19  1 22  7  6 59.9998369  0  7G14G16G25G26G29G31G32
      2819.9921   20348953.610          35.802  
   -129698.7131   23922628.111          32.176  
    118367.8311   22842554.728          40.510  
    -88245.3711   21793847.728          34.942  
     -5572.236    21475080.211          45.816  
    -43284.2191   20958787.835          41.833  
     69611.6251   20790131.192          37.741  
 19  1 22  7  7  0.9998369  0  7G14G16G25G26G29G31G32
      2919.5771   20348973.102          35.668  
   -133003.3201   23921972.760          32.252  
    121346.5901   22843126.432          41.080  
    -90425.8891   21793423.827          33.301  
     -5681.1161   21475054.725          45.944  
    -44341.4791   20958587.567          40.735  
     71381.2931   20790452.564          36.500  
 19  1 22  7  7  1.9998369  0  7G14G16G25G26G29G31G32
      3021.8621   20348989.287          34.879  
   -136306.7781   23921357.884          31.828  
    124325.4611   22843692.735          39.954  
    -92612.5281   21793028.702          32.855  
     -5789.6531   21475036.438          46.348  
    -45398.7481   20958384.613          39.393  
     73150.9911   20790791.334          35.609  
 19  1 22  7  7  2.9998369  0  7G14G16G25G26G29G31G32
      3127.9541   20349008.176          35.036  
   -139611.1081   23920730.418          30.738  
    127303.6091   22844259.047          40.275  
    -94791.9301   21792634.170          32.980  
     -5897.3331   21475015.157          46.030  
    -46452.5721   20958178.054          40.643  
     74919.2691   20791129.197          36.214  
 19  1 22  7  7  3.9998369  0  7G14G16G25G26G29G31G32
      3233.8321   20349034.256          36.401  
   -142917.4961   23920106.852          30.402  
    130282.1461   22844824.757          41.335  
    -96972.3121   21792211.168          32.980  
     -6004.140    21474991.774          45.731  
    -47511.5691   20957982.586          40.818  
     76687.4051   20791470.366          38.330  
 19  1 22  7  7  4.9998369  0  7G14G16G25G26G29G31G32
      3331.9791   20349051.645          35.594  
   -146221.1341   23919480.284          30.872  
    133260.4561   22845388.966          40.432  
    -99152.6441   21791771.972          33.327  
     -6110.058    21474976.784          45.231  
    -48568.3221   20957779.928          41.166  
     78458.7451   20791804.633          37.718  
 19  1 22  7  7  5.9998369  0  7G14G16G25G26G29G31G32
      3437.7431   20349069.034          37.360  
   -149530.1001   23918876.201          29.592  
    136239.4791   22845955.575          41.229  
   -101332.7211   21791382.239          33.116  
     -6214.6391   21474945.600          45.500  
    -49625.2891   20957570.377          40.159  
     80235.8201   20792130.804          38.399  
 19  1 22  7  7  6.9998369  0  7G14G16G25G26G29G31G32
      3541.7671   20349094.817          36.539  
   -152832.5041   23918194.473          31.729  
    139211.0821   22846521.285          40.464  
   -103512.0591   21790964.629          33.907  
     -6319.5701   21474931.815          46.082  
    -50683.2761   20957376.112          40.069  
     82005.9871   20792477.069          38.306  
 19  1 22  7  7  7.9998369  0  7G14G16G25G26G29G31G32
      3646.6471   20349110.705          35.772  
   -156132.8281   23917605.982          31.620  
    142190.1961   22847092.684          41.496  
   -105684.6951   21790573.997          33.807  
     -6423.2101   21474911.127          45.188  
    -51742.0891   20957181.848          41.480  
     83776.6031   20792801.442          37.934  
 19  1 22  7  7  8.9998369  0  7G14G16G25G26G29G31G32
      3752.3701   20349135.886          34.849  
   -159432.3351   23916947.341          30.435  
    145169.2231   22847662.590          41.563  
   -107871.9361   21790125.509          33.025  
     -6522.8321   21474888.940          45.326  
    -52801.0331   20956976.485          40.803  
     85547.5361   20793158.796          36.993  
 19  1 22  7  7  9.9998369  0  7G14G16G25G26G29G31G32
      3860.0371   20349144.576          34.542  
   -162734.2651   23916330.965          30.968  
    148149.3251   22848227.096          41.120  
   -110056.7541   21789705.796          32.753  
     -6625.5971   21474874.552          45.213  
    -53859.2851   20956774.429          39.652  
     87318.8771   20793476.277          36.309  
 19  1 22  7  7 10.9998369  0  7G14G16G25G26G29G31G32
      3967.4591   20349165.865          35.673  
   -166036.5281   23915725.686          31.223  
    151126.4511   22848794.307          41.052  
   -112231.2761   21789295.385          32.735  
     -6727.4061   21474856.264          45.843  
    -54913.8121   20956574.467          40.686  
     89090.4181   20793815.038          37.019  
 19  1 22  7  7 11.9998369  0  7G14G16G25G26G29G31G32
      4075.1081   20349199.440          35.918  
   -169337.5321   23915084.426          31.264  
    154103.7201   22849359.118          40.305  
   -114414.1521   21788887.669          34.098  
     -6829.0351   21474831.380          45.454  
    -55972.5701   20956368.510          41.473  
     90862.4311   20794163.100          38.426  
 19  1 22  7  7 12.9998369  0  7G14G16G25G26G29G31G32
      4181.7011   20349212.632          35.839  
   -172633.9411   23914453.365          31.690  
    157082.7511   22849924.828          41.297  
   -116592.7301   21788471.856          33.238  
     -6930.720    21474820.892          45.731  
    -57025.0841   20956170.642          40.280  
     92637.8441   20794488.974          37.846  
 19  1 22  7  7 13.9998369  0  7G14G16G25G26G29G31G32
      4290.0751   20349235.117          35.730  
   -175935.2641   23913816.606          31.389  
    160061.0461   22850495.328          38.774  
   -118756.8301   21788042.546          32.521  
     -7031.4651   21474791.506          45.987  
    -58083.1731   20955974.877          40.554  
     94410.6951   20794838.834          37.534  
 19  1 22  7  7 14.9998369  0  7G14G16G25G26G29G31G32
      4398.5241   20349254.303          35.786  
   -179236.6291   23913157.660          30.208  
    163040.0871   22851061.334          41.565  
   -120932.6481   21787617.441          33.068  
     -7131.0661   21474781.315          45.207  
    -59133.8411   20955770.125          40.787  
     96184.6921   20795171.601          37.481  
 19  1 22  7  7 15.9998369  0  7G14G16G25G26G29G31G32
      4510.4051   20349271.692          34.643  
   -182545.0101   23912555.383          29.647  
    166018.956    22851628.248          41.102  
   -123108.2161   21787208.827          37.135  
     -7234.8311   21474761.230          43.927  
    -60189.4601   20955569.256          40.285  
     97955.4351   20795518.459          36.678  
 19  1 22  7  7 16.9998369  0  7G14G16G25G26G29G31G32
      4619.6921   20349286.682          29.390  
   -185849.4291   23911900.634          25.441  
    168995.1971   22852163.979          35.595  
   -125278.8011   21786777.728          32.036  
     -7325.2961   21474727.351          38.316  
    -61247.0621   20955353.710          34.814  
     99734.3021   20795815.854          31.682  
 19  1 22  7  7 17.9998369  0  7G14G16G25G26G29G31G32
      4739.0961   20349313.660          24.122  
   -189154.7081   23911294.151          20.946  
    171971.1151   22852764.755          30.265  
   -127457.0081   21786383.196          26.812  
     -7420.6191   21474664.696          33.024  
    -62301.2111   20955234.089          29.529  
    101519.3931   20796164.509          26.437  
 19  1 22  7  7 18.9998369  0  7G14G16G25G26G29G31G32
      4855.8191   20349335.848          19.253  
   -192465.4671   23910657.096          16.533  
    174945.1641   22853331.363          24.941  
   -129632.3411   21785967.689          21.866  
     -7508.5091   21474714.760          27.864  
    -63358.3211   20954974.168          24.363  
    103303.0791   20796504.178          21.363  
 19  1 22  7  7 19.9998369  0  7G14G16G25G26G29G31G32
      4973.5191   20349357.730          13.921  
   -195777.8741   23910034.429          13.480  
    177917.1051   22853768.762          20.302  
   -131809.0391   21785551.571          17.506  
     -7592.2671   21474684.484          22.998  
    -64414.3921   20954772.714          19.281  
    105086.2771   20796843.846          16.310  
 19  1 22  7  7 20.9998369  0  7G14G16G25G26G29G31G32
      5088.3871   20349379.020           9.462  
   -199085.1761   23909403.961           9.918  
    180888.1801   22854464.580          15.320  
   -133989.9551   21785136.064          12.174  
     -7678.5851   21474667.095          18.472  
    -65468.6301   20954570.955          14.523  
    106871.9611   20797183.209          11.934  
 19  1 22  7  7 21.9998369  0  7G14G16G25G26G29G31G32
      5197.6731   20349403.895           8.609  
   -202390.6181   23908772.298          12.446  
    183858.5161   22855031.486          13.285  
   -136170.0001   21784720.252          10.094  
     -7768.2781   21474650.011          15.433  
    -66519.7921   20954370.094          10.639  
    108656.9081   20797626.602          10.757  
 19  1 22  7  7 22.9998369  0  7G14G16G25G26G29G31G32
      5314.9891   20349424.888          11.543  
   -205694.6221   23908143.035          11.586  
    186835.1691   22855598.400           7.953  
   -138347.8571   21784304.142          12.180  
     -7858.4591   21474632.919          12.772  
    -67577.8241   20954110.766          11.602  
    110437.5801   20797862.834           7.349  
 19  1 22  7  7 23.9998369  0  7G14G16G25G26G29G31G32
      5430.9151   20349445.566          10.689  
   -209000.1001   23907513.474          11.118  
    189809.8031   22856165.601           7.000  
   -140529.6751   21783885.625          11.552  
     -7949.4781   21474624.822          13.175  
    -68643.3901   20953967.465           8.632  
    112217.1711   20798196.509          11.129  
 19  1 22  7  7 24.9998369  0  7G14G16G25G26G29G31G32
      5541.8191   20349468.051          10.763  
   -212304.6851   23906883.905          10.729  
    192788.9901   22856734.906           9.325  
   -142715.8981   21783470.415          11.622  
     -8038.0531   21474597.547          10.969  
    -69712.8541   20953768.707          11.810  
    113999.4981   20798534.973          10.766  
 19  1 22  7  7 25.9998369  0  7G14G16G25G26G29G31G32
      5659.6591   20349490.239          10.654  
   -215610.3061   23906254.345          10.580  
    195766.0341   22857304.516           9.110  
   -144907.2171   21783054.907          11.172  
     -8124.9631   21474562.167          12.341  
    -70775.6871   20953567.846          12.150  
    115779.4301   20798874.938          10.711  
 19  1 22  7  7 26.9998369  0  7G14G16G25G26G29G31G32
      5776.9171   20349512.723          10.560  
   -218915.6421   23905627.481           9.720  
    198738.8881   22857870.828           9.521  
   -147095.8211   21782637.891          11.444  
     -8216.6511   21474562.769          12.411  
    -71830.9861   20953371.479          11.616  
    117558.3461   20799103.082          10.377  
 19  1 22  7  7 27.9998369  0  6G16G25G26G29G31G32
   -222218.4281   23904994.911           9.492  
    201715.6381   22858437.131           9.945  
   -149278.4501   21782221.180          11.345  
     -8308.8281   21474543.582          11.550  
    -72893.0891   20953169.720          11.586  
    119336.2811   20799554.563          10.206  
 19  1 22  7  7 28.9998369  0  5G16G25G29G31G32
   -225520.9301   23904365.647           8.631  
    204692.5531   22859004.935          10.552  
     -8400.8671   21474526.490          11.028  
    -73954.9441   20952966.460          11.329  
    121114.0611   20799895.130           9.836  
 19  1 22  7  7 29.9998369  0  5G16G25G29G31G32
   -228829.9921   23903730.991           9.511  
    207668.8281   22859633.902          10.455  
     -8492.4351   21474508.202          10.205  
    -75017.1391   20952765.302          10.497  
    122891.0591   20800234.493           9.554  
 19  1 22  7  7 30.9998369  0  4G25G29G31G32
    210643.3901   22860203.207          10.701  
     -8582.7271   21474490.822          10.106  
    -76079.9491   20952562.644          10.957  
    124669.1581   20800578.359          10.254  
 19  1 22  7  7 31.9998369  0  3G25G29G32
    213616.9281   22860734.444          10.424  
     -8670.8431   21474473.432          10.455  
    126448.3411   20801091.002          10.453  
 19  1 22  7  7 32.9998369  0  3G25G29G32
    216589.6111   22861270.767          10.066  
     -8757.4281   21474456.043           9.595  
    128229.8401   20801432.163          10.274  
 19  1 22  7  7 33.9998369  0  3G25G29G32
    219561.7831   22861834.078           9.615  
     -8842.9721   21474439.849           9.762  
    130015.4941   20801602.145           9.494  
 19  1 22  7  7 34.9998369  0  2G25G32
    222534.0051   22862400.390           9.257  
    131806.0561   20801943.009           9.332  
 19  1 22  7  7 35.9998369  0  2G25G32
    225504.0761   22862963.997           8.474  
    133602.4051   20802289.274          10.247  
 19  1 22  7  7 36.9998369  0
 19  1 22  7  7 37.9998369  0
 19  1 22  7  7 38.9998369  0
 19  1 22  7  7 39.9998369  0
 19  1 22  7  7 40.9998369  0
 19  1 22  7  7 41.9998369  0
 19  1 22  7  7 42.9998369  0  7G 3G14G16G22G25G29G31
     -2218.3591   24573923.024          33.035  
       613.1831   20349882.668          35.255  
    -15863.0811   23895619.502          31.736  
      1801.6111   24611040.632          34.793  
     13137.9891   22866960.830          38.236  
      -391.1521   21474305.849          42.799  
     -5043.9021   20950158.004          43.275  
 19  1 22  7  7 43.9998369  0  7G 3G14G16G22G25G29G31
     -2770.1281   24573821.394          32.720  
       736.6781   20349923.440          35.564  
    -19154.7081   23894991.442          34.181  
      2193.1261   24611088.297          36.561  
     16122.5751   22867525.937          38.021  
      -469.6141   21474291.156          43.247  
        -9.3781   20949960.747          44.145  
 19  1 22  7  7 44.9998369  0  7G 3G14G16G22G25G29G31
     -3324.8651   24573746.751          32.014  
       869.0801   20349933.937          35.441  
    -22445.3171   23894363.671          34.210  
      2585.6981   24611175.836          35.166  
     19106.0161   22868098.540          37.897  
      -548.3841   21474275.870          43.113  
     -1062.5801   20949761.378          44.078  
 19  1 22  7  7 45.9998369  0  7G 3G14G16G22G25G29G31
     -3886.1381   24573660.407          30.214  
      1003.5821   20349961.211          36.406  
    -25735.6141   23893735.611          37.204  
      2975.5181   24611253.481          36.552  
     22090.6281   22868656.153          38.197  
      -625.3261   21474262.075          43.066  
     -2110.712    20949557.821          44.574  
 19  1 22  7  7 46.9998369  0  7G 3G14G16G22G25G29G31
     -4435.2621   24573508.712          30.416  
      1137.6461   20349989.690          36.485  
    -29024.9591   23893117.437          37.091  
      3366.6551   24611313.440          36.286  
     25074.3881   22869236.259          38.058  
        -0.5811   21474258.481          43.328  
     -3160.4431   20949363.853          44.588  
 19  1 22  7  7 47.9998369  0  7G 3G14G16G22G25G29G31
     -4987.1241   24573413.975          30.255  
      1272.2011   20350019.373          35.926  
    -32315.2201   23892480.976          36.430  
      3760.2851   24611389.889          36.029  
     28060.8771   22869797.467          39.270  
       -77.4831   21474233.893          42.770  
     -4207.3371   20949158.194          43.969  
 19  1 22  7  7 48.9998369  0  8G 3G14G16G22G25G26G29G31
     -5534.7581   24573304.257          35.558  
      1406.5231   20350038.263          35.183  
    -35610.8111   23891867.007          33.500  
      4152.4371   24611473.528          37.331  
     31045.4021   22870372.173          38.893  
    -14715.5841   21773605.449          41.803  
      -154.0281   21474218.005          42.722  
     -5257.9111   20948961.835          43.929  
 19  1 22  7  7 49.9998369  0  8G 3G14G16G22G25G26G29G31
     -6083.9041   24573219.711          33.318  
      1541.5811   20350067.038          35.157  
    -38902.6411   23891228.146          35.101  
      4546.8411   24611541.584          36.692  
     34031.3941   22870934.279          38.896  
    -16871.2661   21773189.034          41.054  
      -228.1401   21474207.517          42.364  
     -6304.2781   20948756.472          43.852  
 19  1 22  7  7 50.9998369  0  8G 3G14G16G22G25G26G29G31
     -6637.6791   24573080.013          33.991  
      1675.9651   20350088.921          35.120  
    -42193.8841   23890619.866          32.572  
      4939.0181   24611612.336          37.150  
     37016.5251   22871499.989          38.162  
    -19030.3891   21772783.413          40.540  
      -303.9441   21474191.323          42.072  
     -7354.9881   20948563.412          43.572  
 19  1 22  7  7 51.9998369  0  8G 3G14G16G22G25G26G29G31
     -7176.9691   24572996.069          34.895  
      1810.2611   20350123.106          36.205  
    -45480.7491   23889975.910          36.057  
      5337.1451   24611690.880          37.655  
     40002.2011   22872067.496          38.994  
    -21193.6781   21772369.703          40.397  
      -376.1091   21474182.930          42.348  
     -8398.8411   20948364.645          43.385  
 19  1 22  7  7 52.9998369  0  8G 3G14G16G22G25G26G29G31
     -7728.7001   24572892.039          34.455  
      1944.4171   20350139.291          34.971  
    -48768.0041   23889358.940          34.812  
      5735.3831   24611767.922          35.669  
     42987.6221   22872638.302          38.409  
    -23351.0811   21771958.689          40.329  
      -448.5231   21474169.144          42.244  
     -9442.7731   20948166.481          43.936  
 19  1 22  7  7 53.9998369  0  8G 3G14G16G22G25G26G29G31
     -8285.8011   24572803.898          32.843  
      2079.7251   20350169.270          35.339  
    -52055.1671   23888737.468          37.759  
      6134.6251   24611839.276          36.655  
     45969.2271   22873209.107          39.060  
    -25507.9391   21771553.068          40.238  
      -516.2921   21474154.155          43.010  
    -10486.1571   20947967.426          43.226  
 19  1 22  7  7 54.9998369  0  8G 3G14G16G22G25G26G29G31
     -8832.6131   24572681.886          33.241  
      2213.8551   20350192.654          35.283  
       -65.4651   23888105.508          35.653  
      6532.3211   24611936.107          37.192  
     48953.6031   22873776.309          38.411  
    -27658.0691   21771144.445          39.580  
      -590.0251   21474136.460          43.629  
    -11531.594    20947767.464          43.943  
 19  1 22  7  7 55.9998369  0  8G 3G14G16G22G25G26G29G31
     -9381.2761   24572577.255          34.958  
      2352.5261   20350216.639          35.211  
     -3354.3441   23887472.650          34.744  
      6931.5201   24611996.965          36.556  
     51939.4871   22874346.817          39.406  
    -29814.6741   21770736.136          39.781  
      -659.8341   21474129.270          44.240  
    -12576.6851   20947569.299          42.808  
 19  1 22  7  7 56.9998369  0  8G 3G14G16G22G25G26G29G31
     -9924.4621   24572478.626          34.429  
      2493.9471   20350256.207          34.706  
     -6640.0741   23886842.784          33.872  
      7327.4691   24612080.909          37.299  
     54926.4231   22874908.933          39.918  
    -31968.8071   21770316.423          39.467  
      -728.2131   21474111.585          43.250  
    -13619.5481   20947371.135          43.153  
 19  1 22  7  7 57.9998369  0  8G 3G14G16G22G25G26G29G31
    -10466.7851   24572382.990          31.534  
      2631.2111   20350276.895          35.974  
     -9925.5901   23886232.402          35.398  
      7722.8261   24612151.365          36.658  
     57912.6681   22875479.729          40.703  
    -34125.0281   21769912.302          40.260  
      -796.0571   21474092.695          44.200  
    -14659.3051   20947173.572          43.838  
