     2.10           OBSERVATION DATA    G (GPS)             RINEX VERSION / TYPE
Convert             CompanyName         03-Jul-2004 06:20   PGM / RUN BY / DATE 
Signal Strength values S1,S2 are in dBHz                    COMMENT             
MarkerName                                                  MARKER NAME         
MarkerNumber                                                MARKER NUMBER       
Observer            Agency                                  OBSERVER / AGENCY   
Rec Number          NovAtel GPSCard     Rec Version         REC # / TYPE / VERS 
Antenna Number      Antenna Type                            ANT # / TYPE        
-3766663.0058 3604124.4637  3662439.6247                    APPROX POSITION XYZ 
        0.0000        0.0000        0.0000                  ANTENNA: DELTA H/E/N
     1     1                                                WAVELENGTH FACT L1/2
     1     1     7   G05   G09   G14   G15   G18   G21   G22WAVELENGTH FACT L1/2
     1     1     3   G26   G29   G30                        WAVELENGTH FACT L1/2
                                                            COMMENT             
                                                            COMMENT             
                                                            COMMENT             
     8    C1    L1    D1    S1    P2    L2    D2    S2      # / TYPES OF OBSERV 
     1.000                                                  INTERVAL            
  2004    07    03    06    18    31.0000000    GPS         TIME OF FIRST OBS   
  2004    07    03    07    16     0.0000000    GPS         TIME OF LAST OBS    
    13                                                      LEAP SECONDS        
                                                            END OF HEADER       
 04 07 03 06 18 31.0000000  0 10G30G14G15G26G18G29G21G 9G 5G22                  
  24121380.43846 126758726.82846      3751.70746        42.131    24121384.16743
  98773051.32543      2923.40643        35.094  
  24641628.44245 129492616.95445      2567.22345        39.574    24641629.30843
 100903341.74243      2000.43043        35.660  
  22661982.60846 119089525.50446      -596.94146        42.216    22661982.68541
  92797026.55741      -465.15241        29.081  
  23145075.35346 121628196.17346     -2358.82046        42.954    23145076.26942
  94775225.91842     -1838.04742        33.412  
  20275583.95549 116479367.83049       663.86749        48.737    20275581.38746
  90761414.14646       517.29746        43.109  
  23820807.21745 125179177.45445     -2169.54345        40.355    23820808.11042
  97542195.91342     -1690.55542        33.602  
  23033471.62446 121041705.59446     -2817.07046        42.878    23033469.99841
  94318202.25341     -2195.12541        30.951  
  20024016.49949 115157377.17149     -1109.12949        50.297    20024014.49146
  89731301.52446      -864.25846        43.145  
  21782654.97348 114468630.31948      2769.04348        46.237    21782655.18245
  89196334.55145      2157.69145        39.118  
  22072199.82347 115990196.59147      2543.03147        45.430    22072197.26644
  90381946.21444      1981.57844        37.193  
 04 07 03 06 18 32.0000000  0 10G30G14G15G26G18G29G21G 9G 5G22                  
  24120666.49846 126754974.91846      3751.89846        41.903    24120670.15241
  98770127.75641      2923.55541        28.368  
  24641139.80945 129490049.28045      2567.33645        39.260    24641140.70943
 100901340.97343      2000.52343        34.849  
  22662096.20746 119090122.43146      -597.38346        41.877    22662096.27041
  92797491.70541      -465.49641        31.250  
  23145524.18146 121630554.77246     -2358.85546        42.977    23145525.10143
  94777063.78843     -1838.07443        34.966  
  20275457.62349 116478703.98149       663.37149        48.771    20275455.05946
  90760896.85946       516.91046        43.266  
  23821220.08945 125181347.08345     -2169.58245        40.144    23821220.98843
  97543886.52843     -1690.59043        35.665  
  23034007.68546 121044522.55746     -2817.13346        43.144    23034005.99341
  94320397.27641     -2195.17641        31.011  
  20024227.56649 115158486.30249     -1109.50849        50.254    20024225.56046
  89732165.78446      -864.55546        42.719  
  21782128.01548 114465861.15748      2768.94948        46.303    21782128.24144
  89194176.77144      2157.62144        38.819  
  22071715.88548 115987653.55648      2542.76248        45.643    22071713.33344
  90379964.62744      1981.37144        37.017  
 04 07 03 06 18 33.0000000  0 10G30G14G15G26G18G29G21G 9G 5G22                  
  24119952.53746 126751222.84646      3751.57046        41.963    24119956.15041
  98767204.07141      2923.29741        28.277  
  24640651.16144 129487481.43344      2568.00844        38.851    24640652.15241
 100899340.07541      2001.05141        30.064  
  22662209.91746 119090719.85146      -597.94946        41.745    22662210.02441
  92797957.22041      -465.93841        31.795  
  23145973.00346 121632913.33046     -2358.53146        43.068    23145973.90342
  94778901.63142     -1837.82042        34.147  
  20275331.37449 116478040.58949       663.02349        48.784    20275328.82046
  90760379.93346       516.63746        43.139  
  23821632.98245 125183516.69045     -2169.63745        39.992    23821633.84843
  97545577.11743     -1690.63343        35.650  
  23034543.77646 121047339.62846     -2817.28546        43.113    23034542.02142
  94322592.39742     -2195.29342        33.274  
  20024438.70049 115159595.77949     -1109.79349        50.237    20024436.68346
  89733030.30946      -864.77746        42.958  
  21781601.10248 114463092.26448      2768.37948        46.182    21781601.33744
  89192019.19744      2157.17644        38.616  
  22071231.99248 115985110.69648      2542.53948        45.575    22071229.43544
  90377983.18344      1981.19544        36.915  
 04 07 03 06 18 34.0000000  0 10G30G14G15G26G18G29G21G 9G 5G22                  
  24119238.54046 126747470.57546      3752.48046        42.284    24119242.11343
  98764280.23043      2924.00843        34.584  
  24640162.49844 129484913.44844      2567.90644        38.689    24640163.47444
 100897339.04544      2000.96544        37.028  
  22662323.70346 119091317.74046      -598.23446        41.815    22662323.87441
  92798423.10941      -466.16041        31.821  
  23146421.81647 121635271.83147     -2358.82447        43.354    23146422.69642
  94780739.41742     -1838.04742        33.161  
  20275205.21549 116477377.64949       662.55549        48.852    20275202.67546
  90759863.35746       516.27346        43.180  
  23822045.83745 125185686.21745     -2169.79745        40.280    23822046.72842
  97547267.66242     -1690.75442        33.659  
  23035079.88446 121050156.78046     -2817.47346        43.170    23035078.12342
  94324787.57942     -2195.43842        32.846  
  20024649.90149 115160705.59849     -1110.14149        50.205    20024647.87046
  89733895.10046      -865.04746        42.862  
  21781074.23748 114460323.60048      2768.32048        46.280    21781074.49345
  89189861.80445      2157.12945        39.859  
  22070748.13648 115982568.00948      2542.52348        45.579    22070745.53244
  90376001.87544      1981.03944        37.081  
 04 07 03 06 18 35.0000000  0 10G30G14G15G26G18G29G21G 9G 5G22                  
  24118524.53946 126743718.29046      3752.17646        41.889    24118528.08742
  98761356.35642      2923.77042        33.039  
  24639673.78345 129482345.37745      2568.32045        38.942    24639674.79742
 100895337.93842      2001.28542        32.883  
  22662437.57746 119091916.20746      -598.85246        42.009    22662437.88241
  92798889.45241      -466.64141        31.395  
  23146870.65647 121637630.40847     -2358.96547        43.513    23146871.47743
  94782577.26343     -1838.15643        35.121  
  20275079.16049 116476715.25949       661.97349        48.804    20275076.62146
  90759347.21046       515.82046        42.480  
  23822458.69545 125187855.83345     -2170.07045        39.851    23822459.62643
  97548958.28043     -1690.96943        36.427  
  23035616.01546 121052974.12346     -2817.48846        43.240    23035614.24341
  94326982.90241     -2195.45341        31.640  
  20024861.19149 115161815.87549     -1110.70749        50.194    20024859.15146
  89734760.25046      -865.48846        42.438  
  21780547.44048 114457555.28348      2768.10548        46.258    21780547.70245
  89187704.67145      2156.96145        38.947  
  22070264.33448 115980025.63748      2542.01248        45.893    22070261.74544
  90374020.80844      1980.78544        37.091  
 04 07 03 06 18 36.0000000  0 10G30G14G15G26G18G29G21G 9G 5G22                  
  24117810.53746 126739966.04046      3752.34446        41.778    24117814.06142
  98758432.52142      2923.90242        33.168  
  24639185.09144 129479777.38144      2568.25044        38.778    24639186.14642
 100893336.92242      2001.23442        32.469  
  22662551.61046 119092515.38246      -599.36746        41.838    22662551.90142
  92799356.33442      -467.04342        33.043  
  23147319.52947 121639989.14347     -2358.84047        43.662    23147320.33743
  94784415.23343     -1838.05943        34.962  
  20274953.23149 116476053.53749       661.46949        48.814    20274950.68746
  90758831.58246       515.42646        42.868  
  23822871.59745 125190025.62045     -2169.86745        40.168    23822872.50841
  97550649.02641     -1690.80941        30.574  
  23036152.20346 121055791.78546     -2817.76246        43.192    23036150.50141
  94329178.49041     -2195.66041        29.934  
  20025072.58649 115162926.69949     -1110.90249        50.233    20025070.53046
  89735625.82746      -865.64146        42.890  
  21780020.73248 114454787.43348      2767.84448        46.194    21780020.99645
  89185547.90745      2156.75845        39.023  
  22069780.60848 115977483.64848      2541.92248        45.942    22069778.01144
  90372040.03444      1980.71544        37.014  
 04 07 03 06 18 37.0000000  0 10G30G14G15G26G18G29G21G 9G 5G22                  
  24117096.51146 126736213.60746      3752.21546        41.399    24117099.96941
  98755508.55741      2923.80141        31.550  
  24638696.38445 129477209.21245      2567.74645        39.030    24638697.38343
 100891335.74643      2000.84043        35.224  
  22662665.73046 119093115.01746      -600.08646        41.836    22662666.03741
  92799823.57041      -467.60541        31.003  
  23147768.37447 121642347.81047     -2358.75847        43.770    23147769.16442
  94786253.15942     -1837.99642        32.786  
  20274827.38349 116475392.23749       660.94949        48.810    20274824.85146
  90758316.28446       515.02346        43.199  
  23823284.49645 125192195.37745     -2170.01245        40.037    23823285.40443
  97552339.73843     -1690.92243        35.023  
  23036688.41246 121058609.50246     -2817.98846        42.965    23036686.69142
  94331374.13942     -2195.83642        33.207  
  20025284.04249 115164037.86149     -1111.55149        50.248    20025281.98046
  89736491.67046      -866.14846        42.734  
  21779494.07048 114452019.81548      2767.28548        46.234    21779494.34444
  89183391.32344      2156.32444        38.421  
  22069296.91548 115974941.83148      2541.63348        46.059    22069294.32043
  90370059.40243      1980.48843        35.739  
 04 07 03 06 18 38.0000000  0 10G30G14G15G26G18G29G21G 9G 5G22                  
  24116382.48346 126732461.20246      3752.22746        41.579    24116385.86241
  98752584.61941      2923.80941        32.060  
  24638207.61944 129474641.00244      2568.16844        38.550    24638208.59441
 100889334.55741      2001.17241        31.985  
  22662779.98846 119093715.30446      -600.82046        42.216    22662780.26141
  92800291.32741      -468.17641        28.522  
  23148217.25347 121644706.59547     -2359.19547        43.533    23148218.00141
  94788091.17041     -1838.33641        31.383  
  20274701.65649 116474731.57049       660.21949        48.750    20274699.13146
  90757801.48046       514.45346        42.917  
  23823697.41645 125194365.25345     -2170.14545        40.173    23823698.35842
  97554030.54942     -1691.02342        34.217  
  23037224.66846 121061427.47346     -2818.32846        42.883    23037222.93041
  94333569.98841     -2196.09441        30.256  
  20025495.59849 115165149.54249     -1112.09849        50.249    20025493.52846
  89737357.91446      -866.57446        42.788  
  21778967.49048 114449252.61248      2766.81648        45.899    21778967.76045
  89181235.06345      2155.95745        39.346  
  22068813.30148 115972400.38748      2540.94948        46.240    22068810.71143
  90368079.05443      1979.95743        36.581  
 04 07 03 06 18 39.0000000  0 10G30G14G15G26G18G29G21G 9G 5G22                  
  24115668.46346 126728708.91546      3752.31646        41.139    24115671.86941
  98749660.75541      2923.87941        27.288  
  24637718.92344 129472072.94344      2568.23844        38.478    24637719.91043
 100887333.47443      2001.22743        34.782  
  22662894.37446 119094316.36746      -601.29346        42.034    22662894.66942
  92800759.70842      -468.54342        33.612  
  23148666.17347 121647065.64547     -2359.55947        43.351    23148666.89542
  94789929.38542     -1838.62142        33.048  
  20274576.07549 116474071.65249       659.40649        48.676    20274573.55646
  90757287.25446       513.82046        43.258  
  23824110.38445 125196535.37545     -2170.33245        40.313    23824111.34843
  97555721.54143     -1691.17643        35.059  
  23037760.99446 121064245.86846     -2818.51246        43.004    23037759.30241
  94335766.10541     -2196.24641        30.984  
  20025707.27749 115166261.87149     -1112.69949        50.192    20025705.18246
  89738224.66146      -867.04346        42.963  
  21778441.01148 114446485.96648      2766.20348        46.259    21778441.28044
  89179079.23144      2155.48044        37.963  
  22068329.77448 115969859.40648      2540.71148        46.221    22068327.17943
  90366099.06643      1979.77343        36.543  
 04 07 03 06 18 40.0000000  0 10G30G14G15G26G18G29G21G 9G 5G22                  
  24114954.45546 126724956.54846      3752.09446        41.195    24114957.83141
  98746736.82641      2923.70741        29.136  
  24637230.22145 129469504.82745      2567.77745        38.990    24637231.19144
 100885332.34844      2000.86744        38.780  
  22663008.87646 119094917.99746      -602.06646        42.016    22663009.09141
  92801228.50541      -469.14541        29.165  
  23149115.10847 121649424.67847     -2359.09847        43.678    23149115.86042
  94791767.58342     -1838.26642        32.690  
  20274450.58649 116473412.25749       658.91449        48.754    20274448.08346
  90756773.44146       513.43846        43.150  
  23824523.34945 125198705.55745     -2170.21545        40.570    23824524.35643
  97557412.59243     -1691.07843        35.726  
  23038297.34346 121067064.38946     -2818.57846        43.032    23038295.62642
  94337962.33842     -2196.30142        33.408  
  20025919.03649 115167374.61049     -1113.05549        50.180    20025916.94146
  89739091.73246      -867.32046        43.093  
  21777914.59248 114443719.61248      2766.19948        46.356    21777914.86544
  89176923.62644      2155.47744        38.391  
  22067846.28348 115967318.69548      2540.52748        46.261    22067843.68844
  90364119.29044      1979.62944        37.585  
 04 07 03 06 18 41.0000000  0 10G30G14G15G26G18G29G21G 9G 5G22                  
  24114240.42245 126721204.20745      3752.18845        40.994    24114243.80741
  98743812.92741      2923.77741        28.050  
  24636741.51144 129466936.67844      2567.82044        38.228    24636742.38743
 100883331.17443      2000.89543        34.583  
  22663123.49246 119095520.24846      -602.57446        42.099    22663123.62941
  92801697.79141      -469.54341        28.621  
  23149564.05647 121651783.85147     -2359.47747        43.765    23149564.81143
  94793605.90743     -1838.55543        36.521  
  20274325.21049 116472753.47149       658.32449        48.679    20274322.71847
  90756260.10247       512.97747        43.640  
  23824936.35145 125200875.88745     -2170.89545        40.126    23824937.37343
  97559103.75843     -1691.60943        35.512  
  23038833.76146 121069883.17646     -2818.84846        43.256    23038832.02541
  94340158.79641     -2196.50841        31.113  
  20026130.89249 115168487.87149     -1113.54749        50.212    20026128.77546
  89739959.20946      -867.70346        42.568  
  21777388.24748 114440953.69348      2765.66048        46.333    21777388.52744
  89174768.37244      2155.05944        38.041  
  22067362.87348 115964778.33048      2540.27048        46.273    22067360.27844
  90362139.78044      1979.42644        36.790  
 04 07 03 06 18 42.0000000  0 10G30G14G15G26G18G29G21G 9G 5G22                  
  24113526.40246 126717451.86246      3752.48046        41.139    24113529.70041
  98740889.02141      2924.00841        28.952  
  24636252.79244 129464368.56144      2567.78944        38.608    24636253.69543
 100881330.05443      2000.87143        35.548  
  22663238.23646 119096123.18446      -603.25046        41.920    22663238.39541
  92802167.61841      -470.06641        31.216  
  23150013.03647 121654143.18747     -2359.58647        43.575    23150013.79843
  94795444.35643     -1838.64143        34.999  
  20274199.97249 116472095.32549       657.71949        48.626    20274197.48247
  90755747.26147       512.50447        43.405  
  23825349.37445 125203046.31545     -2170.56245        40.002    23825350.40943
  97560794.99943     -1691.35243        36.112  
  23039370.20546 121072702.25746     -2819.43446        42.810    23039368.46841
  94342355.49141     -2196.96541        30.721  
  20026342.85149 115169601.66049     -1114.10549        50.154    20026340.72146
  89740827.09646      -868.13746        43.122  
  21776861.98748 114438188.22048      2765.16048        46.469    21776862.28545
  89172613.46145      2154.66845        39.233  
  22066879.54748 115962238.36748      2539.41848        46.327    22066876.95544
  90360160.58744      1978.76644        36.807  
 04 07 03 06 18 43.0000000  0 10G30G14G15G26G18G29G21G 9G 5G22                  
  24112812.38546 126713699.54446      3752.28146        41.223    24112815.59741
  98737965.13041      2923.85241        31.563  
  24635764.05544 129461800.37244      2568.43844        38.664    24635764.92842
 100879328.87842      2001.37542        34.225  
  22663353.09946 119096726.74346      -604.12946        42.411    22663353.15641
  92802637.90041      -470.75841        29.157  
  23150462.03347 121656502.60147     -2359.59847        44.036    23150462.75843
  94797282.85543     -1838.65243        35.357  
  20274074.83149 116471437.76749       657.19549        48.578    20274072.35047
  90755234.87847       512.09847        43.512  
  23825762.42045 125205216.90245     -2170.86745        40.073    23825763.49941
  97562486.36541     -1691.59041        31.795  
  23039906.69646 121075521.53246     -2819.47346        43.032    23039904.92642
  94344552.32342     -2196.99642        33.229  
  20026554.90449 115170715.94949     -1114.64149        50.190    20026552.76646
  89741695.37346      -868.55546        42.989  
  21776335.79848 114435423.12148      2764.80148        46.547    21776336.10744
  89170458.84144      2154.38744        38.865  
  22066396.27248 115959698.69548      2539.28148        46.371    22066393.68144
  90358181.62144      1978.65644        38.082  
 04 07 03 06 18 44.0000000  0 10G30G14G15G26G18G29G21G 9G 5G22                  
  24112098.33545 126709947.07245      3752.26645        40.875    24112101.54242
  98735041.11942      2923.84042        34.293  
  24635275.29444 129459232.08744      2568.54744        38.189    24635276.08043
 100877327.66343      2001.47343        35.807  
  22663468.07846 119097330.80346      -604.54746        42.650    22663468.11142
  92803108.57842      -471.08242        32.693  
  23150911.02647 121658861.99447     -2359.66447        43.584    23150911.72443
  94799121.33443     -1838.70343        34.745  
  20273949.79449 116470780.69749       656.55149        48.617    20273947.31446
  90754722.87446       511.59446        43.039  
  23826175.48345 125207387.43445     -2170.20345        40.182    23826176.54643
  97564177.68543     -1691.07043        36.068  
  23040443.21546 121078340.96446     -2819.86346        43.016    23040441.42241
  94346749.27241     -2197.30541        30.802  
  20026767.02249 115171830.59649     -1114.97749        50.172    20026764.87046
  89742563.93246      -868.81646        42.718  
  21775809.67148 114432658.29748      2764.62948        46.711    21775810.00844
  89168304.43344      2154.25444        38.535  
  22065913.03248 115957159.24448      2539.15648        46.327    22065910.42944
  90356202.82844      1978.55944        37.898  
 04 07 03 06 18 45.0000000  0 10G30G14G15G26G18G29G21G 9G 5G22                  
  24111384.27745 126706194.55545      3752.62545        41.091    24111387.47842
  98732117.10142      2924.12542        34.040  
  24634786.53544 129456663.78244      2568.00444        37.752    24634787.35243
 100875326.40743      2001.05143        34.973  
  22663583.16146 119097935.46046      -604.87146        42.595    22663583.13541
  92803579.75341      -471.33241        29.385  
  23151360.06147 121661221.48047     -2359.81647        43.728    23151360.71043
  94800959.89143     -1838.82043        36.290  
  20273824.86049 116470124.19849       656.19949        48.573    20273822.38446
  90754211.31546       511.32046        43.330  
  23826588.55345 125209558.09245     -2170.85545        40.272    23826589.60342
  97565869.09542     -1691.58242        33.639  
  23040979.76846 121081160.57546     -2819.76646        43.136    23040977.98542
  94348946.35742     -2197.22742        33.226  
  20026979.23949 115172945.72449     -1115.56649        50.149    20026977.06947
  89743432.86147      -869.27747        43.377  
  21775283.61448 114429893.85448      2764.10248        46.460    21775283.95544
  89166150.32344      2153.84444        38.324  
  22065429.86848 115954620.09648      2538.89848        46.553    22065427.23444
  90354224.27244      1978.35944        38.535  
 04 07 03 06 18 46.0000000  0 10G30G14G15G26G18G29G21G 9G 5G22                  
  24110670.20845 126702441.96645      3752.46145        40.761    24110673.42542
  98729193.03142      2924.00042        34.058  
  24634297.71544 129454095.33844      2568.05544        37.783    24634298.61142
 100873324.99942      2001.08242        33.768  
  22663698.35146 119098540.68146      -605.73446        42.756    22663698.31641
  92804051.36541      -472.00441        31.893  
  23151809.06747 121663580.96347     -2359.72747        43.746    23151809.71144
  94802798.45144     -1838.75044        37.573  
  20273700.02549 116469468.23249       655.46549        48.555    20273697.56146
  90753700.17346       510.75046        42.767  
  23827001.62545 125211728.76345     -2170.82845        40.151    23827002.68044
  97567560.51944     -1691.56244        36.673  
  23041516.35546 121083980.34046     -2820.30546        43.206    23041514.51241
  94351143.58341     -2197.64541        31.368  
  20027191.52849 115174061.26249     -1115.94149        50.202    20027189.33446
  89744302.11146      -869.56646        42.763  
  21774757.61448 114427129.72048      2763.59048        46.408    21774757.97144
  89163996.44944      2153.44544        38.727  
  22064946.75048 115952081.22048      2538.47748        46.564    22064944.11644
  90352245.93444      1978.03144        37.175  
 04 07 03 06 18 48.0000000  0 10G30G14G15G26G18G29G21G 9G 5G22                  
  24109242.09445 126694936.97445      3752.36745        40.649    24109245.20041
  98723344.98241      2923.92241        30.789  
  24633320.16044 129448958.65944      2568.13344        37.950    24633321.22541
 100869322.37841      2001.14141        28.730  
  22663929.10546 119099753.23246      -607.18846        42.717    22663929.05041
  92804996.20041      -473.13741        30.230  
  23152707.21247 121668300.47947     -2359.96547        43.835    23152707.84843
  94806475.99543     -1838.93843        35.244  
  20273450.74649 116468158.29449       654.27349        48.717    20273448.28347
  90752679.44247       509.82047        43.528  
  23827827.86945 125216070.66245     -2171.24645        40.058    23827828.93744
  97570943.82944     -1691.88344        37.430  
  23042589.71846 121089620.83746     -2820.75446        43.068    23042587.93241
  94355538.77441     -2197.99241        30.492  
  20027616.43349 115176294.04849     -1117.00049        50.221    20027614.21346
  89746041.94346      -870.39546        42.922  
  21773705.88248 114421602.86048      2762.73848        46.585    21773706.22344
  89159689.79944      2152.78144        38.525  
  22063980.74248 115947004.67348      2537.82448        46.862    22063978.07543
  90348290.17643      1977.52343        36.655  
 04 07 03 06 18 49.0000000  0 10G30G14G15G26G18G29G21G 9G 5G22                  
  24108528.04545 126691184.53845      3752.14845        40.804    24108531.18242
  98720421.00642      2923.75042        33.770  
  24632831.40244 129446390.32944      2568.37944        37.812    24632832.50642
 100867321.11242      2001.34042        34.110  
  22664044.66746 119100360.49346      -607.88346        42.882    22664044.67441
  92805469.40041      -473.68041        29.650  
  23153156.33947 121670660.47047     -2360.30947        43.742    23153156.93343
  94808314.93843     -1839.20343        34.978  
  20273326.28249 116467504.28749       653.40249        48.489    20273323.83546
  90752169.82646       509.14146        43.249  
  23828241.05745 125218241.83045     -2171.72745        40.040    23828242.13043
  97572635.65443     -1692.25843        36.039  
  23043126.45646 121092441.49646     -2821.19546        43.125    23043124.68041
  94357736.69841     -2198.33641        30.956  
  20027829.03549 115177411.23549     -1117.71949        50.216    20027826.79846
  89746912.48146      -870.95346        42.910  
  21773180.14348 114418840.07248      2762.25048        46.383    21773180.47444
  89157536.97744      2152.39844        38.494  
  22063497.84548 115944466.95048      2537.28948        46.862    22063495.17044
  90346312.73444      1977.10544        37.097  
 04 07 03 06 18 50.0000000  0 10G30G14G15G26G18G29G21G 9G 5G22                  
  24107814.00145 126687432.17145      3752.36745        40.741    24107817.13943
  98717497.09143      2923.92243        35.387  
  24632342.67544 129443822.10644      2568.32444        37.795    24632343.83041
 100865319.90841      2001.29741        25.734  
  22664160.38446 119100968.49646      -608.60246        42.256    22664160.45042
  92805943.18142      -474.23442        33.358  
  23153605.48347 121673020.62847     -2360.25847        43.514    23153606.07843
  94810154.01843     -1839.16443        35.409  
  20273201.95749 116466850.97149       652.80149        48.632    20273199.52547
  90751660.74947       508.67247        43.808  
  23828654.25845 125220413.20545     -2171.62945        39.969    23828655.37142
  97574327.63542     -1692.18042        34.227  
  23043663.28046 121095262.46846     -2821.03146        43.224    23043661.49641
  94359934.85141     -2198.21141        30.621  
  20028041.75449 115178529.01749     -1118.15249        50.233    20028039.49846
  89747783.48146      -871.28946        43.044  
  21772654.49148 114416077.78648      2761.88348        46.380    21772654.83145
  89155384.54845      2152.11345        39.436  
  22063015.03148 115941929.67748      2536.93848        46.859    22063012.33444
  90344335.64044      1976.83244        37.584  
 04 07 03 06 18 51.0000000  0 10G30G14G15G26G18G29G21G 9G 5G22                  
  24107099.99645 126683679.94345      3752.26245        40.575    24107103.07141
  98714573.28341      2923.84041        28.320  
  24631853.94244 129441254.07144      2567.02744        37.891    24631855.10941
 100863318.83041      2000.27741        29.787  
  22664276.24746 119101577.25846      -608.94146        42.346    22664276.31442
  92806417.55142      -474.50442        32.794  
  23154054.67447 121675381.02647     -2360.36747        43.829    23154055.21842
  94811993.28442     -1839.25042        32.979  
  20273077.77449 116466198.40449       652.18849        48.747    20273075.35746
  90751152.25646       508.19546        43.309  
  23829067.52345 125222584.81345     -2171.96145        40.281    23829068.58343
  97576019.79143     -1692.44143        34.847  
  23044200.18346 121098083.85946     -2821.55946        43.130    23044198.43741
  94362133.32641     -2198.62141        30.628  
  20028254.58649 115179647.45249     -1118.84849        50.268    20028252.32246
  89748654.98846      -871.83246        42.788  
  21772128.95048 114413316.05348      2761.26248        46.391    21772129.28544
  89153232.55144      2151.62944        38.690  
  22062532.31348 115939392.88848      2536.39848        47.041    22062529.60144
  90342358.92944      1976.41044        37.699  
 04 07 03 06 18 52.0000000  0 10G30G14G15G26G18G29G21G 9G 5G22                  
  24106385.98545 126679927.69145      3752.58245        40.177    24106388.98042
  98711649.45342      2924.08642        34.415  
  24631365.22744 129438685.93544      2567.76244        38.134    24631366.40041
 100861317.69041      2000.85541        31.405  
  22664392.23146 119102186.67346      -609.83246        41.889    22664392.26942
  92806892.40642      -475.19542        32.867  
  23154503.89747 121677741.57447     -2360.73047        44.091    23154504.38643
  94813832.67943     -1839.53543        35.125  
  20272953.70049 116465546.43849       651.58649        48.825    20272951.29646
  90750644.23146       507.72746        43.197  
  23829480.80945 125224756.54845     -2171.88745        39.927    23829481.83043
  97577712.05143     -1692.38343        36.302  
  23044737.11546 121100905.47446     -2821.90246        42.996    23044735.38741
  94364331.99641     -2198.88741        32.003  
  20028467.52049 115180766.37449     -1119.44949        50.222    20028465.23146
  89749526.87146      -872.30146        42.734  
  21771603.48448 114410554.70148      2760.99648        46.360    21771603.81745
  89151080.85345      2151.42245        39.078  
  22062049.65648 115936856.42248      2536.14848        46.902    22062046.89344
  90340382.46244      1976.21544        36.924  
 04 07 03 06 18 53.0000000  0 10G30G14G15G26G18G29G21G 9G 5G22                  
  24105671.97445 126676175.47545      3752.14845        39.755    24105674.95142
  98708725.64142      2923.75042        32.577  
  24630876.49544 129436117.78744      2567.55544        37.876    24630877.78741
 100859316.53341      2000.68841        31.917  
  22664508.32346 119102796.70546      -610.55146        41.713    22664508.34542
  92807367.74942      -475.75842        32.326  
  23154953.13247 121680102.21047     -2360.82847        43.897    23154953.57742
  94815672.13342     -1839.60942        34.207  
  20272829.74249 116464895.05149       650.99649        48.899    20272827.35347
  90750136.65747       507.26647        43.554  
  23829894.11745 125226928.42845     -2172.18445        39.969    23829895.15542
  97579404.41942     -1692.61342        34.069  
  23045274.08546 121103727.29446     -2821.93046        43.286    23045272.33041
  94366530.80241     -2198.91441        31.571  
  20028680.54449 115181885.77649     -1119.70349        50.225    20028678.23446
  89750399.13246      -872.50046        42.782  
  21771078.09148 114407793.75848      2760.63748        46.533    21771078.42345
  89148929.47445      2151.14145        39.088  
  22061567.06648 115934320.28048      2535.98848        47.001    22061564.27744
  90338406.24444      1976.09044        37.049  
 04 07 03 06 18 54.0000000  0 10G30G14G15G26G18G29G21G 9G 5G22                  
  24104957.90345 126672423.04845      3752.68445        39.990    24104960.86442
  98705801.69042      2924.16842        33.790  
  24630387.71844 129433549.43444      2568.45344        38.187    24630388.97542
 100857315.21242      2001.39142        34.333  
  22664624.48246 119103407.18746      -610.73446        41.742    22664624.51542
  92807843.44142      -475.90242        32.885  
  23155402.36447 121682462.77547     -2360.55147        44.015    23155402.73442
  94817511.54042     -1839.39542        34.310  
  20272705.86549 116464244.10649       650.66449        48.885    20272703.48547
  90749629.43147       507.00847        43.641  
  23830307.41145 125229100.19745     -2171.70745        40.405    23830308.52243
  97581096.71343     -1692.24243        36.194  
  23045811.09047 121106549.21347     -2821.99647        43.396    23045809.32041
  94368729.71041     -2198.96141        28.825  
  20028893.63549 115183005.50749     -1119.97349        50.259    20028891.31246
  89751271.65046      -872.71146        42.737  
  21770552.75448 114405033.03648      2760.53548        46.390    21770553.07645
  89146778.26345      2151.06245        38.945  
  22061084.50548 115931784.32548      2535.66448        46.998    22061081.72644
  90336430.17944      1975.84044        36.682  
 04 07 03 06 18 55.0000000  0 10G30G14G15G26G18G29G21G 9G 5G22                  
  24104243.81745 126668670.54945      3752.50045        39.778    24104246.76942
  98702877.67142      2924.02742        34.376  
  24629898.95644 129430981.05644      2567.91044        38.075    24629900.20543
 100855313.88543      2000.96543        34.491  
  22664740.76546 119104018.24246      -611.75446        42.044    22664740.83341
  92808319.57941      -476.69541        30.737  
  23155851.59347 121684823.35647     -2360.96547        44.068    23155851.92642
  94819350.93642     -1839.71942        33.806  
  20272582.09049 116463593.67449       650.06249        48.901    20272579.71047
  90749122.60147       506.53947        43.397  
  23830720.72745 125231272.02345     -2171.84845        40.225    23830721.80244
  97582789.03544     -1692.35244        38.128  
  23046348.10747 121109371.27147     -2822.17247        43.362    23046346.38341
  94370928.70541     -2199.09841        30.232  
  20029106.80349 115184125.65749     -1120.55949        50.260    20029104.46746
  89752144.49446      -873.16446        42.856  
  21770027.46348 114402272.63048      2760.19548        46.581    21770027.77544
  89144627.28744      2150.79744        38.484  
  22060601.99448 115929248.60748      2535.42248        46.980    22060599.21144
  90334454.29644      1975.64844        37.037  
 04 07 03 06 18 56.0000000  0 10G30G14G15G26G18G29G21G 9G 5G22                  
  24103529.76345 126664918.01945      3752.14845        39.915    24103532.71843
  98699953.63843      2923.75843        35.636  
  24629410.15244 129428412.54144      2568.70344        37.879    24629411.41641
 100853312.44941      2001.58241        31.820  
  22664857.15046 119104629.87246      -612.24646        41.962    22664857.24241
  92808796.18841      -477.07841        29.234  
  23156300.83447 121687183.98947     -2360.82847        44.229    23156301.13142
  94821190.39142     -1839.60942        33.281  
  20272458.42449 116462943.82149       649.57049        48.793    20272456.05747
  90748616.22047       506.15647        43.382  
  23831134.06945 125233443.94645     -2172.03145        40.417    23831135.09942
  97584481.43842     -1692.49642        33.943  
  23046885.17546 121112193.53846     -2822.43046        43.175    23046883.53342
  94373127.87442     -2199.30142        33.519  
  20029320.05649 115185246.26949     -1120.94549        50.359    20029317.71046
  89753017.69846      -873.46946        42.347  
  21769502.24748 114399512.60248      2759.55548        46.393    21769502.54644
  89142476.61844      2150.30144        38.385  
  22060119.54648 115926713.19748      2535.17648        47.094    22060116.75444
  90332478.64944      1975.45744        37.322  
 04 07 03 06 18 57.0000000  0 10G30G14G15G26G18G29G21G 9G 5G22                  
  24102815.66045 126661165.33745      3753.21145        39.902    24102818.62642
  98697029.47942      2924.58242        34.169  
  24628921.35644 129425843.97344      2568.18044        37.713    24628922.65841
 100851310.97141      2001.17641        28.346  
  22664973.63946 119105242.05046      -612.77046        41.886    22664973.67741
  92809273.21541      -477.48441        31.740  
  23156750.07447 121689544.61647     -2360.37147        44.236    23156750.33842
  94823029.84442     -1839.25442        34.315  
  20272334.85849 116462294.48849       649.01249        48.813    20272332.49546
  90748110.24846       505.71946        43.187  
  23831547.41545 125235615.87445     -2171.81645        40.364    23831548.44242
  97586173.86342     -1692.32842        33.697  
  23047422.26346 121115015.95446     -2822.55946        43.273    23047420.65141
  94375327.15941     -2199.39841        30.832  
  20029533.38749 115186367.29449     -1121.39149        50.270    20029531.03346
  89753891.22346      -873.81246        42.479  
  21768977.08348 114396752.86848      2759.46948        46.425    21768977.38744
  89140326.18044      2150.23044        38.110  
  22059637.14948 115924178.04248      2534.93848        47.135    22059634.32543
  90330503.19343      1975.27343        36.602  
 04 07 03 06 18 58.0000000  0 10G30G14G15G26G18G29G21G 9G 5G22                  
  24102101.56345 126657412.78545      3752.43445        39.349    24102104.53841
  98694105.40841      2923.97741        30.540  
  24628432.55744 129423275.45744      2567.92244        37.921    24628433.86643
 100849309.53743      2000.97743        36.088  
  22665090.28046 119105854.93346      -613.45346        42.136    22665090.32042
  92809750.79842      -478.02042        32.757  
  23157199.35747 121691905.46947     -2360.96947        44.515    23157199.57343
  94824869.46843     -1839.71943        35.170  
  20272211.41849 116461645.82049       648.33249        48.821    20272209.05746
  90747604.79646       505.19146        43.173  
  23831960.77645 125237788.01945     -2172.22345        40.269    23831961.81543
  97587866.44443     -1692.64543        35.963  
  23047959.43246 121117838.69346     -2823.13746        43.107    23047957.84741
  94377526.70241     -2199.85241        29.854  
  20029746.82649 115187488.87549     -1121.96149        50.215    20029744.46446
  89754765.18446      -874.25846        42.641  
  21768452.01948 114393993.62348      2758.96548        46.259    21768452.34145
  89138176.11745      2149.84045        39.778  
  22059154.82848 115921643.29948      2534.33248        47.191    22059151.97243
  90328528.06643      1974.80143        36.060  
 04 07 03 06 18 59.0000000  0 10G30G14G15G26G18G29G21G 9G 5G22                  
  24101387.46345 126653660.20745      3752.53145        39.420    24101390.38141
  98691181.31841      2924.04741        31.473  
  24627943.76244 129420706.91244      2569.00844        37.738    24627945.15141
 100847308.06741      2001.82041        31.540  
  22665207.01546 119106468.45346      -614.32046        41.837    22665207.07041
  92810228.85541      -478.69541        30.306  
  23157648.67547 121694266.42547     -2360.87147        44.233    23157648.83342
  94826709.16342     -1839.64842        34.107  
  20272088.09849 116460997.77449       647.62949        48.906    20272085.72947
  90747099.82347       504.64547        43.836  
  23832374.14845 125239960.25445     -2172.02045        40.581    23832375.17642
  97589559.08242     -1692.48442        33.761  
  23048496.62846 121120661.66046     -2823.28146        43.268    23048495.00941
  94379726.42341     -2199.96141        26.587  
  20029960.36149 115188610.96249     -1122.46549        50.259    20029957.98146
  89755639.53846      -874.65246        42.791  
  21767927.02148 114391234.77948      2758.55948        46.308    21767927.35845
  89136026.37645      2149.52345        39.077  
  22058672.56848 115919108.88648      2534.18048        46.908    22058669.68344
  90326553.20044      1974.68444        37.211  
 04 07 03 06 19  0.0000000  0 10G30G14G15G26G18G29G21G 9G 5G22                  
  24100673.42045 126649907.72645      3752.68845        39.275    24100676.16942
  98688257.30542      2924.16842        33.314  
  24627455.01044 129418138.47744      2568.79744        37.784    24627456.37241
 100845306.71441      2001.66041        25.094  
  22665323.89946 119107082.72746      -614.59446        41.807    22665323.97842
  92810707.51942      -478.90642        33.987  
  23158098.03947 121696627.61447     -2361.57447        44.302    23158098.09244
  94828549.04844     -1840.19144        36.920  
  20271964.92049 116460350.45749       646.97749        48.878    20271962.56246
  90746595.41846       504.13346        43.032  
  23832787.58045 125242132.79645     -2172.91445        40.378    23832788.61943
  97591251.96343     -1693.18843        34.562  
  23049033.89446 121123485.00046     -2823.69946        43.198    23049032.25141
  94381926.42941     -2200.28941        28.315  
  20030174.01549 115189733.68049     -1123.17249        50.244    20030171.63146
  89756514.38546      -875.20346        43.200  
  21767402.12548 114388476.48048      2757.89848        46.264    21767402.48044
  89133877.05344      2149.00844        38.625  
  22058190.39548 115916574.96648      2533.68448        46.967    22058187.48944
  90324578.71444      1974.29744        37.120  
 04 07 03 06 19  1.0000000  0 10G30G14G15G26G18G29G21G 9G 5G22                  
  24099959.34945 126646155.32945      3752.48445        39.131    24099962.12241
  98685333.36241      2924.01241        31.150  
  24626966.24844 129415570.09844      2567.79344        37.747    24626967.69342
 100843305.37442      2000.87942        34.417  
  22665440.92146 119107697.68746      -615.18046        41.827    22665441.08242
  92811186.70842      -479.36342        32.816  
  23158547.42747 121698988.94547     -2361.17247        44.507    23158547.44343
  94830389.05043     -1839.87943        34.494  
  20271841.86249 116459703.78849       646.30149        48.841    20271839.51347
  90746091.51847       503.60947        43.427  
  23833201.01245 125244305.43745     -2172.71545        40.542    23833202.04344
  97592944.91944     -1693.03144        38.149  
  23049571.20746 121126308.62146     -2823.94946        43.300    23049569.61941
  94384126.65141     -2200.48441        31.901  
  20030387.76949 115190856.93149     -1123.58649        50.204    20030385.38146
  89757389.64946      -875.52346        42.814  
  21766877.30048 114385718.60848      2757.60948        46.110    21766877.68344
  89131728.06544      2148.78544        38.236  
  22057708.30248 115914041.41148      2533.41048        46.939    22057705.36644
  90322604.51044      1974.02744        37.322  
 04 07 03 06 19  2.0000000  0 10G30G14G15G26G18G29G21G 9G 5G22                  
  24099245.23945 126642402.67845      3752.67645        39.460    24099247.95241
  98682409.22741      2924.16041        21.231  
  24626477.43744 129413001.46944      2568.31244        37.175    24626478.90641
 100841303.85741      2001.28141        29.342  
  22665558.03446 119108313.03746      -615.97746        42.103    22665558.13642
  92811666.17842      -479.98842        33.798  
  23158996.77147 121701350.13947     -2361.43847        44.528    23158996.71142
  94832228.93642     -1840.08642        33.794  
  20271718.86649 116459057.46049       645.98849        48.870    20271716.53047
  90745587.88547       503.36347        43.454  
  23833614.44545 125246477.95245     -2172.76645        40.395    23833615.45343
  97594637.79143     -1693.07043        34.748  
  23050108.52046 121129132.22746     -2823.88746        43.127    23050106.92641
  94386326.85541     -2200.43441        31.398  
  20030601.57249 115191980.43549     -1123.79349        50.191    20030599.17246
  89758265.10846      -875.68846        42.950  
  21766352.52848 114382960.90448      2757.41048        46.257    21766352.91544
  89129579.20844      2148.62944        38.663  
  22057226.23148 115911507.96248      2533.14848        47.088    22057223.28444
  90320630.39844      1973.87144        38.405  
 04 07 03 06 19  3.0000000  0 10G30G14G15G26G18G29G21G 9G 5G22                  
  24098531.15245 126638650.07745      3752.25445        39.267    24098533.79042
  98679485.13442      2923.83642        32.347  
  24625988.60644 129410432.88044      2568.05544        37.636    24625990.08442
 100839302.35642      2001.08242        34.059  
  22665675.26046 119108929.06746      -616.66046        41.919    22665675.42941
  92812146.20541      -480.52041        30.046  
  23159446.15647 121703711.49047     -2361.85947        44.431    23159446.02042
  94834068.94242     -1840.41842        34.257  
  20271596.00649 116458411.82049       645.21549        48.857    20271593.68446
  90745084.78846       502.76246        43.304  
  23834027.92945 125248650.66345     -2172.99245        40.344    23834028.98843
  97596330.81543     -1693.24243        34.863  
  23050645.88446 121131956.16346     -2824.42646        43.098    23050644.25941
  94388527.33341     -2200.85541        26.230  
  20030815.47649 115193104.50849     -1124.50449        50.145    20030813.07846
  89759141.00746      -876.23846        42.971  
  21765827.83948 114380203.66748      2756.71948        46.251    21765828.21645
  89127430.71345      2148.09045        39.046  
  22056744.23348 115908974.90748      2532.72748        47.016    22056741.26144
  90318656.59144      1973.55144        36.827  
 04 07 03 06 19  4.0000000  0 10G30G14G15G26G18G29G21G 9G 5G22                  
  24097817.01545 126634897.35145      3752.50445        38.899    24097819.69742
  98676560.93442      2924.03142        34.332  
  24625499.78944 129407864.11844      2568.87944        37.567    24625501.27042
 100837300.72742      2001.72342        32.993  
  22665792.59846 119109545.59746      -616.85246        42.085    22665792.74841
  92812626.62741      -480.66841        30.738  
  23159895.54447 121706072.83447     -2361.45347        44.425    23159895.35843
  94835908.94943     -1840.09843        34.771  
  20271473.22949 116457766.65249       644.84849        48.858    20271470.92846
  90744582.06146       502.47746        43.291  
  23834441.39545 125250823.34545     -2172.69945        40.358    23834442.47642
  97598023.81842     -1693.01642        33.641  
  23051183.27646 121134780.18846     -2824.26646        43.142    23051181.61541
  94390727.86541     -2200.73041        31.188  
  20031029.45449 115194228.94649     -1124.75049        50.103    20031027.04846
  89760017.19346      -876.43446        43.010  
  21765303.19848 114377446.69048      2756.84448        46.237    21765303.57544
  89125282.42544      2148.18844        38.394  
  22056262.27448 115906442.07148      2532.63348        47.007    22056259.26944
  90316682.95244      1973.51244        37.112  
 04 07 03 06 19  5.0000000  0 10G30G14G15G26G18G29G21G 9G 5G22                  
  24097102.90845 126631144.67545      3752.59845        39.061    24097105.51342
  98673636.78842      2924.10242        32.550  
  24625010.98844 129405295.45144      2568.66444        37.060    24625012.48744
 100835299.18544      2001.55944        36.714  
  22665910.05646 119110162.84946      -617.64846        42.280    22665910.18941
  92813107.60241      -481.28941        29.124  
  23160344.96547 121708434.36347     -2361.82447        44.236    23160344.67842
  94837749.10342     -1840.38742        33.909  
  20271350.58849 116457122.17549       643.95349        48.852    20271348.29947
  90744079.87047       501.77747        43.680  
  23834854.92245 125252996.27345     -2173.54345        40.308    23834855.95443
  97599717.00243     -1693.67243        35.348  
  23051720.73146 121137604.55746     -2824.78146        43.082    23051719.04641
  94392928.65741     -2201.13741        32.058  
  20031243.54749 115195353.96749     -1125.50449        50.114    20031241.12646
  89760893.83346      -877.02046        43.180  
  21764778.65048 114374690.21948      2756.06248        46.120    21764779.03545
  89123134.52445      2147.57845        39.818  
  22055780.39748 115903909.66148      2531.99248        46.961    22055777.38144
  90314709.64244      1972.97744        36.943  
 04 07 03 06 19  6.0000000  0 10G30G14G15G26G18G29G21G 9G 5G22                  
  24096388.83445 126627392.14145      3752.75045        38.960    24096391.46144
  98670712.72644      2924.21944        38.522  
  24624522.20444 129402726.94344      2567.48444        38.098    24624523.64941
 100833297.75341      2000.63741        26.215  
  22666027.67446 119110780.88546      -618.55946        42.420    22666027.78741
  92813589.17541      -482.00041        31.834  
  23160794.42847 121710796.11947     -2361.83647        44.709    23160794.08842
  94839589.42142     -1840.39842        33.977  
  20271228.08349 116456478.42649       643.30949        48.796    20271225.80547
  90743578.24947       501.27747        43.378  
  23835268.48345 125255169.38745     -2173.36345        40.616    23835269.45443
  97601410.32743     -1693.53543        35.731  
  23052258.25246 121140429.26246     -2824.90646        42.781    23052256.60341
  94395129.73141     -2201.23041        31.521  
  20031457.75849 115196479.60949     -1125.91049        50.094    20031455.33546
  89761770.95646      -877.33646        42.687  
  21764254.20648 114371934.28148      2755.39148        46.110    21764254.58645
  89120987.03445      2147.05545        38.902  
  22055298.62248 115901377.72148      2531.60948        47.001    22055295.55843
  90312736.70043      1972.68043        36.351  
 04 07 03 06 19  7.0000000  0 10G30G14G15G26G18G29G21G 9G 5G22                  
  24095674.77745 126623639.66645      3752.18445        39.091    24095677.43643
  98667788.72043      2923.77743        34.930  
  24624033.40444 129400158.39644      2568.61744        37.039    24624034.92441
 100831296.26341      2001.51641        23.902  
  22666145.41646 119111399.58546      -618.87546        42.300    22666145.54342
  92814071.28342      -482.24242        33.885  
  23161243.92847 121713158.06347     -2362.02047        44.328    23161243.53743
  94841429.88943     -1840.54343        34.720  
  20271105.70249 116455835.33449       642.82049        48.814    20271103.42647
  90743077.13947       500.89547        43.430  
  23835682.05845 125257342.69745     -2173.20745        40.413    23835683.03242
  97603103.81342     -1693.41442        33.096  
  23052795.82846 121143254.28446     -2825.13346        42.347    23052794.18341
  94397331.05141     -2201.40641        28.658  
  20031672.07049 115197605.81149     -1126.37549        50.106    20031669.64246
  89762648.51446      -877.69946        42.927  
  21763729.85348 114369178.78048      2755.23448        46.129    21763730.22844
  89118839.89044      2146.93444        38.573  
  22054816.91648 115898846.16548      2531.38348        47.036    22054813.81743
  90310764.05543      1972.50443        36.383  
 04 07 03 06 19  8.0000000  0 10G30G14G15G26G18G29G21G 9G 5G22                  
  24094960.68445 126619887.09145      3752.66045        38.908    24094963.34941
  98664864.64441      2924.15241        32.072  
  24623544.58944 129397589.82044      2568.65644        36.876    24623546.17142
 100829294.71742      2001.53542        34.182  
  22666263.26346 119112018.86646      -619.29746        42.619    22666263.36641
  92814553.82641      -482.57441        31.528  
  23161693.43747 121715520.04647     -2362.19147        44.623    23161692.97443
  94843270.39943     -1840.67243        34.582  
  20270983.43649 116455192.79749       642.25449        48.841    20270981.16246
  90742576.45746       500.45346        43.147  
  23836095.67045 125259516.06845     -2173.64145        40.658    23836096.64243
  97604797.34443     -1693.75443        36.231  
  23053333.44546 121146079.49346     -2825.23846        42.373    23053331.85541
  94399532.50941     -2201.48841        29.293  
  20031886.46549 115198732.45549     -1126.80949        50.087    20031884.04346
  89763526.41646      -878.03546        42.716  
  21763205.55848 114366423.64348      2755.03948        46.107    21763205.93345
  89116693.03345      2146.78145        39.217  
  22054335.26248 115896314.90348      2531.12148        47.110    22054332.11844
  90308791.64744      1972.30144        37.731  
 04 07 03 06 19  9.0000000  0 10G30G14G15G26G18G29G21G 9G 5G22                  
  24094246.57545 126616134.42345      3752.35245        39.258    24094249.21841
  98661940.48441      2923.90641        30.064  
  24623055.78744 129395021.08444      2568.40644        37.511    24623057.39441
 100827293.09341      2001.34041        29.275  
  22666381.20946 119112638.62646      -620.21546        42.381    22666381.27541
  92815036.75241      -483.28941        27.034  
  23162142.93847 121717881.99647     -2362.62147        44.343    23162142.42843
  94845110.88843     -1841.00843        35.547  
  20270861.25549 116454550.70349       641.64149        48.842    20270858.98847
  90742076.12447       499.97747        43.563  
  23836509.24545 125261689.39645     -2173.64145        40.347    23836510.14343
  97606490.85543     -1693.75043        35.939  
  23053871.08446 121148904.79746     -2825.80546        42.412    23053869.55742
  94401734.03342     -2201.93042        32.583  
  20032100.92049 115199859.42649     -1127.35549        50.044    20032098.49346
  89764404.57646      -878.46146        42.796  
  21762681.32248 114363668.74948      2754.42648        46.262    21762681.69144
  89114546.37344      2146.30144        37.839  
  22053853.64448 115893783.81748      2530.90248        47.147    22053850.48344
  90306819.37544      1972.12944        37.012  
 04 07 03 06 19 10.0000000  0 10G30G14G15G26G18G29G21G 9G 5G22                  
  24093532.51445 126612381.94745      3751.89845        39.647    24093535.14742
  98659016.50642      2923.56242        34.240  
  24622566.99844 129392452.56444      2568.15244        37.196    24622568.59941
 100825291.66841      2001.15241        31.117  
  22666499.30146 119113259.24346      -621.10546        42.199    22666499.29942
  92815520.37242      -483.98042        32.929  
  23162592.49547 121720244.23647     -2362.58247        44.676    23162591.92642
  94846951.59842     -1840.97742        33.862  
  20270739.22849 116453909.44649       640.86749        48.859    20270736.96746
  90741576.44546       499.37546        43.315  
  23836922.90245 125263863.02745     -2173.84845        40.578    23836923.81743
  97608184.59843     -1693.91043        35.223  
  23054408.78446 121151730.53146     -2825.96946        42.290    23054407.31141
  94403935.88641     -2202.06241        25.759  
  20032315.51849 115200987.12749     -1128.17249        50.023    20032313.08946
  89765283.30646      -879.09846        42.695  
  21762157.19748 114360914.47448      2753.90248        46.157    21762157.56944
  89112400.18844      2145.89544        38.524  
  22053372.13148 115891253.30448      2530.14148        47.067    22053368.95844
  90304847.54944      1971.51244        37.765  
 04 07 03 06 19 11.0000000  0 10G30G14G15G26G18G29G21G 9G 5G22                  
  24092818.45645 126608629.51445      3752.19545        39.712    24092821.11243
  98656092.54643      2923.79343        34.572  
  24622078.21444 129389884.10544      2568.38744        36.921    24622079.83941
 100823290.31341      2001.34041        32.206  
  22666617.53946 119113880.55246      -621.87146        42.012    22666617.43642
  92816004.51942      -484.57842        32.695  
  23163042.08347 121722606.64147     -2362.72347        44.625    23163041.47943
  94848792.43043     -1841.08643        36.053  
  20270617.32249 116453268.84149       640.19949        48.837    20270615.06946
  90741077.27346       498.85246        42.841  
  23837336.59345 125266036.87345     -2174.54345        40.389    23837337.45444
  97609878.51744     -1694.45344        37.586  
  23054946.55446 121154556.55546     -2826.15246        42.347    23054945.09841
  94406137.98841     -2202.19941        31.193  
  20032530.21749 115202115.37549     -1128.68849        50.028    20032527.78346
  89766162.46046      -879.50046        42.934  
  21761633.16448 114358160.66248      2753.44948        46.300    21761633.53845
  89110254.36545      2145.54345        38.920  
  22052890.68448 115888723.18448      2529.66448        47.060    22052887.50044
  90302876.03544      1971.16444        36.994  
 04 07 03 06 19 12.0000000  0 10G30G14G15G26G18G29G21G 9G 5G22                  
  24092104.41445 126604877.13845      3752.61745        39.847    24092107.09642
  98653168.61842      2924.11742        32.950  
  24621589.48144 129387315.67644      2568.02344        36.907    24621591.05743
 100821288.96043      2001.06243        34.802  
  22666735.89746 119114502.56646      -622.47746        41.864    22666735.81842
  92816489.20742      -485.05142        33.321  
  23163491.70147 121724969.22547     -2362.90647        44.407    23163491.07143
  94850633.40043     -1841.23043        36.249  
  20270495.56149 116452628.92449       639.50049        48.920    20270493.31446
  90740578.63646       498.30946        43.272  
  23837750.31745 125268210.88245     -2174.32445        40.094    23837751.17743
  97611572.54643     -1694.28143        35.759  
  23055484.39146 121157382.94146     -2826.61346        41.926    23055482.95141
  94408340.35241     -2202.56241        28.781  
  20032745.02749 115203244.20149     -1129.21949        50.012    20032742.58446
  89767042.06646      -879.91446        42.842  
  21761109.22848 114355407.33548      2753.12948        46.352    21761109.61644
  89108108.92044      2145.29344        37.709  
  22052409.33048 115886193.48648      2529.41448        47.153    22052406.12144
  90300904.84144      1970.96944        36.680  
 04 07 03 06 19 13.0000000  0 10G30G14G15G26G18G29G21G 9G 5G22                  
  24091390.35545 126601124.67545      3752.25445        39.921    24091393.02042
  98650244.61842      2923.83642        32.901  
  24621100.63743 129384747.04543      2568.60243        36.570    24621102.23342
 100819287.40342      2001.50442        33.064  
  22666854.35246 119115125.05446      -622.96946        41.833    22666854.27742
  92816974.25742      -485.43442        32.944  
  23163941.31947 121727331.78047     -2362.94547        44.735    23163940.64942
  94852474.34342     -1841.25842        34.032  
  20270373.87249 116451989.45049       639.13749        48.872    20270371.63447
