     2.11           OBSERVATION DATA    G (GPS)             RINEX VERSION / TYPE
AndroidGNSSReceiver RITSUMEIKAN KUBOLAB 1513580788936       PGM / RUN BY / DATE
flounder                                                    MARKER NAME
GRitzLogger         KUBOLAB                                 OBSERVER / AGENCY
0                   Android Receiver                        REC # / TYPE / VERS
0                   Android Anttena                         ANT # / TYPE
        0.0000        0.0000        0.0000                  APPROX POSITION XYZ
        0.0000        0.0000        0.0000                  ANTENNA: DELTA H/E/N
1     0                                                     WAVELENGTH FACT L1/2
2         C1    S1                                          # / TYPES OF OBSERV
1.000                                                       INTERVAL
  2017    12    18     7     6   10.0002772     GPS         TIME OF FIRST OBS
                                                            END OF HEADER
 17 12 18  7  6 10.0002772  0  7G10G12G14G18G24G25G32
  20982531.395          33.841  
  20605505.206          45.019  
  25028998.384          20.724  
  20611909.370          40.502  
  21287433.518          29.246  
  21949011.015          43.461  
  23308648.059          29.013  
 17 12 18  7  6 11.0002772  0  7G10G12G14G18G24G25G32
  20982306.850          33.941  
  20605322.633          43.955  
  25028507.627          21.143  
  20612058.670          41.704  
  21287854.426          28.735  
  21948407.835          42.462  
  23308157.298          29.409  
 17 12 18  7  6 12.0002772  0  7G10G12G14G18G24G25G32
  20982095.196          32.402  
  20605133.163          44.420  
  25028069.927          20.700  
  20612202.569          41.782  
  21288221.670          28.275  
  21947809.450          42.591  
  23307658.143          29.210  
 17 12 18  7  6 13.0002772  0  9G10G12G14G15G18G20G24G25G32
  20981891.037          32.478  
  20604951.790          44.259  
  25027528.504          20.301  
  23057968.500          31.685  
  20612353.666          40.726  
  24045218.343          35.041  
  21288637.483          29.198  
  21947210.764          40.849  
  23307138.004          29.546  
 17 12 18  7  6 14.0002772  0  9G10G12G14G15G18G20G24G25G32
  20981675.187          31.227  
  20604771.315          42.878  
  25026991.273          21.252  
  23058449.668          32.733  
  20612496.666          41.776  
  24045938.142          34.638  
  21289027.211          28.668  
  21946612.976          42.012  
  23306631.054          31.440  
 17 12 18  7  6 15.0002772  0  9G10G12G14G15G18G20G24G25G32
  20981479.426          30.155  
  20604579.446          44.639  
  25026524.497          22.603  
  23058918.844          32.127  
  20612643.265          38.614  
  24046642.355          36.230  
  21289420.539          27.400  
  21946007.994          39.004  
  23306133.099          32.864  
 17 12 18  7  6 16.0002772  0  9G10G12G14G15G18G20G24G25G32
  20981252.482          31.198  
  20604405.266          43.703  
  25026075.708          20.129  
  23059377.527          30.724  
  20612787.164          37.835  
  24047357.063          35.883  
  21289839.353          26.411  
  21945409.308          39.807  
  23305614.461          35.406  
 17 12 18  7  6 17.0002772  0  9G10G12G14G15G18G20G24G25G32
  20981030.336          31.241  
  20604211.900          43.552  
  25025482.121          18.324  
  23059810.724          27.263  
  20612941.258          38.407  
  24048069.669          36.489  
  21290204.800          26.731  
  21944807.328          38.254  
  23305123.399          35.297  
 17 12 18  7  6 18.0002772  0  9G10G12G14G15G18G20G24G25G32
  20980832.171          30.088  
  20604033.825          42.835  
  25024925.106          19.979  
  23060312.876          27.797  
  20613088.154          41.382  
  24048786.472          38.660  
  21290620.011          29.813  
  21944212.838          42.216  
  23304621.844          33.689  
 17 12 18  7  6 19.0002772  0  8G10G12G15G18G20G24G25G32
  20980607.927          32.116  
  20603839.857          44.174  
  23060761.966          26.603  
  20613232.655          41.528  
  24049493.681          39.883  
  21291034.322          29.570  
  21943615.652          43.689  
  23304125.691          31.975  
 17 12 18  7  6 20.0002772  0  8G10G12G15G18G20G24G25G32
  20980410.064          32.198  
  20603651.587          42.576  
  23061230.840          27.698  
  20613377.754          39.536  
  24050205.689          38.226  
  21291431.249          28.512  
  21943015.168          42.213  
  23303602.551          31.447  
 17 12 18  7  6 21.0002772  0  8G10G12G15G18G20G24G25G32
  20980176.226          33.277  
  20603471.413          43.143  
  23061713.806          30.227  
  20613527.952          40.870  
  24050914.399          39.495  
  21291813.784          28.714  
  21942413.485          43.657  
  23303130.976          28.659  
 17 12 18  7  6 22.0002772  0  8G10G12G15G18G20G24G25G32
  20979973.568          33.861  
  20603283.143          44.342  
  23062154.502          30.047  
  20613670.355          40.390  
  24051628.205          38.802  
  21292212.509          29.457  
  21941813.001          43.216  
  23302595.547          29.219  
 17 12 18  7  6 23.0002772  0  8G10G12G15G18G20G24G25G32
  20979768.807          31.960  
  20603104.466          43.985  
  23062588.302          30.303  
  20613823.249          39.470  
  24052343.808          40.752  
  21292621.127          29.420  
  21941217.312          42.664  
  23302111.683          27.777  
 17 12 18  7  6 24.0002772  0  8G10G12G15G18G20G24G25G32
  20979557.154          30.420  
  20602916.200          43.567  
  23063085.358          29.921  
  20613971.942          40.310  
  24053053.120          42.634  
  21293033.040          28.399  
  21940615.327          43.570  
  23301612.829          29.094  
 17 12 18  7  6 25.0002772  0  7G10G12G15G18G20G25G32
  20979327.814          29.674  
  20602733.025          44.897  
  23063561.129          35.826  
  20614116.147          41.129  
  24053766.026          41.532  
  21940018.739          43.941  
  23301089.990          27.844  
 17 12 18  7  6 26.0002772  0  7G10G12G15G18G20G25G32
  20979137.144          30.258  
  20602546.552          44.869  
  23064031.203          35.938  
  20614264.543          40.783  
  24054481.328          38.000  
  21939419.756          44.277  
  23300610.323          29.328  
 17 12 18  7  6 27.0002772  0  7G10G12G15G18G20G25G32
  20978920.696          29.652  
  20602365.179          43.465  
  23064488.386          38.184  
  20614411.138          39.332  
  24055196.936          34.007  
  21938821.672          44.365  
  23300076.691          32.611  
 17 12 18  7  6 28.0002772  0  7G10G12G15G18G20G25G32
  20978708.742          28.055  
  20602180.206          43.309  
  23064956.065          36.953  
  20614566.432          39.675  
  24055913.437          31.651  
  21938220.285          43.911  
  23299572.144          34.810  
 17 12 18  7  6 29.0002772  0  7G10G12G15G18G20G25G32
  20978500.386          27.987  
  20602003.331          44.979  
  23065432.133          40.887  
  20614711.832          40.599  
  24056635.636          29.213  
  21937623.701          43.659  
  23299076.885          34.016  
 17 12 18  7  6 30.0002772  0  7G10G12G15G18G20G25G32
  20978290.831          25.798  
  20601815.362          45.625  
  23065928.888          37.548  
  20614860.830          40.197  
  24057337.152          33.265  
  21937026.812          43.684  
  23298582.826          30.746  
 17 12 18  7  6 31.0002772  0  7G10G12G15G18G20G25G32
  20978076.782          27.713  
  20601635.184          45.588  
  23066386.974          36.924  
  20615008.328          41.111  
  24058048.860          33.901  
  21936424.531          43.643  
  23298062.090          30.366  
 17 12 18  7  6 32.0002772  0  8G10G12G15G18G20G24G25G32
  20977870.525          29.562  
  20601453.213          46.515  
  23066855.547          39.434  
  20615157.624          41.057  
  24058770.160          31.193  
  21296209.040          33.817  
  21935828.541          41.165  
  23297560.234          31.320  
 17 12 18  7  6 33.0002772  0  8G10G12G15G18G20G24G25G32
  20977650.473          28.679  
  20601269.737          46.173  
  23067316.927          40.704  
  20615308.721          41.380  
  24059474.974          32.590  
  21296604.166          34.403  
  21935234.055          41.850  
  23297078.469          31.389  
 17 12 18  7  6 34.0002772  0  8G10G12G15G18G20G24G25G32
  20977446.314          28.532  
  20601087.766          45.431  
  23067790.303          40.832  
  20615459.216          42.392  
  24060189.975          31.663  
  21297019.381          33.285  
  21934638.667          42.889  
  23296574.219          29.831  
 17 12 18  7  6 35.0002772  0  8G10G12G15G18G20G24G25G32
  20977245.755          27.121  
  20600908.788          46.039  
  23068265.172          43.949  
  20615607.612          42.151  
  24060901.687          34.969  
  21297409.109          33.773  
  21934035.182          42.823  
  23296067.569          28.181  
 17 12 18  7  6 36.0002772  0  8G10G12G15G18G20G24G25G32
  20977026.606          27.588  
  20600724.418          45.746  
  23068738.544          45.623  
  20615759.006          41.720  
  24061612.792          38.620  
  21297808.436          34.591  
  21933437.699          42.135  
  23295556.421          28.464  
 17 12 18  7  6 37.0002772  0  8G10G12G15G18G20G24G25G32
  20976819.149          29.846  
  20600547.538          46.105  
  23069213.115          46.455  
  20615908.005          40.824  
  24062323.600          37.930  
  21298200.564          35.009  
  21932844.409          40.992  
  23295045.876          30.599  
 17 12 18  7  6 38.0002772  0  8G10G12G15G18G20G24G25G32
  20976600.603          30.177  
  20600361.667          46.212  
  23069693.385          45.930  
  20616057.902          41.306  
  24063039.203          36.203  
  21298616.974          35.415  
  21932243.926          41.912  
  23294555.717          31.561  
 17 12 18  7  6 39.0002772  0  8G10G12G15G18G20G24G25G32
  20976395.842          29.924  
  20600183.592          45.908  
  23070150.266          46.033  
  20616211.394          41.637  
  24063750.910          32.982  
  21299018.098          34.554  
  21931650.034          42.026  
  23294054.464          29.920  
 17 12 18  7  6 40.0002772  0  8G10G12G15G18G20G24G25G32
  20976178.194          29.034  
  20599999.217          46.127  
  23070621.841          45.617  
  20616361.292          41.517  
  24064474.012          31.886  
  21299402.129          33.738  
  21931049.550          42.413  
  23293530.726          31.221  
 17 12 18  7  6 41.0002772  0  8G10G12G15G18G20G24G25G32
  20975974.336          29.761  
  20599820.243          45.537  
  23071091.317          46.138  
  20616505.788          41.274  
  24065182.722          30.373  
  21299815.246          35.157  
  21930454.462          43.811  
  23293021.978          28.610  
 17 12 18  7  6 42.0002772  0  8G10G12G15G18G20G24G25G32
  20975772.577          30.557  
  20599638.569          45.593  
  23071566.788          46.575  
  20616660.183          41.031  
  24065891.729          30.509  
  21300213.970          35.595  
  21929851.579          43.412  
  23292533.315          27.623  
 17 12 18  7  6 43.0002772  0  8G10G12G15G18G20G24G25G32
  20975561.822          29.253  
  20599455.093          45.846  
  23072037.163          46.858  
  20616808.881          41.518  
  24066604.937          29.604  
  21300613.593          37.558  
  21929257.090          42.737  
  23292028.166          28.955  
 17 12 18  7  6 44.0002772  0  8G10G12G15G18G20G24G25G32
  20975355.263          31.097  
  20599273.122          45.569  
  23072504.837          45.969  
  20616957.875          41.915  
  24067320.841          29.026  
  21301003.322          35.886  
  21928663.804          41.959  
  23291535.307          27.662  
 17 12 18  7  6 45.0002772  0  8G10G12G15G18G20G24G25G32
  20975159.498          28.123  
  20599099.541          46.157  
  23072975.810          46.072  
  20617112.868          35.912  
  24068018.156          29.309  
  21301414.340          33.698  
  21928063.918          43.919  
  23291079.319          24.338  
 17 12 18  7  6 46.0002772  0  8G10G12G15G18G20G24G25G32
  20974974.526          24.073  
  20598917.264          46.383  
  23073446.486          46.847  
  20617271.159          31.215  
  24068746.353          33.325  
  21301810.962          34.465  
  21927464.333          38.331  
  23290637.127          20.623  
 17 12 18  7  6 47.0002772  0  8G10G12G15G18G20G24G25G32
  20974780.562          20.886  
  20598738.291          46.041  
  23073920.757          46.674  
  20617456.432          26.192  
  24069452.965          35.885  
  21302211.488          34.629  
  21926889.928          33.839  
  23290081.311          20.252  
 17 12 18  7  6 48.0002772  0  8G10G12G15G18G20G24G25G32
  20974584.496          18.824  
  20598550.622          46.013  
  23074390.831          47.026  
  20617623.117          22.005  
  24070162.273          37.030  
  21302603.616          34.326  
  21926293.641          28.441  
  23289589.354          19.169  
 17 12 18  7  6 49.0002772  0  8G10G12G15G18G20G24G25G32
  20974366.547          18.448  
  20598374.043          46.602  
  23074860.905          46.741  
  20617779.309          19.740  
  24070880.275          32.493  
  21303012.832          36.081  
  21925702.153          23.763  
  23289111.485          19.786  
 17 12 18  7  6 50.0002772  0  8G10G12G15G18G20G24G25G32
  20974158.794          18.127  
  20598206.159          42.371  
  23075336.977          46.792  
  20617920.809          18.657  
  24071731.985          27.307  
  21303406.160          35.966  
  21925105.866          19.708  
  23288611.130          18.164  
 17 12 18  7  6 51.0002772  0  8G10G12G15G18G20G24G25G32
  20973951.337          16.692  
  20598018.787          37.040  
  23075812.146          47.235  
  20618065.912          17.877  
  24072319.879          22.551  
  21303825.271          32.237  
  21924510.478          15.555  
  23288102.683          17.742  
 17 12 18  7  6 52.0002772  0  8G10G12G15G18G20G24G25G32
  20973748.378          15.532  
  20597838.012          31.710  
  23076275.629          43.363  
  20618201.417          18.614  
  24073145.510          18.313  
  21304246.179          28.673  
  21923981.941          15.859  
  23287605.025          18.428  
 17 12 18  7  6 53.0002772  0  8G10G12G15G18G20G24G25G32
  20973545.715          13.204  
  20597699.510          26.882  
  23076752.299          38.222  
  20618337.223          17.736  
  24073746.290          14.757  
  21304626.013          27.017  
  21923319.701          14.400  
  23287086.387          17.023  
 17 12 18  7  6 54.0002772  0  8G10G12G15G18G20G24G25G32
  20973370.938          15.026  
  20597531.028          22.812  
  23077216.078          32.915  
  20618506.006          13.900  
  24074460.100          13.098  
  21305025.340          28.998  
  21922721.617          13.441  
  23286544.959          17.163  
 17 12 18  7  6 55.0002772  0  8G10G12G15G18G20G24G25G32
  20973177.271          15.535  
  20597348.751          19.336  
  23077736.517          28.229  
  20618643.012          14.208  
  24075174.202          12.327  
  21305417.468          25.176  
  21922146.313          14.527  
  23286087.475          17.309  
 17 12 18  7  6 56.0002772  0  8G10G12G15G18G20G24G25G32
  20972975.813          15.257  
  20597183.864          20.148  
  23078181.707          24.093  
  20618787.212          15.649  
  24075891.306          15.740  
  21305849.466          22.663  
  21921502.658          14.988  
  23285575.133          14.987  
 17 12 18  7  6 57.0002772  0  8G10G12G15G18G20G24G25G32
  20972783.642          15.042  
  20597009.388          18.420  
  23078664.973          22.255  
  20618948.199          15.168  
  24076640.487          15.520  
  21306255.388          20.299  
  21920901.275          13.564  
  23285057.690          14.221  
 17 12 18  7  6 58.0002772  0  8G10G12G15G18G20G24G25G32
  20972452.075          15.131  
  20596834.908          17.723  
  23079188.109          20.072  
  20619167.348          15.889  
  24077357.591          14.918  
  21306654.113          18.417  
  21920324.777          13.390  
  23284583.419          14.499  
 17 12 18  7  6 59.0002772  0  8G10G12G15G18G20G24G25G32
  20972261.405          14.731  
  20596652.636          18.443  
  23079658.484          19.382  
  20619349.022          15.058  
  24078063.605          17.772  
  21307037.546          17.829  
  21919749.775          13.643  
  23284025.204          14.599  
 17 12 18  7  7  0.0002772  0  8G10G12G15G18G20G24G25G32
  20972045.856          15.185  
  20596459.270          21.629  
  23080110.571          19.405  
  20619466.540          16.437  
  24078753.124          17.827  
  21307478.840          16.128  
  21919195.455          13.399  
  23283552.731          14.858  
 17 12 18  7  7  1.0002772  0  8G10G12G15G18G20G24G25G32
  20971862.083          14.569  
  20596286.888          20.105  
  23080554.265          21.330  
  20619602.648          14.379  
  24079488.219          14.645  
  21307887.455          16.943  
  21918521.223          13.726  
  23283088.354          14.779  
 17 12 18  7  7  2.0002772  0  8G10G12G15G18G20G24G25G32
  20971726.875          14.128  
  20596113.909          19.590  
  23081051.321          19.842  
  20619730.357          14.641  
  24080152.858          14.449  
  21308321.856          17.912  
  21917915.643          13.519  
  23282595.495          14.510  
 17 12 18  7  7  3.0002772  0  8G10G12G15G18G20G24G25G32
  20971455.262          13.674  
  20595892.958          19.364  
  23081485.718          20.375  
  20619885.651          14.429  
  24080863.366          14.509  
  21308740.967          16.303  
  21917284.578          13.504  
  23282114.030          14.421  
 17 12 18  7  7  4.0002772  0  8G10G12G15G18G20G24G25G32
  20971222.925          14.909  
  20595701.093          18.978  
  23081974.682          19.117  
  20620063.128          15.407  
  24081564.878          14.218  
  21309159.174          19.876  
  21916688.592          13.313  
  23281589.690          14.118  
 17 12 18  7  7  5.0002772  0  8G10G12G15G18G20G24G25G32
  20970967.502          15.096  
  20595532.611          19.587  
  23082474.138          18.380  
  20620179.748          18.228  
  24082312.563          13.854  
  21309558.802          18.549  
  21916173.248          13.850  
  23281056.660          14.038  
 17 12 18  7  7  6.0002772  0  8G10G12G15G18G20G24G25G32
  20970792.123          17.616  
  20595343.442          20.361  
  23082949.905          19.658  
  20620308.958          18.202  
  24083029.365          13.595  
  21309966.517          16.631  
  21915570.365          14.242  
  23280480.158          14.159  
 17 12 18  7  7  7.0002772  0  8G10G12G15G18G20G24G25G32
  20970615.544          18.394  
  20595179.755          18.864  
  23083424.180          19.603  
  20620487.033          21.220  
  24083738.377          13.828  
  21310394.322          16.134  
  21914989.669          14.936  
  23279954.622          14.573  
 17 12 18  7  7  8.0002772  0  8G10G12G15G18G20G24G25G32
  20970355.327          17.116  
  20594998.081          16.678  
  23083902.347          17.790  
  20620639.627          21.247  
  24084450.982          14.039  
  21310789.448          15.002  
  21914409.868          15.824  
  23279476.456          15.173  
 17 12 18  7  7  9.0002772  0  8G10G12G15G18G20G24G25G32
  20970174.852          14.652  
  20594819.705          15.522  
  23084381.115          19.012  
  20620760.745          25.087  
  24085170.782          14.622  
  21311117.119          19.526  
  21913805.188          17.811  
  23278987.191          15.785  
 17 12 18  7  7 10.0002772  0  8G10G12G15G18G20G24G25G32
  20969959.900          15.858  
  20594669.209          16.409  
  23084830.506          20.200  
  20620929.828          25.692  
  24085886.686          15.563  
  21311573.704          16.946  
  21913193.610          17.029  
  23278469.753          17.643  
 17 12 18  7  7 11.0002772  0  8G10G12G15G18G20G24G25G32
  20969783.322          16.217  
  20594513.314          19.004  
  23085281.690          18.017  
  20621068.331          25.591  
  24086621.179          16.378  
  21311994.612          17.278  
  21912579.637          19.801  
  23277928.626          17.973  
 17 12 18  7  7 12.0002772  0  8G10G12G15G18G20G24G25G32
  20969556.081          24.537  
  20594260.591          21.519  
  23085749.068          19.451  
  20621227.224          30.873  
  24087346.078          15.358  
  21312391.539          18.132  
  21911974.957          21.705  
  23277440.862          19.653  
 17 12 18  7  7 13.0002772  0  7G10G12G18G20G24G25G32
  20969359.713          25.435  
  20594093.906          18.394  
  20621369.622          33.658  
  24088036.500          19.312  
  21312745.595          23.398  
  21911365.778          29.158  
  23276971.390          21.128  
 17 12 18  7  7 14.0002772  0  7G10G12G18G20G24G25G32
  20969129.174          26.567  
  20593936.815          20.414  
  20621515.920          33.536  
  24088727.219          21.574  
  21313148.215          24.536  
  21910782.980          38.674  
  23276420.369          25.181  
 17 12 18  7  7 15.0002772  0  7G10G12G18G20G24G25G32
  20968928.313          28.074  
  20593759.338          19.682  
  20621670.616          39.017  
  24089405.051          27.133  
  21313532.849          23.214  
  21910188.194          41.455  
  23275907.424          31.789  
 17 12 18  7  7 16.0002772  0  7G10G12G18G20G24G25G32
  20968701.072          33.777  
  20593597.448          23.068  
  20621828.606          42.605  
  24090148.539          26.521  
  21313982.236          22.189  
  21909588.007          43.786  
  23275413.068          33.053  
 17 12 18  7  7 17.0002772  0  7G10G12G18G20G24G25G32
  20968503.806          33.403  
  20593372.606          26.532  
  20621976.401          42.732  
  24090897.420          27.547  
  21314334.795          20.650  
  21908995.018          43.873  
  23274905.816          31.334  
 17 12 18  7  7 18.0002772  0  7G10G12G18G20G24G25G32
  20968299.346          36.009  
  20593199.024          36.175  
  20622133.492          42.377  
  24091618.419          27.967  
  21314692.145          20.398  
  21908402.627          43.128  
  23274392.274          32.940  
 17 12 18  7  7 19.0002772  0  7G10G12G18G20G24G25G32
  20968099.986          35.962  
  20593025.744          45.160  
  20622286.090          42.412  
  24092270.168          24.398  
  21315087.873          18.138  
  21907806.641          43.139  
  23273875.730          31.675  
 17 12 18  7  7 20.0002772  0  7G10G12G18G20G24G25G32
  20967893.428          34.060  
  20592848.868          44.993  
  20622438.382          42.540  
  24093001.663          23.529  
  21315512.676          21.828  
  21907207.056          43.636  
  23273392.464          31.074  
 17 12 18  7  7 21.0002772  0  7G10G12G18G20G24G25G32
  20967689.570          35.606  
  20592673.188          45.848  
  20622596.974          41.411  
  24093724.163          22.527  
  21315932.686          22.064  
  21906617.365          41.852  
  23272883.419          31.524  
 17 12 18  7  7 22.0002772  0  7G10G12G18G20G24G25G32
  20967478.815          32.964  
  20592494.511          45.211  
  20622748.669          41.767  
  24094416.684          22.637  
  21316235.778          20.496  
  21906019.280          42.714  
  23272397.457          31.264  
 17 12 18  7  7 23.0002772  0  7G10G12G18G20G24G25G32
  20967282.151          32.341  
  20592321.531          45.871  
  20622906.061          42.359  
  24095123.893          22.011  
  21316660.281          22.245  
  21905428.089          42.825  
  23271911.193          28.466  
 17 12 18  7  7 24.0002772  0  7G10G12G18G20G24G25G32
  20967077.696          34.389  
  20592141.358          45.693  
  20623057.756          42.647  
  24095865.279          24.655  
  21317047.314          27.077  
  21904833.900          44.208  
  23271390.754          26.142  
 17 12 18  7  7 25.0002772  0  8G10G12G15G18G20G24G25G32
  20966879.832          34.712  
  20591968.077          45.126  
  23091880.124          41.884  
  20623212.448          42.126  
  24096594.676          22.520  
  21317444.542          31.695  
  21904236.112          44.069  
  23270877.508          22.712  
 17 12 18  7  7 26.0002772  0  8G10G12G15G18G20G24G25G32
  20966659.183          33.937  
  20591792.397          44.189  
  23092350.198          44.309  
  20623369.238          38.780  
  24097311.178          21.983  
  21317842.664          32.568  
  21903644.921          39.653  
  23270428.418          21.131  
 17 12 18  7  7 27.0002772  0  8G10G12G15G18G20G24G25G32
  20966461.921          34.735  
  20591617.620          44.745  
  23092826.567          42.063  
  20623518.834          38.156  
  24098004.898          22.260  
  21318248.583          32.947  
  21903049.236          36.929  
  23269926.567          18.914  
 17 12 18  7  7 28.0002772  0  8G10G12G15G18G20G24G25G32
  20966249.967          33.878  
  20591437.447          44.385  
  23093296.645          42.067  
  20623675.926          39.477  
  24098739.692          20.252  
  21318644.310          34.317  
  21902450.549          37.112  
  23269401.027          19.292  
 17 12 18  7  7 29.0002772  0  8G10G12G15G18G20G24G25G32
  20966055.100          35.750  
  20591264.463          43.566  
  23093771.217          41.622  
  20623827.921          38.591  
  24099452.895          19.510  
  21319049.028          32.323  
  21901865.356          36.547  
  23268876.692          18.160  
 17 12 18  7  7 30.0002772  0  8G10G12G15G18G20G24G25G32
  20965843.150          35.655  
  20591086.985          44.910  
  23094248.485          43.918  
  20623987.412          39.842  
  24100131.028          21.962  
  21319456.748          34.613  
  21901260.074          38.995  
  23268348.757          18.173  
 17 12 18  7  7 31.0002772  0  7G10G12G15G18G20G25G32
  20965638.690          35.696  
  20590911.008          45.016  
  23094712.861          43.468  
  20624143.901          40.411  
  24100823.845          24.505  
  21900673.079          39.138  
  23267871.786          22.374  
 17 12 18  7  7 32.0002772  0  7G10G12G15G18G20G25G32
  20965436.629          37.469  
  20590741.327          44.828  
  23095193.431          42.240  
  20624293.497          40.766  
  24101563.735          24.863  
  21900074.096          39.870  
  23267376.828          24.780  
 17 12 18  7  7 33.0002772  0  7G10G12G15G18G20G25G32
  20965238.766          36.972  
  20590565.049          44.924  
  23095661.708          44.512  
  20624453.590          39.674  
  24102309.020          23.396  
  21899486.202          39.039  
  23266864.185          22.274  
 17 12 18  7  7 34.0002772  0  7G10G12G15G18G20G25G32
  20965029.813          36.062  
  20590388.169          44.769  
  23096135.979          44.763  
  20624606.781          39.977  
  24103011.732          28.475  
  21898891.713          39.473  
  23266348.840          21.679  
 17 12 18  7  7 35.0002772  0  7G10G12G15G18G20G25G32
  20964818.460          34.336  
  20590215.491          42.563  
  23096611.148          42.914  
  20624765.373          38.995  
  24103712.646          30.265  
  21898296.926          39.639  
  23265875.468          21.883  
 17 12 18  7  7 36.0002772  0  7G10G12G15G18G20G25G32
  20964623.593          34.811  
  20590042.210          43.567  
  23097082.422          44.173  
  20624920.366          39.134  
  24104427.651          29.310  
  21897704.836          39.561  
  23265366.123          23.363  
 17 12 18  7  7 37.0002772  0  8G10G12G15G18G20G24G25G32
  20964421.533          34.790  
  20589869.531          42.903  
  23097556.396          44.036  
  20625075.058          38.732  
  24105130.066          28.243  
  21322265.802          35.041  
  21897107.349          37.972  
  23264863.971          20.545  
 17 12 18  7  7 38.0002772  0  8G10G12G15G18G20G24G25G32
  20964218.574          36.644  
  20589694.750          44.176  
  23098032.464          43.518  
  20625227.651          39.604  
  24105864.559          29.367  
  21322670.524          35.461  
  21896518.256          39.582  
  23264357.919          18.333  
 17 12 18  7  7 39.0002772  0  8G10G12G15G18G20G24G25G32
  20964017.111          34.891  
  20589520.270          45.283  
  23098502.241          43.848  
  20625389.541          39.867  
  24106580.463          27.912  
  21323069.846          35.878  
  21895919.871          39.208  
  23263846.174          20.091  
 17 12 18  7  7 40.0002772  0  8G10G12G15G18G20G24G25G32
  20963825.246          30.849  
  20589346.993          42.864  
  23098975.011          43.309  
  20625544.534          38.995  
  24107288.872          27.922  
  21323474.264          34.806  
  21895329.578          40.275  
  23263345.523          17.299  
