     2.11           OBSERVATION DATA    G (GPS)             RINEX VERSION / TYPE
AndroidGNSSReceiver RITSUMEIKAN KUBOLAB 1510553761777       PGM / RUN BY / DATE
flounder                                                    MARKER NAME
GNSSLogger+R        KUBOLAB                                 OBSERVER / AGENCY
0                   Android Receiver                        REC # / TYPE / VERS
0                   Android Anttena                         ANT # / TYPE
        0.0000        0.0000        0.0000                  APPROX POSITION XYZ
        0.0000        0.0000        0.0000                  ANTENNA: DELTA H/E/N
1     0                                                     WAVELENGTH FACT L1/2
3         L1    C1    S1                                    # / TYPES OF OBSERV
1.000                                                       INTERVAL
  2017    11    13     6    16    6.9998330     GPS         TIME OF FIRST OBS
                                                            END OF HEADER
 17 11 13  6 16  6.9998331  0  7G 5G13G15G18G20G21G24
    710009.194    21682024.246          32.503  
    535473.551    20872345.075          39.969  
   -170907.295    20538700.952          45.289  
  -1078194.894    24539739.492          35.849  
   -383717.002    20132252.831          43.311  
   -698888.492    23068043.327          42.189  
   -798215.284    22089439.199          24.304  
 17 11 13  6 16  7.9998331  0  7G 5G13G15G18G20G21G24
    711938.854    21682384.597          37.233  
    536929.721    20872621.783          40.626  
   -171296.195    20538623.307          46.176  
  -1081042.118    24539207.059          37.224  
   -384649.275    20132076.850          42.929  
   -700642.331    23067708.156          42.138  
   -801445.218    22088801.839          27.524  
 17 11 13  6 16  8.9998331  0  7G 5G13G15G18G20G21G24
    713868.178    21682747.644          34.028  
    538385.955    20872897.894          40.879  
   -171684.864    20538548.659          45.442  
  -1083889.477    24538656.640          36.888  
   -385581.288    20131899.076          43.403  
   -702395.943    23067375.088          42.801  
   -804675.436    22088182.470          30.287  
 17 11 13  6 16  9.9998331  0  7G 5G13G15G18G20G21G24
    715798.367    21683142.172          30.541  
    539842.705    20873177.900          40.670  
   -172072.957    20538473.108          45.132  
  -1086736.593    24538114.615          35.876  
   -386512.574    20131722.196          43.652  
   -704148.706    23067043.216          43.149  
   -807904.742    22087577.789          27.752  
 17 11 13  6 16 10.9998331  0  7G 5G13G15G18G20G21G24
    717730.202    21683484.537          31.778  
    541301.110    20873457.007          39.256  
   -172459.354    20538399.063          44.623  
  -1089582.519    24537572.890          35.672  
   -387442.160    20131546.220          42.796  
   -705899.792    23066710.449          42.240  
   -811132.3301   22086973.405          23.295  
 17 11 13  6 16 11.9998331  0  7G 5G13G15G18G20G21G24
    719662.725    21683849.085          36.090  
    542759.750    20873726.517          40.265  
   -172845.374    20538331.308          44.861  
  -1092428.331    24537028.766          36.349  
   -388371.203    20131370.841          43.418  
   -707650.262    23066375.880          42.651  
   -814359.553    22086342.942          25.013  
 17 11 13  6 16 12.9998331  0  7G 5G13G15G18G20G21G24
    721595.561    21684231.916          32.497  
    544218.741    20874008.024          40.585  
   -173231.197    20538260.857          44.732  
  -1095274.277    24536494.536          36.744  
   -389299.967    20131192.766          42.394  
   -709400.414    23066042.511          42.044  
   -817586.458    22085728.969          28.801  
 17 11 13  6 16 13.9998331  0  7G 5G13G15G18G20G21G24
    723528.438    21684596.168          31.740  
    545677.796    20874280.535          39.953  
   -173616.724    20538183.212          44.783  
  -1098120.408    24535950.413          37.784  
   -390228.295    20131018.285          43.071  
   -711150.124    23065703.144          42.307  
   -820813.077    22085109.595          32.928  
 17 11 13  6 16 14.9998331  0  7G 5G13G15G18G20G21G24
    725461.671    21684968.808          34.997  
    547137.262    20874551.249          39.464  
   -174001.757    20538112.761          45.076  
  -1100966.316    24535412.885          37.336  
   -391156.070    20130844.106          42.861  
   -712899.256    23065370.974          42.222  
   -824039.230    22084498.319          36.188  
 17 11 13  6 16 15.9998331  0  7G 5G13G15G18G20G21G24
    727395.599    21685346.545          33.793  
    548597.297    20874836.351          40.263  
   -174386.225    20538039.309          45.112  
  -1103812.077    24534873.560          37.812  
   -392083.168    20130667.828          43.407  
   -714647.668    23065039.106          42.284  
   -827264.837    22083888.242          37.736  
 17 11 13  6 16 16.9998331  0  7G 5G13G15G18G20G21G24
    729330.006    21685717.990          32.688  
    550057.715    20875115.158          40.039  
   -174770.116    20537964.963          45.132  
  -1106657.697    24534332.136          37.649  
   -393009.663    20130493.047          43.509  
   -716395.462    23064700.938          42.425  
   -830489.861    22083274.269          38.330  
 17 11 13  6 16 17.9998331  0  7G 5G13G15G18G20G21G24
    731264.779    21686073.241          32.535  
    551518.509    20875394.863          40.170  
   -175153.671    20537886.716          44.927  
  -1109503.298    24533793.409          37.645  
   -393935.665    20130315.870          43.259  
   -718142.712    23064363.373          42.189  
   -833714.406    22082659.092          38.196  
 17 11 13  6 16 18.9998331  0  7G 5G13G15G18G20G21G24
    733199.965    21686451.580          32.530  
    552979.565    20875676.370          39.618  
   -175536.892    20537814.764          44.905  
  -1112348.906    24533249.285          37.849  
   -394861.153    20130138.393          43.186  
   -719889.351    23064027.303          41.951  
   -836938.584    22082050.812          38.512  
 17 11 13  6 16 19.9998331  0  7G 5G13G15G18G20G21G24
    735135.654    21686819.727          32.673  
    554441.021    20875954.875          39.913  
   -175919.604    20537744.614          44.782  
  -1115194.406    24532712.058          37.958  
   -395786.156    20129963.315          42.997  
   -721635.559    23063696.334          41.844  
   -840162.264    22081430.544          38.538  
 17 11 13  6 16 20.9998331  0  7G 5G13G15G18G20G21G24
    737071.814    21687177.081          32.569  
    555902.914    20876236.980          39.921  
   -176301.773    20537667.868          44.767  
  -1118039.748    24532169.430          38.469  
   -396710.480    20129777.745          42.911  
   -723381.037    23063359.667          42.119  
   -843385.393    22080813.871          38.577  
 17 11 13  6 16 21.9998331  0  7G 5G13G15G18G20G21G24
    739008.596    21687560.515          33.334  
    557365.289    20876515.786          39.673  
   -176683.462    20537597.116          44.504  
  -1120884.972    24531626.506          38.563  
   -397634.220    20129604.464          42.723  
   -725125.784    23063025.098          42.432  
   -846607.989    22080201.992          38.533  
 17 11 13  6 16 22.9998331  0  7G 5G13G15G18G20G21G24
    740945.659    21687919.365          32.402  
    558827.865    20876795.496          39.563  
   -177064.811    20537526.364          44.106  
  -1123730.189    24531087.778          38.427  
   -398557.502    20129432.684          42.804  
   -726870.138    23062697.126          42.104  
   -849830.169    22079589.219          38.442  
 17 11 13  6 16 23.9998331  0  7G 5G13G15G18G20G21G24
    742883.023    21688284.812          35.817  
    560290.808    20877073.103          40.796  
   -177445.824    20537453.815          44.799  
  -1126575.445    24530543.057          38.719  
   -399480.374    20129252.506          42.602  
   -728613.996    23062361.061          41.259  
   -853052.041    22078977.641          38.893  
 17 11 13  6 16 24.9998331  0  7G 5G13G15G18G20G21G24
    744820.904    21688658.055          35.651  
    561753.951    20877350.709          40.972  
   -177826.450    20537381.868          45.230  
  -1129420.764    24529992.638          39.032  
   -400402.820    20129079.828          42.497  
   -730357.356    23062028.289          41.830  
   -856273.514    22078364.266          38.871  
 17 11 13  6 16 25.9998331  0  7G 5G13G15G18G20G21G24
    746758.850    21689018.406          33.563  
    563217.244    20877626.519          41.615  
   -178206.914    20537310.217          45.527  
  -1132266.212    24529462.906          39.539  
   -401324.940    20128903.851          42.776  
   -732100.418    23061699.117          42.447  
   -859494.793    22077752.091          39.045  
 17 11 13  6 16 26.9998331  0  7G 5G13G15G18G20G21G24
    748697.116    21689394.642          34.757  
    564680.695    20877902.027          41.573  
   -178587.101    20537239.762          45.581  
  -1135111.823    24528914.585          38.982  
   -402246.738    20128728.472          42.627  
   -733843.045    23061366.049          42.583  
   -862715.828    22077140.814          39.062  
 17 11 13  6 16 27.9998331  0  7G 5G13G15G18G20G21G24
    750635.610    21689780.178          34.825  
    566144.385    20878180.236          41.614  
   -178967.082    20537167.514          45.764  
  -1137957.502    24528376.756          39.429  
   -403168.159    20128554.293          42.520  
   -735585.384    23061034.478          42.442  
   -865936.526    22076528.337          39.319  
 17 11 13  6 16 28.9998331  0  7G 5G13G15G18G20G21G24
    752574.402    21690140.826          34.926  
    567608.236    20878457.542          41.716  
   -179346.757    20537094.367          45.693  
  -1140803.290    24527837.431          39.807  
   -404089.191    20128375.315          42.444  
   -737327.182    23060707.103          42.534  
   -869156.926    22075914.962          39.159  
 17 11 13  6 16 29.9998331  0  7G 5G13G15G18G20G21G24
    754513.303    21690508.973          34.844  
    569072.153    20878734.852          41.548  
   -179726.322    20537021.215          45.709  
  -1143649.369    24527302.900          39.918  
   -405010.029    20128204.132          42.442  
   -739068.813    23060381.831          42.802  
   -872377.170    22075302.787          39.352  
 17 11 13  6 16 30.9998331  0  7G 5G13G15G18G20G21G24
    756452.529    21690868.422          34.953  
    570536.268    20879008.864          41.640  
   -180105.631    20536950.163          45.355  
  -1146495.538    24526762.677          39.795  
   -405930.511    20128029.953          42.395  
   -740810.048    23060049.657          42.845  
   -875597.153    22074687.911          39.532  
 17 11 13  6 16 31.9998331  0  8G 5G13G15G18G20G21G24G30
    758391.930    21691235.967          33.969  
    572000.406    20879286.471          41.081  
   -180484.766    20536875.218          45.379  
  -1149341.959    24526223.949          39.305  
   -406850.752    20127855.176          42.794  
   -742550.961    23059721.087          42.416  
   -878816.937    22074077.232          38.903  
    111866.4871   24886587.375          22.459  
 17 11 13  6 16 32.9998331  0  8G 5G13G15G18G20G21G24G30
    760331.505    21691598.417          34.610  
    573464.740    20879558.982          41.000  
   -180863.733    20536808.663          45.721  
  -1152188.477    24525683.420          39.117  
   -407770.681    20127674.400          42.842  
   -744291.519    23059391.915          42.270  
   -882036.473    22073468.354          39.072  
    115159.2441   24887256.211          22.087  
 17 11 13  6 16 33.9998331  0  8G 5G13G15G18G20G21G24G30
    762271.294    21691955.173          34.675  
    574929.227    20879843.185          41.173  
   -181242.416    20536733.714          45.446  
  -1155035.197    24525147.393          39.272  
   -408690.270    20127501.722          42.539  
   -746031.730    23059060.945          42.044  
   -885255.736    22072854.382          38.861  
    118451.9161   24887912.754          21.920  
 17 11 13  6 16 34.9998331  0  8G 5G13G15G18G20G21G24G30
    764211.303    21692310.726          33.947  
    576393.823    20880122.890          41.781  
   -181620.955    20536661.466          45.654  
  -1157882.055    24524607.466          39.397  
   -409609.570    20127327.241          42.752  
   -747771.637    23058729.374          42.499  
   -888474.819    22072243.703          38.985  
    121744.8721   24888437.691          22.144  
 17 11 13  6 16 35.9998331  0  8G 5G13G15G18G20G21G24G30
    766151.497    21692678.572          32.964  
    577858.560    20880404.698          41.938  
   -181999.270    20536591.914          45.780  
  -1160729.099    24524069.039          39.378  
   -410528.598    20127153.363          42.904  
   -749511.167    23058404.097          42.361  
   -891693.644    22071638.123          38.565  
    125037.7521   24889087.943          22.678  
 17 11 13  6 16 36.9998331  0  8G 5G13G15G18G20G21G24G30
    768092.047    21693047.016          31.244  
    579323.456    20880685.900          41.324  
   -182377.334    20536517.563          45.536  
  -1163576.240    24523529.413          39.411  
   -411447.204    20126980.981          43.368  
   -751250.271    23058070.131          42.252  
   -894912.177    22071021.149          38.764  
    128330.5631   24889745.986          22.541  
 17 11 13  6 16 37.9998331  0  8G 5G13G15G18G20G21G24G30
    770032.835    21693401.670          29.813  
    580788.509    20880971.006          41.570  
   -182755.151    20536442.915          45.021  
  -1166423.532    24522983.492          39.379  
   -412365.552    20126806.802          43.363  
   -752989.045    23057740.657          42.167  
   -898130.468    22070412.573          38.724  
    131623.8591   24890363.558          22.172  
 17 11 13  6 16 38.9998331  0  8G 5G13G15G18G20G21G24G30
    771973.769    21693774.913          30.782  
    582253.791    20881248.913          41.361  
   -183132.714    20536369.166          45.083  
  -1169270.955    24522439.965          40.530  
   -413283.503    20126635.619          43.477  
   -754727.431    23057410.285          42.734  
   -901348.479    22069803.691          39.222  
    134917.1191   24890984.132          22.853  
 17 11 13  6 16 39.9998331  0  8G 5G13G15G18G20G21G24G30
    773914.997    21694147.553          30.905  
    583719.224    20881531.018          41.795  
   -183510.027    20536302.013          45.580  
  -1172118.436    24521895.846          40.491  
   -414201.112    20126462.640          43.037  
   -756465.479    23057075.717          43.084  
   -904566.196    22069192.414          39.375  
    138210.373    24891600.203          23.181  
 17 11 13  6 16 40.9998333  0  8G 5G13G15G18G20G21G24G30
    775856.527    21694589.746          30.300  
    585184.793    20881886.867          41.988  
   -183887.109    20536303.811          45.572  
  -1174966.114    24521426.666          40.729  
   -415118.414    20126360.408          43.315  
   -758203.074    23056826.589          42.904  
   -907783.669    22068660.584          39.077  
    141503.773    24892302.317          23.245  
 17 11 13  6 16 41.9998333  0  8G 5G13G15G18G20G21G24G30
    777798.438    21694956.393          29.337  
    586650.731    20882165.975          42.196  
   -184263.810    20536230.664          45.266  
  -1177813.734    24520880.745          40.754  
   -416035.192    20126188.327          43.476  
   -759940.199    23056492.919          42.813  
   -911000.696    22068046.009          38.889  
    144797.507    24892933.679          23.574  
 17 11 13  6 16 42.9998333  0  7G 5G13G15G18G20G21G24
    779740.785    21695317.643          27.489  
    588116.834    20882450.178          42.157  
   -184640.230    20536158.110          44.649  
  -1180661.497    24520333.327          40.093  
   -416951.644    20126011.752          43.589  
   -761676.909    23056158.053          42.579  
   -914217.458    22067436.831          38.308  
 17 11 13  6 16 43.9998333  0  7G 5G13G15G18G20G21G24
    781686.4581   21695708.270          22.699  
    589583.156    20882729.285          41.928  
   -185016.391    20536085.561          44.375  
  -1183509.322    24519782.908          39.425  
   -417867.673    20125833.673          43.417  
   -763413.144    23055830.980          42.933  
   -917433.858    22066821.654          38.397  
 17 11 13  6 16 44.9998333  0  7G 5G13G15G18G20G21G24
    783633.9061   21696078.516          19.648  
    591049.703    20883007.795          42.042  
   -185392.140    20536013.910          44.708  
  -1186357.174    24519239.984          40.119  
   -418783.322    20125663.093          43.336  
   -765148.965    23055497.009          43.100  
   -920649.906    22066213.077          38.848  
 17 11 13  6 16 45.9998333  0  7G 5G13G15G18G20G21G24
    785576.970    21696428.672          26.866  
    592516.459    20883286.301          41.784  
   -185767.715    20535941.963          45.160  
  -1189205.151    24518694.660          40.238  
   -419698.549    20125485.013          43.534  
   -766884.390    23055167.239          42.601  
   -923865.686    22065600.902          38.622  
 17 11 13  6 16 46.9998333  0  7G 5G13G15G18G20G21G24
    787520.306    21696800.715          27.318  
    593983.370    20883557.612          41.617  
   -186143.011    20535872.110          44.911  
  -1192053.246    24518153.232          40.099  
   -420613.478    20125315.633          43.330  
   -768619.430    23054838.368          42.388  
   -927081.180    22064991.122          38.247  
 17 11 13  6 16 47.9998333  0  7G 5G13G15G18G20G21G24
    789463.950    21697171.558          27.489  
    595450.592    20883840.615          41.905  
   -186518.036    20535800.760          45.037  
  -1194901.428    24517614.509          39.688  
   -421527.976    20125140.555          43.298  
   -770354.004    23054511.591          42.432  
   -930296.313    22064374.152          38.630  
 17 11 13  6 16 48.9998333  0  7G 5G13G15G18G20G21G24
    791407.951    21697597.863          29.430  
    596917.958    20884116.726          41.390  
   -186892.771    20535731.806          44.702  
  -1197749.684    24517077.278          40.092  
   -422442.116    20124966.672          43.256  
   -772088.145    23054174.627          42.263  
   -933511.171    22063764.371          38.448  
 17 11 13  6 16 49.9998333  0  8G 5G13G15G18G20G21G24G30
    793351.514    21697990.292          29.081  
    598385.636    20884393.133          41.335  
   -187267.130    20535661.058          45.840  
  -1200597.976    24516530.759          40.214  
   -423355.782    20124792.794          42.927  
   -773821.859    23053846.951          42.358  
   -936725.588    22063171.081          34.436  
    171152.229    24897995.974          23.703  
 17 11 13  6 16 50.9998333  0  8G 5G13G15G18G20G21G24G30
    795296.123    21698365.031          29.876  
    599853.338    20884668.345          42.312  
   -187641.334    20535593.901          46.038  
  -1203446.463    24515992.629          39.893  
   -424269.193    20124618.915          42.364  
   -775555.257    23053513.285          41.939  
   -939939.956    22062558.605          30.610  
    174447.163    24898628.535          23.199  
 17 11 13  6 16 51.9998333  0  8G 5G13G15G18G20G21G24G30
    797240.859    21698729.579          30.827  
    601321.337    20884950.148          42.590  
   -188015.281    20535521.653          46.044  
  -1206295.038    24515458.399          40.177  
   -425182.271    20124438.441          42.699  
   -777288.214    23053186.809          41.652  
   -943153.928    22061975.510          26.713  
    177742.1881   24899245.510          23.437  
 17 11 13  6 16 52.9998333  0  8G 5G13G15G18G20G21G24G30
    799186.402    21699094.428          31.452  
    602789.360    20885226.259          40.974  
   -188389.082    20535453.601          45.492  
  -1209143.837    24514919.973          40.191  
   -426095.073    20124269.357          43.205  
   -779020.893    23052851.940          42.300  
   -946367.608    22061298.581          35.621  
    181037.304    24899843.297          24.518  
 17 11 13  6 16 53.9998333  0  8G 5G13G15G18G20G21G24G30
    801131.386    21699479.363          32.174  
    604257.453    20885504.463          40.650  
   -188762.761    20535384.346          45.264  
  -1211992.881    24514383.645          40.473  
   -427007.658    20124098.777          43.145  
   -780753.316    23052523.369          42.177  
   -949581.222    22060691.200          36.552  
    184332.283    24900451.874          23.805  
 17 11 13  6 16 54.9998333  0  8G 5G13G15G18G20G21G24G30
    803076.689    21699826.220          32.165  
    605725.693    20885780.273          39.953  
   -189136.159    20535313.895          45.420  
  -1214842.027    24513840.721          40.618  
   -427919.878    20123921.897          43.206  
   -782485.357    23052196.597          42.514  
   -952794.545    22060087.117          35.397  
    187627.571    24901075.143          23.170  
 17 11 13  6 16 55.9998333  0  8G 5G13G15G18G20G21G24G30
    805022.275    21700195.567          32.711  
    607194.121    20886058.180          39.669  
   -189509.300    20535239.548          45.269  
  -1217691.295    24513295.096          41.043  
   -428831.743    20123747.120          42.977  
   -784217.024    23051861.125          42.641  
   -956007.620    22059473.441          35.102  
    190922.842    24901671.129          23.258  
 17 11 13  6 16 56.9998333  0  8G 5G13G15G18G20G21G24G30
    806968.350    21700560.111          33.058  
    608662.949    20886336.088          39.521  
   -189882.028    20535164.002          45.082  
  -1220540.534    24512754.872          41.096  
   -429743.099    20123570.541          42.689  
   -785948.025    23051530.155          42.551  
   -959220.152    22058859.468          36.239  
    194218.3631   24902323.479          22.980  
 17 11 13  6 16 57.9998333  0  8G 5G13G15G18G20G21G24G30
    808914.862    21700952.841          33.107  
    610132.099    20886617.892          40.321  
   -190254.345    20535092.648          45.319  
  -1223389.731    24512206.852          41.218  
   -430653.952    20123395.760          42.771  
   -787678.586    23051202.183          43.227  
   -962432.313    22058241.596          36.745  
    197514.3631   24902943.150          22.499  
 17 11 13  6 16 58.9998333  0  8G 5G13G15G18G20G21G24G30
    810861.503    21701326.983          32.896  
    611601.314    20886895.202          40.409  
   -190626.476    20535020.099          45.402  
  -1226239.101    24511666.026          41.341  
   -431564.503    20123224.281          42.932  
   -789408.799    23050876.309          43.452  
   -965644.236    22057626.720          36.837  
    200810.2741   24903537.338          22.944  
 17 11 13  6 16 59.9998333  0  8G 5G13G15G18G20G21G24G30
    812808.479    21701699.624          32.457  
    613070.824    20887174.907          40.074  
   -190998.295    20534950.546          45.168  
  -1229088.517    24511117.706          41.186  
   -432474.647    20123051.301          42.789  
   -791138.537    23050545.339          43.381  
   -968855.820    22057017.842          36.636  
    204106.1741   24904185.789          22.618  
 17 11 13  6 17  0.9998333  0  8G 5G13G15G18G20G21G24G30
    814755.787    21702083.057          32.392  
    614540.535    20887455.214          39.933  
   -191369.758    20534881.596          45.409  
  -1231937.972    24510572.382          41.171  
   -433384.345    20122878.020          42.824  
   -792867.844    23050217.066          43.607  
   -972067.045    22056403.568          36.978  
    207402.5311   24904830.343          22.630  
 17 11 13  6 17  1.9998333  0  8G 5G13G15G18G20G21G24G30
    816703.349    21702446.406          32.991  
    616010.481    20887742.118          40.128  
   -191741.011    20534810.844          45.236  
  -1234787.549    24510025.562          40.846  
   -434293.718    20122706.537          42.920  
   -794596.710    23049888.195          43.543  
   -975277.986    22055793.788          37.074  
    210698.8211   24905458.708          22.181  
 17 11 13  6 17  2.9998333  0  8G 5G13G15G18G20G21G24G30
    818651.305    21702820.547          33.017  
    617480.696    20888020.021          40.210  
   -192111.907    20534744.289          45.419  
  -1237637.172    24509482.337          40.811  
   -435202.638    20122533.557          42.985  
   -796325.143    23049558.721          43.636  
   -978488.578    22055183.414          36.991  
    213995.4471   24906078.378          22.376  
 17 11 13  6 17  3.9998333  0  8G 5G13G15G18G20G21G24G30
    820599.741    21703200.386          31.997  
    618951.309    20888300.629          40.067  
   -192482.326    20534672.639          45.444  
  -1240486.643    24508936.716          40.642  
   -436110.978    20122362.375          42.956  
   -798052.983    23049238.545          43.868  
   -981698.629    22054574.533          37.242  
    217292.3791   24906696.251          22.526  
 17 11 13  6 17  4.9998333  0  8G 5G13G15G18G20G21G24G30
    822548.591    21703551.144          31.416  
    620422.241    20888578.537          39.580  
   -192852.360    20534602.188          45.166  
  -1243336.160    24508393.491          40.240  
   -437018.823    20122185.801          42.772  
   -799780.232    23048907.571          43.521  
   -984908.243    22053957.262          37.009  
    220589.5181   24907342.005          22.434  
 17 11 13  6 17  5.9998333  0  8G 5G13G15G18G20G21G24G30
    824497.775    21703913.890          30.377  
    621893.423    20888862.740          39.990  
   -193222.026    20534532.339          45.490  
  -1246185.640    24507854.166          40.613  
   -437926.234    20122019.116          43.240  
   -801507.037    23048579.598          43.995  
   -988117.460    22053348.384          37.162  
    223886.9321   24907949.984          22.837  
 17 11 13  6 17  6.9998333  0  8G 5G13G15G18G20G21G24G30
    826447.202    21704279.337          29.657  
    623364.833    20889140.949          39.797  
   -193591.478    20534459.188          45.431  
  -1249035.249    24507316.337          40.805  
   -438833.276    20121843.737          43.365  
   -803233.408    23048255.225          43.832  
   -991326.435    22052739.503          36.947  
    227184.4781   24908590.341          22.944  
 17 11 13  6 17  7.9998333  0  8G 5G13G15G18G20G21G24G30
    828396.909    21704629.197          28.897  
    624836.432    20889419.755          39.726  
   -193960.558    20534387.838          45.498  
  -1251884.904    24506776.410          40.887  
   -439739.898    20121674.051          43.425  
   -804959.369    23047928.448          44.249  
   -994535.003    22052128.828          37.402  
    230482.2391   24909229.198          22.417  
 17 11 13  6 17  8.9998333  0  8G 5G13G15G18G20G21G24G30
    830347.164    21704987.149          27.675  
    626308.433    20889696.162          39.717  
   -194329.285    20534316.785          45.324  
  -1254734.513    24506239.480          40.980  
   -440646.028    20121502.873          43.430  
   -806684.771    23047601.077          44.204  
   -997743.156    22051519.950          37.258  
    233780.0701   24909860.560          22.655  
 17 11 13  6 17  9.9998333  0  8G 5G13G15G18G20G21G24G30
    832297.499    21705390.968          27.009  
    627780.530    20889979.166          39.716  
   -194697.798    20534245.737          45.429  
  -1257584.307    24505698.357          41.310  
   -441551.847    20121332.289          43.706  
   -808409.805    23047270.405          44.159  
  -1000951.062    22050918.267          37.136  
    237078.1691   24910466.144          22.453  
 17 11 13  6 17 10.9998333  0  8G 5G13G15G18G20G21G24G30
    834248.307    21705743.825          26.776  
    629252.926    20890256.773          39.256  
   -195065.952    20534179.482          45.401  
  -1260434.134    24505164.128          41.435  
   -442457.236    20121160.208          43.588  
   -810134.345    23046939.435          44.324  
  -1004158.559    22050307.588          37.301  
    240376.326    24911104.102          23.299  
 17 11 13  6 17 11.9998333  0  8G 5G13G15G18G20G21G24G30
    836199.418    21706146.746          27.264  
    630725.567    20890537.080          39.176  
   -195433.738    20534108.429          45.509  
  -1263283.933    24504619.703          41.736  
   -443362.129    20120987.228          43.640  
   -811858.423    23046613.260          44.248  
  -1007365.654    22049704.404          37.520  
    243674.6811   24911700.686          22.937  
 17 11 13  6 17 12.9998336  0  8G 5G13G15G18G20G21G24G30
    838150.873    21706593.441          27.997  
    632198.485    20890892.637          39.398  
   -195801.258    20534116.827          45.304  
  -1266133.844    24504163.724          41.618  
   -444266.665    20120888.600          43.553  
   -813582.039    23046361.737          44.110  
  -1010572.414    22049166.584          37.656  
    246973.2131   24912418.095          22.787  
 17 11 13  6 17 13.9998336  0  8G 5G13G15G18G20G21G24G30
    840102.623    21706937.900          27.937  
    633671.527    20891174.445          38.987  
   -196168.441    20534046.678          45.425  
  -1268983.828    24503618.400          41.571  
   -445170.790    20120714.721          43.718  
   -815305.278    23046031.967          43.925  
  -1013778.880    22048559.203          37.795  
    250272.0661   24913023.674          22.804  
 17 11 13  6 17 14.9998336  0  8G 5G13G15G18G20G21G24G30
    842054.702    21707309.044          27.927  
    635144.948    20891452.950          38.952  
   -196535.305    20533978.024          45.475  
  -1271833.824    24503080.873          41.866  
   -446074.474    20120547.138          43.656  
   -817028.022    23045700.696          43.855  
  -1016984.999    22047953.322          37.676  
    253570.899    24913694.608          23.367  
 17 11 13  6 17 15.9998336  0  8G 5G13G15G18G20G21G24G30
    844007.274    21707667.598          27.675  
    636618.628    20891729.959          38.885  
   -196901.788    20533903.376          45.414  
  -1274683.792    24502536.749          41.839  
   -446977.632    20120374.455          43.669  
   -818750.153    23045374.822          43.610  
  -1020190.593    22047342.944          37.897  
    256870.142    24914325.674          23.837  
 17 11 13  6 17 16.9998336  0  8G 5G13G15G18G20G21G24G30
    845960.117    21708046.835          27.512  
    638092.597    20892010.864          38.629  
   -197267.948    20533835.325          45.498  
  -1277533.822    24501993.227          42.043  
   -447880.409    20120203.277          43.669  
   -820471.896    23045040.254          43.711  
  -1023395.902    22046735.267          38.108  
    260169.574    24914940.550          23.782  
 17 11 13  6 17 17.9998336  0  8G 5G13G15G18G20G21G24G30
    847913.172    21708417.377          27.946  
    639566.744    20892292.668          38.485  
   -197633.804    20533764.272          45.332  
  -1280383.943    24501447.301          42.007  
   -448782.777    20120029.395          43.447  
   -822193.202    23044713.778          43.361  
  -1026600.878    22046126.385          37.769  
    263468.994    24915589.296          23.102  
 17 11 13  6 17 18.9998336  0  8G 5G13G15G18G20G21G24G30
    849866.629    21708784.024          28.498  
    641041.152    20892573.276          38.678  
   -197999.343    20533691.723          45.461  
  -1283234.071    24500899.582          41.927  
   -449684.729    20119856.114          43.594  
   -823914.069    23044385.504          43.526  
  -1029805.496    22045513.908          37.747  
    266768.746    24916157.105          23.350  
 17 11 13  6 17 19.9998336  0  8G 5G13G15G18G20G21G24G30
    851820.442    21709159.365          28.103  
    642515.764    20892857.479          38.642  
   -198364.601    20533622.170          45.116  
  -1286084.303    24500356.658          41.574  
   -450586.280    20119680.438          43.171  
   -825634.451    23044056.633          43.439  
  -1033009.780    22044904.132          37.288  
    270068.571    24916837.336          23.536  
 17 11 13  6 17 20.9998336  0  8G 5G13G15G18G20G21G24G30
    853774.628    21709522.111          28.251  
    643990.672    20893141.682          38.736  
   -198729.464    20533554.717          45.186  
  -1288934.526    24499810.135          41.413  
   -451487.349    20119511.952          43.197  
   -827354.381    23043730.458          43.513  
  -1036213.638    22044288.358          37.087  
    273368.6411   24917428.824          22.855  
 17 11 13  6 17 21.9998336  0  8G 5G13G15G18G20G21G24G30
    855729.089    21709898.652          27.739  
    645465.810    20893426.482          39.147  
   -199094.089    20533484.567          45.172  
  -1291784.828    24499259.419          41.308  
   -452388.059    20119338.074          43.051  
   -829073.825    23043406.084          43.653  
  -1039417.231    22043680.680          36.923  
    276668.877    24918062.285          23.908  
 17 11 13  6 17 22.9998336  0  8G 5G13G15G18G20G21G24G30
    857683.754    21710259.902          27.161  
    646941.062    20893712.487          39.215  
   -199458.494    20533415.612          45.374  
  -1294635.300    24498716.194          41.300  
   -453288.475    20119165.993          43.037  
   -830792.994    23043079.608          43.841  
  -1042620.582    22043068.505          37.054  
    279969.081    24918682.557          23.282  
 17 11 13  6 17 23.9998336  0  8G 5G13G15G18G20G21G24G30
    859638.703    21710644.836          27.872  
    648416.589    20893992.790          39.568  
   -199822.528    20533350.558          45.431  
  -1297485.788    24498168.475          41.327  
   -454188.424    20118993.013          42.940  
   -832511.656    23042756.435          43.993  
  -1045823.561    22042456.028          37.043  
    283269.616    24919307.026          24.043  
 17 11 13  6 17 24.9998336  0  8G 5G13G15G18G20G21G24G30
    861594.123    21711009.681          28.356  
    649892.479    20894278.494          40.000  
   -200186.217    20533280.408          45.436  
  -1300336.273    24497626.746          40.882  
   -455087.870    20118826.630          43.060  
   -834229.738    23042429.060          43.650  
  -1049026.113    22041847.447          36.728  
    286570.4241   24919969.266          23.970  
 17 11 13  6 17 25.9998336  0  8G 5G13G15G18G20G21G24G30
    863549.991    21711382.326          28.971  
    651368.611    20894564.494          40.149  
   -200549.500    20533214.751          45.518  
  -1303186.744    24497086.823          40.865  
   -455986.820    20118656.045          43.319  
   -835947.330    23042099.888          43.140  
  -1052228.236    22041234.373          37.171  
    289871.308    24920569.750          24.156  
 17 11 13  6 17 26.9998336  0  8G 5G13G15G18G20G21G24G30
    865505.9481   21711782.246          26.501  
    652845.069    20894845.102          40.898  
   -200912.433    20533141.906          45.862  
  -1306037.212    24496543.297          40.632  
   -456885.331    20118486.965          43.295  
   -837664.517    23041779.109          43.907  
  -1055429.973    22040633.589          38.359  
    293172.501    24921213.105          24.293  
 17 11 13  6 17 27.9998336  0  8G 5G13G15G18G20G21G24G30
    867462.082    21712090.434          25.678  
    654321.675    20895121.810          40.396  
   -201275.114    20533074.151          45.890  
  -1308887.841    24496000.674          41.388  
   -457783.515    20118315.482          44.662  
   -839381.245    23041451.739          41.581  
  -1058631.458    22040027.407          38.198  
    296473.996    24921878.045          24.127  
 17 11 13  6 17 28.9998336  0  8G 5G13G15G18G20G21G24G30
    869424.0841   21712489.460          21.926  
    655798.449    20895406.314          40.967  
   -201637.573    20533004.900          45.675  
  -1311738.578    24495461.349          41.323  
   -458681.354    20118144.300          44.412  
   -841097.564    23041125.864          41.469  
  -1061832.584    22039411.035          39.377  
    299775.230    24922494.116          25.019  
 17 11 13  6 17 29.9998336  0  8G 5G13G15G18G20G21G24G30
    871381.072    21712886.086          26.000  
    657275.367    20895681.823          41.497  
   -201999.787    20532937.145          46.450  
  -1314589.457    24494926.818          41.466  
   -459578.905    20117971.320          43.340  
   -842813.490    23040799.986          43.766  
  -1065033.518    22038801.259          39.281  
    303076.594    24923085.609          23.376  
 17 11 13  6 17 30.9998336  0  8G 5G13G15G18G20G21G24G30
    873338.126    21713253.330          27.942  
    658752.345    20895965.428          40.925  
   -202361.916    20532864.595          45.579  
  -1317440.529    24494390.786          41.109  
   -460476.159    20117799.239          42.926  
   -844529.210    23040475.312          43.229  
  -1068234.286    22038200.775          38.159  
    306378.108    24923711.574          23.932  
 17 11 13  6 17 31.9998336  0  8G 5G13G15G18G20G21G24G30
    875295.891    21713604.686          28.960  
    660229.505    20896250.229          40.862  
   -202723.779    20532797.142          45.753  
  -1320291.784    24493856.858          41.855  
   -461373.121    20117628.956          42.764  
   -846244.578    23040148.238          44.089  
  -1071434.788    22037584.102          37.532  
    309679.7221   24924335.743          22.417  
 17 11 13  6 17 32.9998336  0  8G 5G13G15G18G20G21G24G30
    877253.503    21714009.107          28.988  
    661706.912    20896530.536          41.049  
   -203085.321    20532727.589          45.333  
  -1323143.118    24493313.336          40.846  
   -462269.639    20117458.676          43.168  
   -847959.431    23039824.763          43.741  
  -1074634.931    22036979.417          37.419  
    312981.3401   24924931.733          21.413  
 17 11 13  6 17 33.9998336  0  8G 5G13G15G18G20G21G24G30
    879211.421    21714374.253          30.124  
    663184.487    20896807.842          41.076  
   -203446.613    20532659.839          44.980  
  -1325994.499    24492774.307          41.105  
   -463165.764    20117289.593          43.027  
   -849673.891    23039498.588          43.955  
  -1077834.709    22036365.444          37.605  
    316283.3871   24925552.900          21.766  
 17 11 13  6 17 34.9998336  0  8G 5G13G15G18G20G21G24G30
    881169.759    21714760.684          31.616  
    664662.375    20897092.346          41.323  
   -203807.500    20532591.185          45.113  
  -1328845.871    24492229.285          41.063  
   -464061.451    20117118.410          42.971  
   -851387.853    23039171.815          44.221  
  -1081034.107    22035764.960          36.712  
    319585.4321   24926198.654          21.741  
 17 11 13  6 17 35.9998336  0  8G 5G13G15G18G20G21G24G30
    883128.478    21715132.129          34.017  
    666140.616    20897366.955          41.021  
   -204167.973    20532525.830          45.344  
  -1331697.173    24491686.360          41.088  
   -464956.576    20116950.827          43.078  
   -853101.178    23038842.643          43.608  
  -1084233.046    22035157.278          36.324  
    322887.9321   24926842.907          21.715  
 17 11 13  6 17 36.9998336  0  8G 5G13G15G18G20G21G24G30
    885087.511    21715508.068          36.113  
    667619.117    20897645.465          41.001  
   -204528.107    20532454.480          45.523  
  -1334548.575    24491137.739          40.987  
   -465851.261    20116779.047          43.233  
   -854814.102    23038515.870          43.272  
  -1087431.549    22034542.703          36.295  
    326190.3101   24927449.987          20.558  
 17 11 13  6 17 37.9998336  0  8G 5G13G15G18G20G21G24G30
    887047.129    21715891.205          36.404  
    669098.064    20897920.075          40.620  
   -204887.771    20532385.229          45.240  
  -1337399.767    24490592.716          40.520  
   -466745.374    20116606.068          43.244  
   -856526.345    23038189.695          43.200  
  -1090629.577    22033943.123          36.155  
    329491.5401   24928063.061          20.317  
 17 11 13  6 17 38.9998336  0  8G 5G13G15G18G20G21G24G30
    889007.110    21716259.348          36.789  
    670577.307    20898202.476          40.569  
   -205247.008    20532316.275          45.280  
  -1340250.998    24490053.090          40.582  
   -467639.011    20116440.578          43.143  
   -858238.118    23037866.517          43.370  
  -1093827.207    22033333.944          36.422  
    332790.1291   24928681.536          20.587  
 17 11 13  6 17 39.9998336  0  8G 5G13G15G18G20G21G24G30
    890967.427    21716638.585          36.774  
    672056.790    20898479.184          40.803  
   -205605.950    20532250.623          45.127  
  -1343102.244    24489499.373          40.417  
   -468532.158    20116270.596          43.166  
   -859949.309    23037543.644          43.529  
  -1097024.385    22032714.270          36.869  
    336093.5211   24929303.902          19.455  
 17 11 13  6 17 40.9998336  0  8G 5G13G15G18G20G21G24G30
    892928.127    21717009.729          36.738  
    673536.593    20898757.991          40.941  
   -205964.513    20532181.668          45.284  
  -1345953.482    24488952.854          39.948  
   -469424.902    20116096.120          43.375  
   -861660.126    23037215.371          43.843  
  -1100221.216    22032112.887          36.909  
    339396.9141   24929945.761          20.010  
 17 11 13  6 17 41.9998336  0  8G 5G13G15G18G20G21G24G30
    894889.177    21717379.373          36.847  
    675016.679    20899039.799          41.054  
   -206322.740    20532112.116          45.393  
  -1348804.769    24488406.330          40.069  
   -470317.122    20115931.233          43.391  
   -863370.395    23036886.796          43.971  
  -1103417.684    22031508.508          36.861  
    342700.7081   24930569.327          19.205  
 17 11 13  6 17 42.9998336  0  8G 5G13G15G18G20G21G24G30
    896850.458    21717756.511          36.812  
    676496.855    20899321.005          41.063  
   -206680.712    20532048.859          45.380  
  -1351656.198    24487855.313          40.026  
   -471209.087    20115762.149          43.332  
   -865080.295    23036564.521          43.981  
  -1106613.868    22030889.134          36.627  
    346004.7391   24931192.295          18.963  
 17 11 13  6 17 43.9998336  0  8G 5G13G15G18G20G21G24G30
    898812.019    21718122.259          36.493  
    677977.250    20899604.907          40.922  
   -207038.456    20531980.506          45.067  
  -1354507.712    24487308.192          39.708  
   -472100.655    20115590.967          43.005  
   -866789.764    23036236.549          43.734  
  -1109809.816    22030281.155          36.093  
    349309.4631   24931819.164          18.333  
 17 11 13  6 17 44.9998336  0  8G 5G13G15G18G20G21G24G30
    900773.623    21718492.801          37.039  
    679457.624    20899890.610          41.422  
   -207396.155    20531913.052          45.250  
  -1357359.540    24486764.369          39.364  
   -472992.094    20115420.687          43.178  
   -868499.085    23035907.673          43.871  
  -1113005.620    22029673.478          36.017  
    352606.8151   24932444.828          18.757  
 17 11 13  6 17 45.9998339  0  8G 5G13G15G18G20G21G24G30
    902735.462    21718945.787          37.025  
    680938.157    20900249.461          41.730  
   -207753.607    20531921.446          45.340  
  -1360211.556    24486299.989          39.522  
   -473883.178    20115328.651          43.287  
   -870208.045    23035660.945          44.016  
  -1116201.195    22029135.950          35.693  
    355912.8181   24933147.243          17.775  
 17 11 13  6 17 46.9998339  0  8G 5G13G15G18G20G21G24G30
    904697.296    21719307.037          36.599  
    682418.597    20900534.262          41.910  
   -208111.072    20531852.797          45.246  
  -1363063.926    24485763.660          39.575  
   -474774.217    20115155.370          43.105  
   -871916.878    23035332.671          43.849  
  -1119396.720    22028528.870          35.280  
    359220.9281   24933796.592          18.543  
 17 11 13  6 17 47.9998339  0  8G 5G13G15G18G20G21G24G30
    906659.442    21719679.381          36.675  
    683899.235    20900819.363          42.371  
   -208468.290    20531780.248          45.324  
  -1365916.384    24485224.034          39.964  
   -475664.813    20114988.083          43.221  
   -873625.289    23035008.595          44.122  
  -1122591.921    22027916.092          35.220  
    362521.9051   24934426.156          17.922  
 17 11 13  6 17 48.9998339  0  7G 5G13G15G18G20G21G24
    908621.961    21720059.216          36.173  
    685380.153    20901106.568          42.273  
   -208825.131    20531716.389          45.143  
  -1368768.845    24484685.904          40.105  
   -476554.980    20114816.901          43.129  
   -875333.184    23034681.822          44.122  
  -1125786.684    22027310.212          34.696  
 17 11 13  6 17 49.9998339  0  7G 5G13G15G18G20G21G24
    910584.862    21720422.564          35.939  
    686861.392    20901383.276          42.483  
   -209181.612    20531646.836          45.369  
  -1371621.313    24484148.080          40.059  
   -477444.661    20114648.720          43.205  
   -877040.555    23034357.745          44.257  
  -1128981.138    22026702.233          34.747  
 17 11 13  6 17 50.9998339  0  7G 5G13G15G18G20G21G24
    912548.214    21720803.302          35.668  
    688342.999    20901666.877          42.588  
   -209537.619    20531582.982          45.348  
  -1374473.673    24483609.950          40.219  
   -478333.820    20114478.738          43.175  
   -878747.295    23034033.372          44.357  
  -1132175.086    22026092.754          34.553  
 17 11 13  6 17 51.9998339  0  7G 5G13G15G18G20G21G24
    914512.005    21721173.547          35.564  
    689824.949    20901953.479          42.764  
   -209893.219    20531516.130          45.387  
  -1377326.030    24483074.822          40.312  
   -479222.441    20114308.454          43.094  
   -880453.533    23033706.298          44.368  
  -1135368.493    22025493.771          34.402  
 17 11 13  6 17 52.9998339  0  7G 5G13G15G18G20G21G24
    916476.227    21721543.191          35.628  
    691307.233    20902237.084          42.652  
   -210248.402    20531447.476          45.512  
  -1380178.284    24482534.297          40.599  
   -480110.523    20114139.972          43.125  
   -882159.220    23033381.022          44.641  
  -1138561.520    22024886.089          34.190  
 17 11 13  6 17 53.9998339  0  7G 5G13G15G18G20G21G24
    918440.994    21721908.036          34.698  
    692789.976    20902514.093          42.563  
   -210603.104    20531381.222          45.435  
  -1383030.439    24481994.967          40.705  
   -480998.006    20113969.689          43.029  
   -883864.244    23033058.747          44.475  
  -1141753.992    22024273.316          33.986  
 17 11 13  6 17 54.9998339  0  7G 5G13G15G18G20G21G24
    920406.180    21722278.582          34.263  
    694273.062    20902796.495          42.503  
   -210957.305    20531313.768          45.397  
  -1385882.467    24481456.240          40.496  
   -481884.947    20113806.302          42.810  
   -885568.664    23032733.771          44.578  
  -1144945.945    22023678.826          33.973  
 17 11 13  6 17 55.9998339  0  7G 5G13G15G18G20G21G24
    922371.718    21722651.524          34.302  
    695756.453    20903079.799          42.369  
   -211311.157    20531244.517          45.293  
  -1388734.550    24480910.319          40.435  
   -482771.393    20113636.320          42.898  
   -887272.648    23032410.894          44.591  
  -1148137.604    22023052.861          33.783  
 17 11 13  6 17 56.9998339  0  7G 5G13G15G18G20G21G24
    924337.575    21723029.260          34.597  
    697240.019    20903362.205          42.462  
   -211664.753    20531173.464          45.369  
  -1391586.721    24480364.698          40.362  
   -483657.491    20113469.936          43.028  
   -888976.123    23032087.118          44.655  
  -1151328.821    22022459.571          33.670  
 17 11 13  6 17 57.9998339  0  7G 5G13G15G18G20G21G24
    926303.823    21723407.598          34.299  
    698723.923    20903644.309          42.407  
   -212017.936    20531108.711          45.304  
  -1394438.844    24479818.175          40.312  
   -484543.079    20113302.052          42.870  
   -890679.114    23031761.846          44.560  
  -1154519.639    22021853.389          33.864  
 17 11 13  6 17 58.9998339  0  7G 5G13G15G18G20G21G24
    928270.418    21723774.245          34.267  
    700208.018    20903919.818          42.366  
   -212370.871    20531037.658          45.314  
  -1397291.011    24479273.754          40.225  
   -485428.296    20113132.667          42.783  
   -892381.673    23031442.564          44.714  
  -1157710.165    22021241.214          33.926  
 17 11 13  6 17 59.9998339  0  7G 5G13G15G18G20G21G24
    930237.162    21724159.777          34.432  
    701692.324    20904205.220          42.179  
   -212723.562    20530971.404          44.992  
  -1400143.390    24478720.635          39.978  
   -486313.157    20112962.388          42.734  
   -894083.835    23031117.890          44.785  
  -1160900.368    22020643.426          34.128  
 17 11 13  6 18  0.9998339  0  7G 5G13G15G18G20G21G24
    932204.350    21724534.520          34.242  
    703176.841    20904483.730          42.165  
   -213075.881    20530904.552          45.164  
  -1402995.706    24478170.216          39.558  
   -487197.586    20112793.902          42.569  
   -895785.539    23030798.913          44.686  
  -1164090.150    22020046.240          34.112  
 17 11 13  6 18  1.9998339  0  7G 5G13G15G18G20G21G24
    934171.793    21724914.957          34.129  
    704661.560    20904765.534          42.254  
   -213427.941    20530835.899          45.113  
  -1405848.175    24477623.095          39.545  
   -488081.627    20112624.822          42.507  
   -897486.825    23030470.639          44.667  
  -1167279.716    22019426.871          34.187  
 17 11 13  6 18  2.9998339  0  7G 5G13G15G18G20G21G24
    936139.528    21725294.194          34.342  
    706146.496    20905048.537          42.257  
   -213779.773    20530768.148          45.117  
  -1408700.717    24477075.673          39.481  
   -488965.281    20112459.036          42.498  
   -899187.723    23030151.060          44.515  
  -1170468.865    22018831.779          33.993  
 17 11 13  6 18  3.9998339  0  7G 5G13G15G18G20G21G24
    938107.620    21725663.235          34.103  
    707631.701    20905331.243          42.326  
   -214131.217    20530700.092          45.009  
  -1411553.318    24476529.751          39.272  
   -489848.491    20112290.851          42.361  
   -900888.059    23029825.483          44.673  
  -1173657.697    22018220.804          33.917  
 17 11 13  6 18  4.9998339  0  7G 5G13G15G18G20G21G24
    940076.018    21726037.979          33.638  
    709117.142    20905617.244          42.113  
   -214482.356    20530634.737          44.767  
  -1414405.929    24475986.827          39.155  
   -490731.308    20112121.170          42.066  
   -902588.030    23029499.011          44.262  
  -1176846.219    22017622.719          33.520  
 17 11 13  6 18  5.9998339  0  7G 5G13G15G18G20G21G24
    942044.669    21726404.023          33.972  
    710602.719    20905895.453          42.381  
   -214833.293    20530569.983          45.071  
  -1417258.694    24475446.603          39.200  
   -491613.772    20111951.187          42.103  
   -904287.547    23029177.932          44.593  
  -1180034.440    22017014.440          33.952  
 17 11 13  6 18  6.9998339  0  7G 5G13G15G18G20G21G24
    944013.435    21726785.961          33.260  
    712088.402    20906180.253          42.494  
   -215184.050    20530505.527          45.218  
  -1420111.650    24474904.277          39.494  
   -492495.977    20111783.905          42.162  
   -905986.795    23028856.555          44.694  
  -1183222.500    22016399.267          34.190  
 17 11 13  6 18  7.9998339  0  7G 5G13G15G18G20G21G24
    945982.608    21727163.400          33.203  
    713574.295    20906468.055          42.637  
   -215534.499    20530442.872          45.371  
  -1422964.677    24474370.047          39.635  
   -493377.797    20111611.824          42.287  
   -907685.608    23028532.479          44.861  
  -1186410.173    22015803.578          34.731  
 17 11 13  6 18  8.9998339  0  7G 5G13G15G18G20G21G24
    947952.097    21727533.942          33.259  
    715060.529    20906751.360          42.682  
   -215884.594    20530373.620          45.276  
  -1425817.715    24473837.615          39.836  
   -494259.102    20111445.737          42.222  
   -909383.896    23028210.204          44.707  
  -1189597.427    22015196.498          34.455  
 17 11 13  6 18  9.9998339  0  7G 5G13G15G18G20G21G24
    949921.982    21727917.079          33.504  
    716546.993    20907032.862          42.922  
   -216234.338    20530308.863          45.498  
  -1428670.746    24473300.087          39.906  
   -495139.968    20111281.452          42.407  
   -911081.704    23027882.231          44.776  
  -1192784.308    22014578.625          34.566  
 17 11 13  6 18 10.9998339  0  7G 5G13G15G18G20G21G24
    951892.173    21728285.222          33.430  
    718033.710    20907320.664          42.789  
   -216583.746    20530240.510          45.268  
  -1431523.783    24472759.863          39.863  
   -496020.405    20111117.464          42.460  
   -912779.015    23027560.554          44.618  
  -1195970.758    22013983.838          34.489  
 17 11 13  6 18 11.9998339  0  7G 5G13G15G18G20G21G24
    953862.867    21728680.648          33.609  
    719520.849    20907605.766          43.142  
   -216932.663    20530176.354          45.562  
  -1434376.809    24472218.435          40.083  
   -496900.231    20110948.083          42.669  
   -914475.777    23027238.876          44.700  
  -1199156.730    22013370.463          34.368  
 17 11 13  6 18 12.9998339  0  7G 5G13G15G18G20G21G24
    955833.839    21729047.893          33.262  
    721008.194    20907889.672          43.123  
   -217281.340    20530109.804          45.402  
  -1437229.868    24471680.310          39.782  
   -497779.727    20110781.098          42.367  
   -916172.041    23026915.397          44.597  
  -1202342.400    22012770.276          34.509  
 17 11 13  6 18 13.9998339  0  7G 5G13G15G18G20G21G24
    957805.214    21729425.934          32.956  
    722495.829    20908173.875          43.257  
   -217629.621    20530039.950          45.566  
  -1440082.896    24471138.886          40.177  
   -498658.690    20110614.413          42.577  
   -917867.796    23026593.122          44.452  
  -1205527.633    22012158.101          34.572  
 17 11 13  6 18 14.9998339  0  7G 5G13G15G18G20G21G24
    959776.887    21729788.380          32.617  
    723983.675    20908457.777          43.406  
   -217977.610    20529977.592          45.522  
  -1442936.048    24470594.461          40.156  
   -499537.254    20110444.130          42.643  
   -919563.108    23026267.248          44.425  
  -1208712.545    22011549.524          34.100  
 17 11 13  6 18 15.9998339  0  7G 5G13G15G18G20G21G24
    961748.915    21730161.326          32.903  
    725471.832    20908741.081          43.491  
   -218325.221    20529912.237          45.729  
  -1445789.167    24470049.137          39.852  
   -500415.381    20110280.743          42.471  
   -921257.945    23025948.568          44.446  
  -1211897.043    22010937.947          33.569  
 17 11 13  6 18 16.9998339  0  7G 5G13G15G18G20G21G24
    963721.406    21730517.476          32.076  
    726960.341    20909022.584          43.500  
   -218672.416    20529848.382          45.896  
  -1448642.209    24469504.416          39.636  
   -501292.946    20110110.761          42.438  
   -922952.209    23025621.795          44.518  
  -1215081.082    22010330.265          33.332  
 17 11 13  6 18 17.9998341  0  7G 5G13G15G18G20G21G24
    965694.171    21730965.366          31.795  
    728449.052    20909383.537          43.404  
   -219019.325    20529857.674          45.827  
  -1451495.346    24469029.844          39.498  
   -502170.132    20110020.822          42.247  
   -924646.032    23025376.563          44.223  
  -1218264.712    22009801.130          33.457  
 17 11 13  6 18 18.9998341  0  7G 5G13G15G18G20G21G24
    967667.275    21731335.612          31.045  
    729938.002    20909660.843          43.383  
   -219365.933    20529791.721          45.969  
  -1454348.556    24468491.116          39.567  
   -503046.906    20109850.242          42.416  
   -926339.400    23025055.187          44.099  
  -1221448.047    22009196.751          33.244  
 17 11 13  6 18 19.9998341  0  7G 5G13G15G18G20G21G24
    969640.641    21731705.552          29.814  
    731427.181    20909943.846          43.174  
   -219712.209    20529724.869          45.890  
  -1457201.771    24467942.495          39.289  
   -503923.269    20109690.154          42.059  
   -928032.312    23024730.809          43.897  
  -1224631.069    22008588.471          33.009  
 17 11 13  6 18 20.9998341  0  7G 5G13G15G18G20G21G24
    971614.4421   21732110.873          28.684  
    732916.630    20910228.948          43.024  
   -220058.203    20529660.112          45.831  
  -1460055.084    24467392.979          39.124  
   -504799.240    20109520.468          42.194  
   -929724.793    23024406.135          43.630  
  -1227813.794    22007975.698          32.977  
 17 11 13  6 18 21.9998341  0  7G 5G13G15G18G20G21G24
    973587.8801   21732489.813          27.925  
    734406.167    20910510.154          42.884  
   -220403.982    20529593.556          46.161  
  -1462908.527    24466848.253          38.687  
   -505674.876    20109353.186          41.810  
   -931416.886    23024088.654          44.025  
  -1230996.017    22007369.813          31.552  
 17 11 13  6 18 22.9998341  0  7G 5G13G15G18G20G21G24
    975560.9331   21732871.148          26.163  
    735895.933    20910791.360          42.630  
   -220749.504    20529529.702          46.423  
  -1465762.095    24466302.933          39.043  
   -506550.192    20109185.602          41.991  
   -933108.622    23023760.682          45.058  
  -1234178.312    22006757.939          33.502  
 17 11 13  6 18 23.9998341  0  7G 5G13G15G18G20G21G24
    977535.3741   21733248.588          26.202  
    737385.812    20911077.365          43.569  
   -221094.808    20529458.051          46.063  
  -1468615.765    24465758.207          39.303  
   -507425.142    20109020.715          42.020  
   -934799.964    23023443.201          45.334  
  -1237360.228    22006168.549          34.443  
 17 11 13  6 18 24.9998341  0  7G 5G13G15G18G20G21G24
    979510.183    21733626.023          27.062  
    738875.898    20911363.365          43.721  
   -221439.809    20529395.396          45.865  
  -1471469.540    24465212.888          38.731  
   -508299.681    20108853.132          41.849  
   -936490.881    23023121.524          44.868  
  -1240541.629    22005550.676          34.478  
 17 11 13  6 18 25.9998341  0  7G 5G13G15G18G20G21G24
    981485.367    21734041.835          24.183  
    740366.110    20911642.773          44.110  
