     2.11           OBSERVATION DATA    G (GPS)             RINEX VERSION / TYPE
AndroidGNSSReceiver RITSUMEIKAN KUBOLAB 1524127142971       PGM / RUN BY / DATE
flounder                                                    MARKER NAME
GRitzLogger         KUBOLAB                                 OBSERVER / AGENCY
0                   Android Receiver                        REC # / TYPE / VERS
0                   Android Anttena                         ANT # / TYPE
        0.0000        0.0000        0.0000                  APPROX POSITION XYZ
        0.0000        0.0000        0.0000                  ANTENNA: DELTA H/E/N
1     0                                                     WAVELENGTH FACT L1/2
2         C1    S1                                          # / TYPES OF OBSERV
1.000                                                       INTERVAL
  2018     4    19     8    37   23.9998848     GPS         TIME OF FIRST OBS
                                                            END OF HEADER
 18  4 19  8 37 23.9998848  0  8G 1G 3G 7G 8G11G18G28G30
  20661179.659          33.598  
  24870388.979          24.612  
  21546142.707          36.871  
  20981084.589          26.207  
  20523215.759          33.080  
  19879070.602          32.779  
  23975837.961          33.179  
  22240499.208          35.218  
 18  4 19  8 37 24.9998848  0  8G 1G 3G 7G 8G11G18G28G30
  20660804.322          36.673  
  24869739.028          24.005  
  21546326.772          36.989  
  20981246.474          27.454  
  20522984.631          30.373  
  19878992.355          37.319  
  23975291.141          33.075  
  22240370.600          38.765  
 18  4 19  8 37 25.9998848  0  8G 1G 3G 7G 8G11G18G28G30
  20660427.170          35.352  
  24869108.273          21.311  
  21546497.068          38.100  
  20981411.362          26.155  
  20522738.792          36.487  
  19878909.310          39.657  
  23974729.628          33.646  
  22240253.684          37.792  
 18  4 19  8 37 26.9998848  0  8G 1G 3G 7G 8G11G18G28G30
  20660059.634          37.335  
  24868473.608          19.471  
  21546681.727          41.097  
  20981542.081          25.986  
  20522497.159          33.566  
  19878825.967          38.950  
  23974169.615          34.963  
  22240120.870          36.019  
 18  4 19  8 37 27.9998848  0  8G 1G 3G 7G 8G11G18G28G30
  20659680.388          34.913  
  24867770.591          20.121  
  21546862.511          39.244  
  20981692.868          28.100  
  20522271.127          34.268  
  19878742.922          37.936  
  23973609.603          34.627  
  22239990.464          37.164  
 18  4 19  8 37 28.9998848  0  8G 1G 3G 7G 8G11G18G28G30
  20659308.646          33.209  
  24867114.044          20.021  
  21547053.783          40.298  
  20981825.682          27.603  
  20522033.682          33.185  
  19878657.189          36.374  
  23973048.404          33.857  
  22239872.344          37.742  
 18  4 19  8 37 29.9998848  0  8G 1G 3G 7G 8G11G18G28G30
  20658927.621          35.649  
  24866461.999          23.307  
  21547236.347          39.410  
  20981986.660          29.515  
  20521788.157          33.269  
  19878576.534          37.419  
  23972488.985          34.753  
  22239748.535          39.719  
 18  4 19  8 37 30.9998848  0  9G 1G 3G 7G 8G11G18G22G28G30
  20658550.173          36.923  
  24865825.834          23.860  
  21547422.820          36.543  
  20982134.760          29.628  
  20521550.119          32.760  
  19878489.894          34.898  
  23319943.031          40.449  
  23971930.177          33.372  
  22239624.429          39.856  
 18  4 19  8 37 31.9998848  0  9G 1G 3G 7G 8G11G18G22G28G30
  20658183.229          35.529  
  24865173.493          25.412  
  21547604.198          34.833  
  20982287.048          28.410  
  20521320.177          30.868  
  19878412.258          33.620  
  23319390.522          44.600  
  23971375.853          33.612  
  22239498.211          37.475  
 18  4 19  8 37 32.9998848  0  9G 1G 3G 7G 8G11G18G22G28G30
  20657802.186          37.625  
  24864543.924          24.180  
  21547776.885          36.478  
  20982446.543          29.636  
  20521088.735          33.739  
  19878325.617          34.410  
  23318839.200          45.298  
  23970827.532          31.067  
  22239368.696          37.213  
 18  4 19  8 37 33.9998848  0  9G 1G 3G 7G 8G11G18G22G28G30
  20657428.944          36.523  
  24863852.599          20.308  
  21547971.437          39.633  
  20982586.546          28.029  
  20520848.009          33.713  
  19878239.867          36.711  
  23318279.188          43.634  
  23970252.827          33.077  
  22239249.074          37.523  
 18  4 19  8 37 34.9998848  0  9G 1G 3G 7G 8G11G18G22G28G30
  20657053.607          36.727  
  24863250.915          16.568  
  21548150.721          38.836  
  20982733.442          27.977  
  20520616.567          34.950  
  19878161.620          37.401  
  23317722.770          45.124  
  23969695.223          33.692  
  22239122.875          34.221  
 18  4 19  8 37 35.9998848  0  8G 1G 7G 8G11G18G22G28G30
  20656682.162          35.654  
  21548337.787          39.623  
  20982896.829          27.586  
  20520382.734          34.245  
  19878079.482          35.799  
  23317172.949          43.896  
  23969137.897          32.962  
  22238995.453          37.300  
 18  4 19  8 37 36.9998848  0  9G 1G 7G 8G11G16G18G22G28G30
  20656306.232          33.194  
  21548515.273          40.886  
  20983054.230          28.356  
  20520148.587          36.854  
  24410896.773          40.823  
  19877992.248          36.458  
  23316612.936          42.964  
  23968577.588          33.012  
  22238870.143          35.680  
 18  4 19  8 37 37.9998848  0  9G 1G 7G 8G11G16G18G22G28G30
  20655941.976          34.815  
  21548703.840          36.433  
  20983199.032          29.012  
  20519908.158          35.474  
  24411468.477          39.181  
  19877913.391          36.631  
  23316059.817          43.850  
  23968024.469          33.259  
  22238746.020          40.166  
 18  4 19  8 37 38.9998848  0  9G 1G 7G 8G11G16G18G22G28G30
  20655553.447          35.528  
  21548891.500          35.180  
  20983354.321          29.623  
  20519681.514          33.876  
  24412040.792          36.053  
  19877834.254          37.397  
  23315503.399          44.208  
  23967471.960          33.030  
  22238627.602          37.099  
 18  4 19  8 37 39.9998848  0  9G 1G 7G 8G11G16G18G22G28G30
  20655189.208          34.208  
  21549069.283          34.876  
  20983502.421          28.069  
  20519435.379          30.381  
  24412605.900          33.531  
  19877744.909          35.954  
  23314949.686          42.373  
  23966904.147          31.125  
  22238512.187          33.606  
 18  4 19  8 37 40.9998848  0  9G 1G 7G 8G11G16G18G22G28G30
  20654813.557          35.960  
  21549266.540          36.561  
  20983639.423          28.714  
  20519210.830          30.911  
  24413189.592          36.812  
  19877670.274          37.970  
  23314393.565          43.051  
  23966347.136          30.296  
  22238376.092          31.832  
 18  4 19  8 37 41.9998848  0  9G 1G 7G 8G11G16G18G22G28G30
  20654439.128          36.885  
  21549435.022          35.080  
  20983789.023          29.193  
  20518975.793          32.878  
  24413757.998          40.108  
  19877581.522          39.404  
  23313840.149          43.919  
  23965794.610          32.476  
  22238264.865          31.055  
 18  4 19  8 37 42.9998848  0  9G 1G 7G 8G11G16G18G22G28G30
  20654067.979          36.815  
  21549640.987          35.925  
  20983956.005          29.914  
  20518735.364          33.043  
  24414337.206          39.358  
  19877503.590          39.286  
  23313285.843          43.701  
  23965239.397          32.241  
  22238149.449          31.533  
 18  4 19  8 37 43.9998848  0  9G 1G 7G 8G11G16G18G22G28G30
  20653693.829          36.946  
  21549820.567          37.000  
  20984090.912          28.660  
  20518510.517          33.936  
  24414909.800          40.173  
  19877425.029          39.644  
  23312729.425          43.702  
  23964669.490          30.714  
  22238017.525          31.508  
 18  4 19  8 37 44.9998848  0  9G 1G 7G 8G11G16G18G22G28G30
  20653324.199          36.870  
  21549995.645          38.329  
  20984253.391          27.844  
  20518264.696          33.481  
  24415489.897          38.544  
  19877342.594          39.026  
  23312172.414          44.460  
  23964123.577          30.147  
  22237916.209          35.532  
 18  4 19  8 37 45.9998848  0  9G 1G 7G 8G11G16G18G22G28G30
  20652947.047          37.201  
  21550183.008          37.106  
  20984434.769          26.798  
  20518039.554          33.021  
  24416054.412          34.684  
  19877260.753          38.712  
  23311618.998          44.072  
  23963568.957          28.392  
  22237812.468          34.890  
 18  4 19  8 37 46.9998848  0  9G 1G 7G 8G11G16G18G22G28G30
  20652573.508          38.166  
  21550373.076          35.836  
  20984560.690          26.122  
  20517793.418          31.889  
  24416640.809          32.403  
  19877180.708          39.919  
  23311058.986          44.482  
  23962994.862          27.361  
  22237644.597          33.422  
 18  4 19  8 37 47.9998848  0  9G 1G 7G 8G11G16G18G22G28G30
  20652202.063          38.006  
  21550552.656          36.762  
  20984681.201          26.899  
  20517566.181          34.159  
  24417219.999          29.882  
  19877094.068          39.539  
  23310510.961          45.031  
  23962443.540          27.169  
  22237505.780          30.314  
 18  4 19  8 37 48.9998848  0  9G 1G 7G 8G11G16G18G22G28G30
  20651826.726          38.178  
  21550741.816          37.379  
  20984838.898          28.592  
  20517325.438          33.921  
  24417808.490          30.665  
  19877015.525          40.015  
  23309957.545          45.597  
  23961890.124          27.363  
  22237397.868          29.801  
 18  4 19  8 37 49.9998848  0  9G 1G 7G 8G11G16G18G22G28G30
  20651458.579          36.152  
  21550931.588          39.105  
  20985009.771          28.086  
  20517087.714          33.959  
  24418381.102          33.626  
  19876930.682          39.091  
  23309399.330          45.036  
  23961325.906          27.614  
  22237277.636          28.826  
 18  4 19  8 37 50.9998848  0  9G 1G 7G 8G11G16G18G22G28G30
  20651080.555          33.355  
  21551113.558          38.094  
  20985143.474          27.891  
  20516861.367          33.056  
  24418940.818          31.732  
  19876857.234          39.390  
  23308846.821          45.140  
  23960784.478          24.977  
  22237148.435          31.375  
 18  4 19  8 37 51.9998848  0  9G 1G 7G 8G11G16G18G22G28G30
  20650729.788          31.560  
  21551305.738          37.407  
  20985302.062          29.515  
  20516633.520          34.498  
  24419546.392          35.143  
  19876773.281          38.801  
  23308290.700          45.236  
  23960204.695          26.256  
  22237020.717          32.500  
 18  4 19  8 37 52.9998848  0  9G 1G 7G 8G11G16G18G22G28G30
  20650340.351          32.365  
  21551489.209          39.253  
  20985441.175          32.715  
  20516393.981          33.823  
  24420122.895          35.010  
  19876698.332          38.238  
  23307736.673          43.705  
  23959651.575          26.799  
  22236907.098          34.729  
 18  4 19  8 37 53.9998848  0  9G 1G 7G 8G11G16G18G22G28G30
  20649966.812          37.230  
  21551676.276          38.894  
  20985594.667          40.072  
  20516165.854          31.981  
  24420684.705          33.230  
  19876613.803          37.053  
  23307181.460          44.777  
  23959094.861          24.977  
  22236784.179          33.683  
 18  4 19  8 37 54.9998848  0  9G 1G 7G 8G11G16G18G22G28G30
  20649592.976          37.834  
  21551861.545          37.977  
  20985740.063          42.125  
  20515933.504          31.955  
  24421256.706          34.838  
  19876533.759          38.599  
  23306625.653          44.191  
  23958538.147          25.349  
  22236657.071          34.426  
 18  4 19  8 37 55.9998848  0  9G 1G 7G 8G11G16G18G22G28G30
  20649220.937          38.398  
  21552049.815          38.488  
  20985890.257          41.612  
  20515703.563          31.879  
  24421835.599          36.320  
  19876457.013          38.413  
  23306072.830          45.418  
  23957965.535          26.481  
  22236532.058          34.613  
 18  4 19  8 37 56.9998848  0  9G 1G 7G 8G11G16G18G22G28G30
  20648852.197          39.275  
  21552232.990          37.755  
  20986046.750          42.331  
  20515461.633          32.562  
  24422431.594          32.677  
  19876369.169          37.493  
  23305517.023          43.894  
  23957429.203          28.231  
  22236412.140          34.015  
 18  4 19  8 37 57.9998848  0  9G 1G 7G 8G11G16G18G22G28G30
  20648482.845          38.707  
  21552425.763          37.431  
  20986197.258          41.358  
  20515231.395          34.173  
  24422997.906          29.907  
  19876293.923          38.161  
  23304961.810          42.457  
  23956863.205          29.990  
  22236300.023          33.962  
 18  4 19  8 37 58.9998848  0  9G 1G 7G 8G11G16G18G22G28G30
  20648108.399          36.176  
  21552612.532          37.665  
  20986343.840          41.793  
  20515000.860          33.333  
  24423571.111          32.300  
  19876212.082          39.112  
  23304413.175          42.753  
  23956310.975          29.635  
  22236167.820          34.629  
 18  4 19  8 37 59.9998848  0  9G 1G 7G 8G11G16G18G22G28G30
  20647733.358          32.765  
  21552802.600          38.548  
  20986494.348          41.401  
  20514764.915          33.294  
  24424114.633          33.259  
  19876132.334          39.737  
  23303852.272          44.532  
  23955745.571          31.336  
  22236049.088          33.666  
 18  4 19  8 38  0.9998848  0 10G 1G 7G 8G11G16G18G22G27G28G30
  20647359.819          36.488  
  21552990.574          38.854  
  20986646.043          41.550  
  20514530.786          32.453  
  24424709.720          31.080  
  19876058.590          39.320  
  23303302.451          44.091  
  23054502.586          41.644  
  23955184.354          31.456  
  22235928.874          33.346  
 18  4 19  8 38  1.9998848  0 10G 1G 7G 8G11G16G18G22G27G28G30
  20646996.471          37.905  
  21553181.235          36.873  
  20986795.644          42.159  
  20514317.631          29.393  
  24425291.912          31.394  
  19875978.545          39.018  
  23302747.237          43.636  
  23054931.896          43.016  
  23954634.236          29.142  
  22235813.162          32.635  
 18  4 19  8 38  2.9998848  0 10G 1G 7G 8G11G16G18G22G27G28G30
  20646620.227          37.854  
  21553362.002          38.120  
  20986949.136          41.873  
  20514065.197          30.066  
  24425862.411          32.906  
  19875899.985          40.200  
  23302197.119          42.821  
  23055366.599          42.730  
  23954070.332          28.508  
  22235693.244          31.097  
 18  4 19  8 38  3.9998848  0 10G 1G 7G 8G11G16G18G22G27G28G30
  20646250.596          37.268  
  21553546.084          38.473  
  20987099.626          41.694  
  20513827.472          33.034  
  24426435.930          31.446  
  19875817.846          39.882  
  23301636.199          42.508  
  23055796.502          42.854  
  23953526.811          26.298  
  22235572.732          32.399  
 18  4 19  8 38  4.9998848  0  9G 1G 7G 8G11G16G18G22G27G30
  20645883.042          38.006  
  21553738.246          39.025  
  20987252.525          41.257  
  20513605.610          33.593  
  24427013.916          31.600  
  19875742.008          39.793  
  23301078.595          42.310  
  23056232.688          42.758  
  22235449.516          32.555  
 18  4 19  8 38  5.9998848  0  9G 1G 7G 8G11G16G18G22G27G30
  20645511.003          38.438  
  21553925.312          38.941  
  20987405.407          41.788  
  20513369.683          33.665  
  24427596.422          33.366  
  19875664.948          39.262  
  23300526.366          43.066  
  23056662.592          42.326  
  22235341.587          31.199  
 18  4 19  8 38  6.9998848  0 10G 1G 7G 8G10G11G16G18G22G27G30
  20645140.466          38.440  
  21554108.190          37.673  
  20987553.210          41.605  
  24278206.836          31.329  
  20513132.552          33.694  
  24428168.719          31.612  
  19875581.605          38.684  
  23299969.651          41.697  
  23057103.297          42.182  
  22235205.178          31.787  
 18  4 19  8 38  7.9998848  0 10G 1G 7G 8G10G11G16G18G22G27G30
  20644765.722          38.001  
  21554307.559          38.266  
  20987706.109          41.259  
  24278425.993          30.191  
  20512904.112          32.088  
  24428742.221          29.993  
  19875505.470          38.172  
  23299423.739          41.538  
  23057531.403          41.429  
  22235089.466          33.026  
 18  4 19  8 38  8.9998848  0 10G 1G 7G 8G10G11G16G18G22G27G30
  20644397.872          38.618  
  21554488.937          36.753  
  20987858.397          41.035  
  24278680.504          26.521  
  20512676.561          32.509  
  24429319.020          31.379  
  19875422.424          37.696  
  23298872.120          41.475  
  23057960.103          41.189  
  22234962.045          33.992  
 18  4 19  8 38  9.9998848  0 10G 1G 7G 8G10G11G16G18G22G27G30
  20644020.127          38.232  
  21554674.206          36.734  
  20988003.792          41.492  
  24278910.760          23.374  
  20512437.929          32.447  
  24429904.213          31.465  
  19875343.881          37.550  
  23298307.902          41.524  
  23058405.589          43.110  
  22234846.332          34.519  
 18  4 19  8 38 10.9998848  0  9G 1G 7G 8G11G16G18G22G27G30
  20643654.981          37.998  
  21554875.668          34.558  
  20988159.396          41.311  
  20512202.281          32.457  
  24430471.136          32.669  
  19875268.025          38.640  
  23297753.299          41.693  
  23058826.506          41.134  
  22234723.413          32.647  
 18  4 19  8 38 11.9998848  0  9G 1G 7G 8G11G16G18G22G27G30
  20643279.644          37.667  
  21555053.434          36.222  
  20988306.292          41.730  
  20511970.542          31.299  
  24431044.638          33.713  
  19875187.684          38.736  
  23297202.274          40.749  
  23059259.097          40.912  
  22234601.698          33.894  
 18  4 19  8 38 12.9998848  0  9G 1G 7G 8G11G16G18G22G27G30
  20642912.701          38.280  
  21555239.313          36.817  
  20988461.284          42.491  
  20511735.819          31.725  
  24431632.832          34.639  
  19875111.845          39.412  
  23296641.965          40.185  
  23059689.594          43.082  
  22234493.175          32.014  
 18  4 19  8 38 13.9998848  0  9G 1G 7G 8G11G16G18G22G27G30
  20642540.366          37.253  
  21555437.478          39.704  
  20988612.072          42.158  
  20511503.470          32.156  
  24432194.328          31.416  
  19875030.597          38.863  
  23296090.346          39.192  
  23060123.406          42.826  
  22234370.552          32.984  
 18  4 19  8 38 14.9998848  0  9G 1G 7G 8G11G16G18G22G27G30
  20642173.108          36.084  
  21555614.947          36.854  
  20988763.766          41.620  
  20511265.431          32.472  
  24432771.441          30.195  
  19874952.350          38.761  
  23295534.225          39.461  
  23060563.797          43.356  
  22234240.147          32.149  
 18  4 19  8 38 15.9998848  0  9G 1G 7G 8G11G16G18G22G27G30
  20641804.664          37.964  
  21555812.518          34.368  
  20988911.866          41.239  
  20511035.804          32.194  
  24433341.034          30.319  
  19874876.494          38.320  
  23294983.217          39.848  
  23060995.498          43.163  
  22234127.418          32.811  
 18  4 19  8 38 16.9998848  0  9G 1G 7G 8G11G16G18G22G27G30
  20641434.720          38.635  
  21555995.379          35.267  
  20989067.156          41.821  
  20510810.347          31.883  
  24433923.540          30.253  
  19874795.560          39.016  
  23294430.690          39.640  
  23061419.102          40.212  
  22234009.001          35.376  
 18  4 19  8 38 17.9998848  0  9G 1G 7G 8G11G16G18G22G27G30
  20641057.586          37.513  
  21556191.450          38.615  
  20989216.757          41.978  
  20510574.420          32.097  
  24434500.339          29.305  
  19874722.409          39.611  
  23293871.882          41.202  
  23061858.603          39.117  
  22233898.087          33.944  
 18  4 19  8 38 18.9998848  0 10G 1G 7G 8G10G11G16G18G22G27G30
  20640696.331          37.175  
  21556380.017          38.819  
  20989367.247          42.002  
  24280936.154          41.969  
  20510351.075          32.425  
  24435071.136          31.054  
  19874644.162          39.515  
  23293327.156          40.629  
  23062304.387          35.697  
  22233767.979          34.844  
 18  4 19  8 38 19.9998848  0 10G 1G 7G 8G10G11G16G18G22G27G30
  20640323.996          38.017  
  21556570.992          39.063  
  20989516.255          41.927  
  24281173.879          40.137  
  20510118.132          32.811  
  24435651.547          31.432  
  19874567.416          39.056  
  23292764.753          42.061  
  23062738.496          33.006  
  22233644.466          32.390  
 18  4 19  8 38 20.9998848  0 10G 1G 7G 8G10G11G16G18G22G27G30
  20639949.253          36.756  
  21556756.558          38.575  
  20989668.839          42.211  
  24281411.917          40.514  
  20509879.500          32.686  
  24436230.441          32.284  
  19874486.779          39.720  
  23292211.930          42.007  
  23063173.181          30.998  
  22233537.740          32.477  
 18  4 19  8 38 21.9998848  0 10G 1G 7G 8G10G11G16G18G22G27G30
  20639584.107          38.350  
  21556937.028          37.731  
  20989818.144          42.227  
  24281650.252          34.149  
  20509651.949          33.578  
  24436808.148          31.538  
  19874408.829          39.916  
  23291653.122          43.028  
  23063606.993          28.731  
  22233416.025          34.873  
 18  4 19  8 38 22.9998848  0 10G 1G 7G 8G10G11G16G18G22G27G30
  20639207.863          36.951  
  21557138.787          37.607  
  20989972.840          42.047  
  24281910.470          30.482  
  20509418.116          32.744  
  24437364.251          29.498  
  19874329.081          39.340  
  23291098.798          46.494  
  23064061.781          27.248  
  22233299.702          36.352  
 18  4 19  8 38 23.9998848  0 10G 1G 7G 8G10G11G16G18G22G27G30
  20638843.013          35.645  
  21557327.372          36.178  
  20990123.034          41.444  
  24282130.517          26.396  
  20509180.985          32.978  
  24437953.650          26.848  
  19874251.742          39.739  
  23290545.679          43.865  
  23064476.694          29.390  
  22233173.781          35.238  
 18  4 19  8 38 24.9998848  0 10G 1G 7G 8G10G11G16G18G22G27G30
  20638470.975          37.824  
  21557514.438          35.809  
  20990272.320          41.660  
  24282357.771          26.558  
  20508956.436          33.414  
  24438536.452          27.048  
  19874182.778          39.815  
  23289983.276          41.966  
  23064918.586          28.612  
  22233057.161          34.523  
 18  4 19  8 38 25.9998848  0 10G 1G 7G 8G10G11G16G18G22G27G30
  20638103.438          36.888  
  21557703.005          38.899  
  20990422.532          41.653  
  24282617.082          25.772  
  20508725.605          33.668  
  24439103.357          24.600  
  19874099.140          39.128  
  23289437.049          43.796  
  23065347.582          27.460  
  22232942.950          34.025  
 18  4 19  8 38 26.9998848  0  9G 1G 7G 8G10G11G18G22G27G30
  20637736.792          38.041  
  21557895.167          37.704  
  20990574.227          40.082  
  24282835.331          27.889  
  20508490.568          32.517  
  19874017.298          35.297  
  23288878.834          42.506  
  23065755.307          27.407  
  22232815.842          35.663  
 18  4 19  8 38 27.9998848  0  9G 1G 7G 8G10G11G18G22G27G30
  20637369.535          38.120  
  21558079.842          39.457  
  20990731.610          39.673  
  24283046.985          28.423  
  20508255.216          32.814  
  19873948.946          35.991  
  23288326.622          42.179  
  23066213.689          28.959  
  22232700.409          37.549  
 18  4 19  8 38 28.9998848  0  9G 1G 7G 8G10G11G18G22G27G30
  20636995.402          38.318  
  21558272.912          39.964  
  20990880.303          39.943  
  24283291.916          27.756  
  20508034.279          32.585  
  19873875.201          35.868  
  23287774.096          38.759  
  23066627.696          26.727  
  22232581.992          40.070  
 18  4 19  8 38 29.9998848  0  9G 1G 7G 8G10G11G18G22G27G30
  20636625.754          37.667  
  21558466.278          41.145  
  20991031.701          40.116  
  24283538.942          31.035  
  20507801.930          31.581  
  19873792.749          37.342  
  23287220.383          33.282  
  23067075.887          27.358  
  22232460.277          39.058  
 18  4 19  8 38 30.9998848  0  9G 1G 7G 8G10G11G18G22G27G30
  20636255.809          37.758  
  21558658.143          39.210  
  20991183.396          39.431  
  24283768.587          31.198  
  20507569.004          33.068  
  19873719.301          36.632  
  23286659.777          31.472  
  23067497.397          26.152  
  22232343.954          39.433  
 18  4 19  8 38 31.9998848  0  9G 1G 7G 8G10G11G18G22G27G30
  20635893.665          39.433  
  21558840.114          36.523  
  20991332.997          39.373  
  24283990.134          33.107  
  20507337.265          31.879  
  19873643.759          36.114  
  23286109.362          29.068  
  23067947.979          27.469  
  22232228.241          39.233  
 18  4 19  8 38 32.9998848  0  9G 1G 7G 8G10G11G18G22G27G30
  20635519.218          39.800  
  21559031.089          38.218  
  20991483.191          41.295  
  24284234.472          33.288  
  20507113.012          33.464  
  19873567.903          38.868  
  23285576.921          26.756  
  23068376.382          28.921  
  22232122.720          35.230  
 18  4 19  8 38 33.9998848  0  9G 1G 7G 8G10G11G18G22G27G30
  20635146.883          40.063  
  21559226.845          36.527  
  20991636.090          40.714  
  24284465.007          32.333  
  20506865.691          32.983  
  19873488.155          39.123  
  23285023.208          26.099  
  23068798.503          29.355  
  22231989.906          34.162  
 18  4 19  8 38 34.9998848  0  9G 1G 7G 8G10G11G18G22G27G30
  20634782.330          40.133  
  21559406.722          37.820  
  20991787.488          41.234  
  24284692.244          29.133  
  20506648.331          34.539  
  19873414.707          39.745  
  23284459.898          25.178  
  23069227.202          29.129  
  22231881.976          34.572  
 18  4 19  8 38 35.9998848  0  9G 1G 7G 8G10G11G18G22G27G30
  20634418.075          39.108  
  21559607.888          39.558  
  20991937.071          42.039  
  24284931.486          31.995  
  20506405.197          34.323  
  19873340.369          39.374  
  23283923.862          25.947  
  23069652.307          28.958  
  22231755.462          33.417  
 18  4 19  8 38 36.9998848  0  9G 1G 7G 8G10G11G18G22G27G30
  20634047.833          38.193  
  21559796.752          39.714  
  20992091.174          41.804  
  24285150.923          34.099  
  20506185.464          33.604  
  19873259.418          38.547  
  23283353.065          24.346  
  23070092.401          29.993  
  22231644.549          32.205  
 18  4 19  8 38 37.9998848  0  9G 1G 7G 8G10G11G18G22G27G30
  20633676.091          38.390  
  21559994.027          37.591  
  20992245.870          42.316  
  24285379.067          33.860  
  20505950.723          35.013  
  19873186.266          37.424  
  23282802.040          23.567  
  23070524.102          35.089  
  22231518.628          33.112  
 18  4 19  8 38 38.9998848  0  9G 1G 7G 8G10G11G18G22G27G30
  20633310.056          37.945  
  21560179.592          34.722  
  20992393.063          40.948  
  24285621.904          36.078  
  20505729.472          34.495  
  19873115.820          36.888  
  23282235.135          23.246  
  23070943.815          40.815  
  22231399.007          34.863  
 18  4 19  8 38 39.9998848  0  9G 1G 7G 8G10G11G18G22G27G30
  20632938.610          38.428  
  21560370.550          38.743  
  20992545.351          41.352  
  24285845.843          34.386  
  20505497.436          33.324  
  19873034.275          38.460  
  23281688.315          23.315  
  23071377.907          43.896  
  22231290.798          34.760  
 18  4 19  8 38 40.9998848  0  9G 1G 7G 8G10G11G18G22G27G30
  20632575.855          38.808  
  21560561.525          38.997  
  20992696.749          40.212  
  24286073.394          33.615  
  20505265.994          32.658  
  19872964.422          37.808  
  23281171.474          23.751  
  23071817.704          43.812  
  22231181.961          36.255  
 18  4 19  8 38 41.9998848  0  9G 1G 7G 8G10G11G18G22G27G30
  20632203.816          39.087  
  21560762.395          38.559  
  20992850.852          40.406  
  24286335.112          31.678  
  20505027.362          33.595  
  19872880.783          37.528  
  23280582.686          23.221  
  23072242.809          44.453  
  22231055.150          36.318  
 18  4 19  8 38 42.9998848  0  9G 1G 7G 8G10G11G18G22G27G30
  20631840.171          39.144  
  21560942.568          37.760  
  20993004.030          39.343  
  24286562.646          30.348  
  20504803.110          33.506  
  19872808.539          37.022  
  23280034.051          22.798  
  23072679.902          43.664  
  22230943.033          34.024  
 18  4 19  8 38 43.9998848  0  8G 1G 7G 8G10G11G18G27G30
  20631472.321          39.404  
  21561144.624          40.629  
  20993151.536          38.907  
  24286778.801          32.720  
  20504578.264          33.434  
  19872737.778          36.705  
  23073108.619          43.640  
  22230806.031          33.742  
 18  4 19  8 38 44.9998848  0  8G 1G 7G 8G10G11G18G27G30
  20631107.175          38.747  
  21561336.786          41.188  
  20993302.324          40.051  
  24287039.926          31.441  
  20504342.930          33.207  
  19872658.642          36.567  
  23073544.805          44.843  
  22230699.305          35.586  
 18  4 19  8 38 45.9998848  0  8G 1G 7G 8G10G11G18G27G30
  20630735.136          38.474  
  21561514.865          38.563  
  20993457.317          41.033  
  24287255.472          30.596  
  20504108.800          33.994  
  19872590.586          35.939  
  23073973.208          43.259  
  22230588.671          35.547  
 18  4 19  8 38 46.9998848  0  8G 1G 7G 8G10G11G18G27G30
  20630362.487          35.628  
  21561716.032          40.421  
  20993608.715          40.289  
  24287507.592          29.793  
  20503888.142          33.224  
  19872505.743          35.403  
  23074408.207          42.881  
  22230462.157          37.673  
 18  4 19  8 38 47.9998848  0  8G 1G 7G 8G10G11G18G27G30
  20630005.735          38.173  
  21561907.286          40.260  
  20993756.518          41.339  
  24287699.161          32.567  
  20503660.295          32.912  
  19872434.685          36.946  
  23074846.504          40.745  
  22230350.947          40.107  
 18  4 19  8 38 48.9998848  0  8G 1G 7G 8G10G11G18G27G30
  20629630.101          40.601  
  21562100.966          39.519  
  20993908.509          41.610  
  24287961.787          31.005  
  20503419.866          32.712  
  19872358.550          36.291  
  23075288.099          35.643  
  22230238.812          42.134  
 18  4 19  8 38 49.9998848  0  8G 1G 7G 8G10G11G18G27G30
  20629262.844          41.902  
  21562298.817          44.005  
  20994066.207          41.574  
  24288204.013          28.547  
  20503195.316          33.418  
  19872289.884          35.496  
  23075755.782          30.537  
  22230115.910          40.486  
 18  4 19  8 38 50.9998848  0  8G 1G 7G 8G10G11G18G27G30
  20628893.510          39.449  
  21562484.103          41.734  
  20994210.102          41.194  
  24288485.817          25.772  
  20502962.094          35.377  
  19872209.246          35.416  
  23076193.783          26.701  
  22230003.775          39.044  
 18  4 19  8 38 51.9998848  0  8G 1G 7G 8G10G11G18G27G30
  20628537.054          39.654  
  21562677.469          42.012  
  20994369.893          40.036  
  24288720.557          24.013  
  20502744.734          36.837  
  19872135.205          35.617  
  23076598.488          25.105  
  22229881.466          40.173  
 18  4 19  8 38 52.9998848  0  8G 1G 7G 8G10G11G18G27G30
  20628166.813          39.782  
  21562867.537          41.973  
  20994517.697          39.503  
  24288933.118          23.242  
  20502504.305          37.555  
  19872059.959          35.311  
  23077057.481          24.358  
  22229775.037          39.412  
 18  4 19  8 38 53.9998848  0  8G 1G 7G 8G10G11G18G27G30
  20627798.073          40.774  
  21563059.698          43.227  
  20994675.080          38.977  
  24289189.741          22.877  
  20502278.255          36.368  
  19872002.095          34.818  
  23077483.179          23.525  
  22229656.917          41.647  
 18  4 19  8 38 54.9998848  0  8G 1G 7G 8G10G11G18G27G30
  20627431.723          40.850  
  21563256.362          42.779  
  20994821.679          39.097  
  24289428.669          22.897  
  20502043.829          35.134  
  19871919.049          35.908  
  23077917.882          21.352  
  22229537.906          39.323  
 18  4 19  8 38 55.9998848  0  7G 1G 7G 8G10G11G18G30
  20627068.078          42.348  
  21563444.633          44.384  
  20994975.765          39.375  
  24289633.430          24.617  
  20501818.983          36.601  
  19871844.397          35.471  
  22229418.582          38.208  
 18  4 19  8 38 56.9998848  0  7G 1G 7G 8G10G11G18G30
  20626700.820          41.386  
  21563640.389          40.890  
  20995129.274          39.342  
  24289874.470          23.291  
  20501597.732          35.763  
  19871769.745          36.955  
  22229310.966          42.796  
 18  4 19  8 38 57.9998848  0  7G 1G 7G 8G10G11G18G30
  20626330.283          38.515  
  21563830.160          42.153  
  20995283.656          38.955  
  24290112.194          21.361  
  20501361.787          35.942  
  19871699.892          36.819  
  22229192.846          38.402  
 18  4 19  8 38 58.9998848  0  7G 1G 7G 8G10G11G18G30
  20625968.731          35.954  
  21564026.528          44.589  
  20995434.461          38.845  
  24290358.330          22.770  
  20501133.050          35.741  
  19871625.850          36.075  
  22229083.119          35.814  
 18  4 19  8 38 59.9998848  0  7G 1G 7G 8G10G11G18G30
  20625599.991          37.364  
  21564222.284          41.460  
  20995589.454          38.467  
  24290593.070          24.269  
  20500901.607          38.303  
  19871555.107          34.929  
  22228961.107          40.523  
 18  4 19  8 39  0.9998848  0  7G 1G 7G 8G10G11G18G30
  20625235.735          39.473  
  21564412.963          44.588  
  20995736.647          39.026  
  24290813.711          25.301  
  20500672.277          34.357  
  19871480.159          34.400  
  22228853.177          40.692  
 18  4 19  8 39  1.9998848  0  7G 1G 7G 8G10G11G18G30
  20624868.792          38.683  
  21564606.922          43.686  
  20995890.732          39.398  
  24291078.430          24.426  
  20500446.820          31.547  
  19871408.194          35.956  
  22228742.560          40.023  
 18  4 19  8 39  2.9998848  0  7G 1G 7G 8G10G11G18G30
  20624500.645          37.655  
  21564805.680          41.186  
  20996042.741          39.453  
  24291262.495          30.040  
  20500222.585          33.141  
  19871331.762          38.120  
  22228625.330          34.758  
 18  4 19  8 39  3.9998848  0  7G 1G 7G 8G10G11G18G30
  20624137.296          36.972  
  21564998.749          37.899  
  20996197.123          38.273  
  24291504.739          33.138  
  20499991.736          33.709  
  19871261.909          35.358  
  22228508.116          37.796  
 18  4 19  8 39  4.9998848  0  7G 1G 7G 8G10G11G18G30
  20623771.854          38.925  
  21565181.627          38.308  
  20996345.223          35.357  
  24291741.277          29.320  
  20499752.214          33.235  
  19871188.461          32.284  
  22228392.404          36.362  
 18  4 19  8 39  5.9998848  0  7G 1G 7G 8G10G11G18G30
  20623406.708          40.078  
  21565392.077          39.995  
  20996503.811          38.782  
  24291989.489          29.309  
  20499539.356          33.718  
  19871112.605          34.928  
  22228283.270          36.087  
 18  4 19  8 39  6.9998848  0  9G 1G 7G 8G10G11G18G22G28G30
  20623037.060          38.104  
  21565572.250          39.167  
  20996657.303          38.126  
  24292218.540          27.681  
  20499303.115          34.087  
  19871042.455          33.980  
  23266727.179          39.714  
  23918308.083          30.328  
  22228172.357          34.037  
 18  4 19  8 39  7.9998848  0  9G 1G 7G 8G10G11G18G22G28G30
  20622677.306          36.568  
  21565779.105          38.480  
  20996806.013          38.038  
  24292465.269          28.356  
  20499086.069          33.620  
  19870973.806          33.794  
  23266174.652          34.860  
  23917755.871          28.490  
  22228058.721          34.058  
 18  4 19  8 39  8.9998848  0  9G 1G 7G 8G10G11G18G22G28G30
  20622303.767          35.717  
  21565972.175          40.499  
  20996956.504          38.086  
  24292682.611          32.378  
  20498850.736          33.741  
  19870895.559          35.071  
  23265620.643          33.464  
  23917230.637          27.559  
  22227949.901          33.128  
 18  4 19  8 39  9.9998848  0  9G 1G 7G 8G10G11G18G22G28G30
  20621951.220          38.151  
  21566177.546          41.409  
  20997108.792          38.198  
  24292916.462          33.086  
  20498619.887          35.318  
  19870831.708          34.856  
  23265079.808          31.399  
  23916663.138          25.413  
  22227824.591          31.173  
 18  4 19  8 39 10.9998848  0  9G 1G 7G 8G10G11G18G22G28G30
  20621582.759          39.336  
  21566346.621          38.518  
  20997262.895          38.714  
  24293142.198          32.433  
  20498389.352          34.287  
  19870751.961          34.386  
  23264518.906          29.004  
  23916093.825          26.043  
  22227720.867          29.383  
 18  4 19  8 39 11.9998848  0  9G 1G 7G 8G10G11G18G22G28G30
  20621214.629          39.978  
  21566565.465          38.128  
  20997415.776          35.617  
  24293412.310          32.569  
  20498149.219          32.322  
  19870677.606          35.204  
  23263964.286          29.751  
  23915532.905          26.200  
  22227596.151          29.568  
 18  4 19  8 39 12.9998848  0  9G 1G 7G 8G10G11G18G22G28G30
  20620849.483          40.830  
  21566736.355          37.163  
  20997564.173          36.155  
  24293608.677          31.748  
  20497943.255          33.502  
  19870615.256          34.873  
  23263412.963          26.981  
  23914976.802          25.450  
  22227485.830          29.619  
 18  4 19  8 39 13.9998848  0  9G 1G 7G 8G10G11G18G22G28G30
  20620484.023          39.243  
  21566934.223          35.728  
  20997721.277          35.127  
  24293875.194          29.747  
  20497706.717          32.931  
  19870541.197          33.611  
  23262867.644          25.725  
  23914395.203          26.634  
  22227368.006          29.923  
 18  4 19  8 39 14.9998848  0  9G 1G 7G 8G10G11G18G22G28G30
  20620125.177          39.134  
  21567146.766          37.969  
  20997869.063          37.564  
  24294119.218          28.232  
  20497483.075          32.214  
  19870467.749          35.086  
  23262309.726          25.519  
  23913856.777          27.669  
  22227248.996          29.725  
 18  4 19  8 39 15.9998848  0  9G 1G 7G 8G10G11G18G22G28G30
  20619755.529          38.596  
  21567328.440          37.189  
  20998027.965          39.101  
  24294331.779          26.529  
  20497253.744          32.589  
  19870399.693          35.616  
  23261766.204          25.770  
  23913287.463          27.914  
  22227146.162          30.681  
 18  4 19  8 39 16.9998848  0  9G 1G 7G 8G10G11G18G22G28G30
  20619393.088          38.639  
  21567519.416          37.671  
  20998178.159          38.316  
  24294562.017          27.866  
  20497034.883          34.410  
  19870316.665          36.000  
  23261210.694          24.984  
  23912737.049          25.893  
  22227031.043          31.729  
 18  4 19  8 39 17.9998848  0  9G 1G 7G 8G10G11G18G22G28G30
  20619023.737          38.604  
  21567731.663          38.160  
  20998324.147          37.988  
  24294802.150          25.337  
  20496799.847          32.911  
  19870264.489          34.915  
  23260665.060          23.811  
  23912167.735          24.829  
  22226908.717          32.156  
 18  4 19  8 39 18.9998848  0  9G 1G 7G 8G11G18G22G27G28G30
  20618659.184          38.123  
  21567912.133          36.287  
  20998481.845          37.630  
  20496575.000          31.767  
  19870176.348          34.649  
  23260096.968          28.217  
  23088258.619          40.995  
  23911615.820          23.699  
  22226803.195          33.003  
 18  4 19  8 39 19.9998848  0  9G 1G 7G 8G11G18G22G27G28G30
  20618296.743          37.980  
  21568107.610          36.942  
  20998638.932          37.071  
  20496344.169          30.988  
  19870117.890          34.601  
  23259545.035          25.555  
  23088690.023          40.056  
  23911029.737          22.939  
  22226682.981          30.998  
 18  4 19  8 39 20.9998848  0  9G 1G 7G 8G11G18G22G27G28G30
  20617930.097          35.825  
  21568299.772          35.613  
  20998788.533          37.213  
  20496114.821          29.642  
  19870038.142          35.965  
  23258987.728          23.292  
  23089124.429          39.832  
  23910486.215          25.867  
  22226570.252          30.550  
 18  4 19  8 39 21.9998848  0  9G 1G 7G 8G11G18G22G27G28G30
  20617569.453          36.358  
  21568496.732          36.516  
  20998940.821          37.114  
  20495888.788          30.196  
  19869971.291          35.561  
  23258441.501          23.142  
  23089553.722          40.590  
  23909915.401          28.818  
  22226461.136          29.591  
 18  4 19  8 39 22.9998848  0  9G 1G 7G 8G11G18G22G27G28G30
  20617206.401          39.427  
  21568702.994          40.820  
  20999089.531          39.724  
  20495659.143          35.070  
  19869896.953          37.365  
  23257879.691          24.733  
  23089991.426          39.428  
  23909352.387          26.399  
  22226349.018          32.746  
 18  4 19  8 39 23.9998848  0  9G 1G 7G 8G11G18G22G27G28G30
  20616842.145          38.396  
  21568887.356          36.158  
  20999244.524          37.892  
  20495437.002          33.290  
  19869827.099          36.081  
  23257324.181          27.025  
  23090420.422          37.183  
  23908794.486          25.850  
  22226240.478          32.915  
 18  4 19  8 39 24.9998848  0  9G 1G 7G 8G11G18G22G27G28G30
  20616481.205          39.345  
  21569094.525          37.696  
  20999399.203          36.557  
  20495200.761          32.292  
  19869754.245          36.414  
  23256796.539          26.074  
  23090856.032          37.877  
  23908234.770          27.961  
  22226129.861          32.375  
 18  4 19  8 39 25.9998848  0  9G 1G 7G 8G11G18G22G27G28G30
  20616112.150          41.303  
  21569286.686          38.114  
  20999542.818          34.744  
  20494981.604          34.293  
  19869688.597          36.199  
  23256208.362          27.677  
  23091282.637          37.696  
  23907675.351          28.256  
  22226002.143          33.709  
 18  4 19  8 39 26.9998848  0  9G 1G 7G 8G11G18G22G27G28G30
  20615752.711          40.956  
  21569480.349          38.802  
  20999706.798          34.309  
  20494752.273          36.164  
  19869619.634          35.697  
  23255660.041          33.307  
  23091718.526          37.993  
  23907147.412          24.830  
  22225898.716          34.731  
 18  4 19  8 39 27.9998848  0  9G 1G 7G 8G11G18G22G27G28G30
  20615385.454          40.421  
  21569679.421          38.238  
  20999859.086          33.332  
  20494528.020          34.394  
  19869550.095          36.713  
  23255110.220          41.851  
  23092149.930          34.636  
  23906544.228          24.763  
  22225784.207          32.849  
 18  4 19  8 39 28.9998848  0  9G 1G 7G 8G11G18G22G27G28G30
  20615026.904          40.733  
  21569873.677          36.652  
  21000007.797          34.159  
  20494304.675          35.199  
  19869476.647          35.408  
  23254552.894          42.436  
  23092597.214          31.445  
  23905999.816          25.982  
  22225678.668          35.068  
 18  4 19  8 39 29.9998848  0  9G 1G 7G 8G11G18G22G27G28G30
  20614664.463          38.994  
  21570058.352          36.289  
  21000163.086          34.699  
  20494081.033          35.087  
  19869405.886          34.322  
  23254004.277          41.612  
  23093046.610          28.084  
  23905460.779          26.526  
  22225558.454          35.185  
 18  4 19  8 39 30.9998848  0  9G 1G 7G 8G11G18G22G27G28G30
  20614298.113          37.280  
  21570258.018          36.079  
  21000313.874          33.989  
  20493850.201          35.393  
  19869346.538          33.807  
  23253444.265          40.170  
  23093475.309          25.786  
  23904897.172          26.149  
  22225445.743          34.295  
 18  4 19  8 39 31.9998848  0  9G 1G 7G 8G11G18G22G27G28G30
  20613938.656          35.900  
  21570460.964          45.222  
  21000470.367          31.666  
  20493619.946          35.618  
  19869263.492          34.894  
  23252901.336          38.988  
  23093950.479          24.447  
  23904299.991          25.833  
  22225331.217          38.923  
 18  4 19  8 39 32.9998848  0  9G 1G 7G 8G11G18G22G27G28G30
  20613570.805          41.715  
  21570654.644          44.442  
  21000636.458          30.269  
  20493393.913          37.608  
  19869204.127          35.822  
  23252346.419          39.859  
  23094372.285          26.593  
  23903742.072          30.400  
  22225226.882          39.734  
 18  4 19  8 39 33.9998848  0  9G 1G 7G 8G11G18G22G27G28G30
  20613208.364          42.262  
  21570850.104          43.271  
  21000784.855          30.853  
  20493171.161          39.494  
  19869132.773          35.799  
  23251797.802          38.408  
  23094794.092          24.727  
  23903185.061          34.456  
  22225115.969          43.038  
 18  4 19  8 39 34.9998848  0  9G 1G 7G 8G11G18G22G27G28G30
  20612852.816          42.715  
  21571045.564          40.380  
  21000937.143          29.933  
  20492937.328          40.608  
  19869061.733          35.670  
  23251248.888          38.646  
  23095248.583          22.994  
  23902619.953          37.291  
  22224994.253          42.304  
 18  4 19  8 39 35.9998848  0  9G 1G 7G 8G11G18G22G27G28G30
  20612490.654          41.386  
  21571253.623          38.819  
  21001081.352          29.709  
  20492716.373          39.615  
  19868990.082          35.605  
  23250696.065          38.836  
  23095655.103          21.068  
  23902062.332          34.695  
  22224891.716          43.152  
 18  4 19  8 39 36.9998848  0  8G 1G 7G 8G11G18G22G28G30
  20612122.211          42.670  
  21571439.188          39.487  
  21001242.941          30.563  
  20492484.338          36.683  
  19868925.028          36.384  
  23250144.149          37.501  
  23901499.021          35.228  
  22224769.704          43.084  
 18  4 19  8 39 37.9998848  0  8G 1G 7G 8G11G18G22G28G30
  20611763.364          42.938  
  21571639.464          42.830  
  21001397.323          30.635  
  20492258.898          36.028  
  19868862.957          33.465  
  23249589.529          34.797  
  23900934.524          32.251  
  22224660.884          40.680  
 18  4 19  8 39 38.9998848  0  8G 1G 7G 8G11G18G22G28G30
  20611406.612          37.303  
  21571833.720          46.952  
  21001558.022          28.709  
  20492039.741          35.988  
  19868787.415          34.324  
  23249041.208          34.767  
  23900376.309          34.325  
  22224552.361          43.990  
 18  4 19  8 39 39.9998848  0  8G 1G 7G 8G11G18G22G28G30
  20611040.262          42.201  
  21572035.480          45.659  
  21001703.120          28.720  
  20491811.911          39.651  
  19868721.454          33.161  
  23248490.794          34.237  
  23899815.389          34.610  
  22224437.836          43.384  
 18  4 19  8 39 40.9998848  0  8G 1G 7G 8G11G18G22G28G30
  20610676.320          43.501  
  21572229.142          45.373  
  21001850.906          29.482  
  20491584.971          40.182  
  19868654.916          34.336  
  23247942.769          38.101  
  23899258.972          34.188  
  22224323.310          40.994  
 18  4 19  8 39 41.9998848  0  8G 1G 7G 8G11G18G22G28G30
  20610320.161          43.463  
  21572430.012          44.916  
  21001995.412          27.897  
  20491356.513          40.070  
  19868583.562          35.796  
  23247392.355          38.915  
  23898699.273          33.880  
  22224215.380          42.742  
 18  4 19  8 39 42.9998848  0  8G 1G 7G 8G11G18G22G28G30
  20609954.422          42.292  
  21572628.176          44.196  
  21002167.488          28.014  
  20491132.278          39.542  
  19868511.615          36.027  
  23246838.049          41.742  
  23898136.556          32.655  
  22224099.965          41.847  
 18  4 19  8 39 43.9998848  0  8G 1G 7G 8G11G18G22G28G30
  20609595.873          42.939  
  21572826.027          41.241  
  21002312.587          27.009  
  20490907.431          41.080  
  19868453.750          36.369  
  23246287.913          42.242  
  23897577.451          32.078  
  22223995.333          38.051  
 18  4 19  8 39 44.9998848  0  8G 1G 7G 8G11G18G22G28G30
  20609230.413          41.819  
  21573024.802          42.659  
  21002465.485          27.883  
  20490684.994          40.846  
  19868383.600          35.370  
  23245736.608          44.074  
  23897019.533          33.394  
  22223883.809          40.675  
 18  4 19  8 39 45.9998848  0  8G 1G 7G 8G11G18G22G28G30
  20608870.659          42.458  
  21573218.168          44.858  
  21002608.193          27.836  
  20490454.441          39.978  
  19868314.340          35.039  
  23245181.988          41.883  
  23896456.816          33.011  
  22223770.487          41.791  
 18  4 19  8 39 46.9998848  0  8G 1G 7G 8G11G18G22G28G30
  20608511.220          44.538  
  21573419.020          42.150  
  21002764.373          29.052  
  20490235.895          40.242  
  19868249.582          33.318  
  23244633.964          42.533  
  23895892.912          35.613  
  22223658.980          40.613  
 18  4 19  8 39 47.9998848  0  8G 1G 7G 8G11G18G22G28G30
  20608153.263          45.037  
  21573620.186          37.510  
  21002925.962          28.476  
  20490006.861          41.629  
  19868190.531          32.890  
  23244085.346          43.530  
  23895333.790          34.638  
  22223549.253          38.505  
 18  4 19  8 39 48.9998848  0  8G 1G 7G 8G11G18G22G28G30
  20607788.117          45.452  
  21573813.552          38.987  
  21003092.350          27.627  
  20489783.515          41.894  
  19868114.675          32.620  
  23243532.820          40.743  
  23894764.494          35.447  
  22223438.322          40.508  
 18  4 19  8 39 49.9998848  0  8G 1G 7G 8G11G18G22G28G30
  20607428.957          45.258  
  21574014.718          42.201  
  21003225.460          27.099  
  20489557.465          41.547  
  19868048.137          36.354  
  23242984.517          40.367  
  23894220.361          31.722  
  22223330.096          40.643  
 18  4 19  8 39 50.9998848  0  8G 1G 7G 8G11G18G22G28G30
  20607067.423          44.757  
  21574210.475          41.858  
  21003377.451          26.808  
  20489330.228          40.989  
  19867976.486          34.340  
  23242428.989          40.059  
  23893654.066          31.119  
  22223214.680          39.940  
 18  4 19  8 39 51.9998848  0  8G 1G 7G 8G11G18G22G28G30
  20606708.263          43.991  
  21574409.233          45.284  
  21003544.136          27.446  
  20489107.476          40.829  
  19867914.713          34.628  
  23241882.466          42.580  
  23893075.452          30.445  
  22223110.345          42.521  
 18  4 19  8 39 52.9998848  0  8G 1G 7G 8G11G18G22G28G30
  20606344.618          45.672  
  21574608.305          42.684  
  21003688.641          28.081  
  20488884.131          42.227  
  19867840.375          37.216  
  23241329.050          42.280  
  23892521.739          31.844  
  22222995.540          40.709  
 18  4 19  8 39 53.9998848  0  8G 1G 7G 8G11G18G22G28G30
  20605989.663          46.060  
  21574810.954          41.429  
  21003855.919          29.467  
  20488657.784          42.224  
  19867773.523          36.806  
  23240775.040          36.960  
  23891966.526          34.565  
  22222890.001          41.058  
 18  4 19  8 39 54.9998848  0  9G 1G 7G 8G10G11G18G22G28G30
  20605626.018          43.578  
  21575010.620          44.734  
  21003993.531          35.105  
  24303664.016          28.597  
  20488437.144          39.556  
  19867716.862          33.490  
  23240227.609          32.436  
  23891403.512          32.418  
  22222774.586          43.619  
 18  4 19  8 39 55.9998848  0  9G 1G 7G 8G10G11G18G22G28G30
  20605269.266          44.300  
  21575203.985          42.807  
  21004152.119          34.796  
  24303926.642          27.921  
  20488214.095          40.619  
  19867641.913          32.123  
  23239714.678          27.559  
  23890862.991          29.731  
  22222669.658          43.201  
 18  4 19  8 39 56.9998848  0  9G 1G 7G 8G10G11G18G22G28G30
  20604903.806          45.838  
  21575411.137          40.091  
  21004314.615          33.115  
  24304133.183          28.277  
  20487984.747          42.821  
  19867583.455          36.809  
  23239193.928          24.901  
  23890286.192          31.305  
  22222558.430          41.884  
 18  4 19  8 39 57.9998848  0  9G 1G 7G 8G10G11G18G22G28G30
  20604548.851          45.797  
  21575609.005          40.402  
  21004451.914          32.387  
  24304405.999          28.037  
  20487761.105          42.264  
  19867508.803          35.718  
  23238632.415          21.898  
  23889718.379          30.587  
  22222447.813          40.748  
 18  4 19  8 39 58.9998848  0  9G 1G 7G 8G10G11G18G22G28G30
  20604187.003          45.616  
  21575803.575          41.528  
  21004605.109          30.901  
  24304642.240          28.173  
  20487535.666          41.765  
  19867448.844          36.080  
  23238030.435          21.988  
  23889176.358          28.151  
  22222339.883          39.134  
 18  4 19  8 39 59.9998848  0  9G 1G 7G 8G10G11G18G22G28G30
  20603827.564          46.098  
  21576006.538          41.264  
  21004762.196          31.159  
  24304864.085          29.290  
  20487315.322          41.966  
  19867382.882          37.165  
  23237463.530          21.376  
  23888613.641          28.795  
  22222233.158          40.221  
 18  4 19  8 40  0.9998848  0 10G 1G 7G 8G10G11G18G22G27G28G30
  20603468.700          45.795  
  21576205.296          39.891  
  21004921.988          30.908  
  24305120.115          30.552  
  20487091.680          42.550  
  19867314.844          36.307  
  23236937.388          23.089  
  23106491.409          25.676  
  23888046.736          28.209  
  22222124.042          38.927  
 18  4 19  8 40  1.9998848  0 10G 1G 7G 8G10G11G18G22G27G28G30
  20603112.262          44.660  
  21576409.446          41.883  
  21005081.779          30.907  
  24305345.554          29.344  
  20486866.223          42.679  
  19867250.679          36.797  
  23236400.759          20.196  
  23106932.690          28.149  
  23887482.239          28.099  
  22222020.300          38.606  
 18  4 19  8 40  2.9998848  0 10G 1G 7G 8G10G11G18G22G27G28G30
  20602753.101          44.982  
  21576606.721          42.752  
  21005230.472          32.653  
  24305614.462          27.656  
  20486642.581          42.590  
  19867184.124          37.932  
  23235865.334          19.611  
  23107341.619          24.968  
  23886929.416          31.744  
  22221906.088          39.038  
 18  4 19  8 40  3.9998848  0 10G 1G 7G 8G10G11G18G22G27G28G30
  20602394.552          44.465  
  21576807.277          42.451  
  21005398.361          29.974  
  24305854.001          29.249  
  20486422.830          41.947  
  19867122.368          38.930  
  23235326.018          19.529  
  23107809.895          26.907  
  23886374.795          28.243  
  22221801.160          40.167  
 18  4 19  8 40  4.9998848  0 10G 1G 7G 8G10G11G18G22G27G28G30
  20602032.407          45.785  
  21577008.443          41.170  
  21005535.956          30.843  
  24306083.349          27.970  
  20486195.297          41.879  
  19867054.015          38.452  
  23234764.191          19.987  
  23108243.987          29.648  
  23885807.593          26.562  
  22221689.932          40.847  
 18  4 19  8 40  5.9998848  0 10G 1G 7G 8G10G11G18G22G27G28G30
  20601674.748          45.536  
  21577203.606          42.128  
  21005686.761          29.793  
  24306326.169          27.573  
  20485974.639          40.875  
  19866991.963          37.617  
  23234217.685          18.373  
  23108633.423          28.295  
  23885244.580          33.731  
  22221585.004          41.357  
 18  4 19  8 40  6.9998848  0  9G 1G 7G 8G10G11G18G22G27G30
  20601318.589          45.401  
  21577408.960          43.469  
  21005850.147          31.726  
  24306569.896          26.852  
  20485750.107          39.718  
  19866922.999          38.245  
  23233666.362          16.843  
  23109084.913          28.317  
  22221471.386          39.974  
 18  4 19  8 40  7.9998848  0  9G 1G 7G 8G10G11G18G22G27G30
  20600955.851          45.055  
  21577609.515          43.583  
  21006019.519          30.510  
  24306837.617          25.449  
  20485526.762          39.249  
  19866860.946          36.677  
  23233076.667          18.643  
  23109531.289          27.823  
  22221365.568          38.679  
 18  4 19  8 40  8.9998848  0  9G 1G 7G 8G10G11G18G22G27G30
  20600596.394          44.927  
  21577811.589          43.796  
  21006160.133          30.152  
  24307065.761          28.462  
  20485300.415          40.016  
  19866794.688          37.873  
  23232567.627          21.132  
  23109970.791          26.362  
  22221258.232          37.371  
 18  4 19  8 40  9.9998848  0  9G 1G 7G 8G10G11G18G22G27G30
  20600240.846          45.059  
  21578009.439          39.643  
  21006310.624          27.449  
  24307294.796          27.725  
  20485082.758          40.263  
  19866729.947          38.374  
  23232028.886          19.639  
  23110363.525          25.866  
  22221151.506          36.481  
 18  4 19  8 40 10.9998848  0  9G 1G 7G 8G10G11G18G22G27G30
  20599881.092          44.823  
  21578202.805          34.442  
  21006467.414          27.483  
  24307540.634          29.003  
  20484855.225          39.607  
  19866668.191          39.464  
  23231489.273          17.294  
  23110835.397          24.456  
  22221043.280          36.943  
 18  4 19  8 40 11.9998848  0  9G 1G 7G 8G10G11G18G22G27G30
  20599521.042          44.023  
  21578411.772          35.324  
  21006613.420          29.644  
  24307780.470          28.785  
  20484635.771          39.533  
  19866603.433          39.965  
  23230922.961          15.184  
  23111262.595          24.624  
  22220929.958          37.854  
