     2.11           OBSERVATION DATA    G (GPS)             RINEX VERSION / TYPE
AndroidGNSSReceiver RITSUMEIKAN KUBOLAB 1530088899475       PGM / RUN BY / DATE
flounder                                                    MARKER NAME
GRitzLogger         KUBOLAB                                 OBSERVER / AGENCY
0                   Android Receiver                        REC # / TYPE / VERS
0                   Android Anttena                         ANT # / TYPE
        0.0000        0.0000        0.0000                  APPROX POSITION XYZ
        0.0000        0.0000        0.0000                  ANTENNA: DELTA H/E/N
1     0                                                     WAVELENGTH FACT L1/2
2         C1    S1                                          # / TYPES OF OBSERV
1.000                                                       INTERVAL
  2018     6    27     8    39   11.9999383     GPS         TIME OF FIRST OBS
                                                            END OF HEADER
 18  6 27  8 39 11.9999383  0  8G 2G 3G 6G 9G17G19G23G28
  24506397.766          28.647  %2018/06/27/05:41.39
  23077591.720          22.798  %2018/06/27/05:41.39
  21166202.833          31.088  %2018/06/27/05:41.39
  21810225.088          44.709  %2018/06/27/05:41.39
  20385320.841          35.144  %2018/06/27/05:41.39
  20400931.631          33.321  %2018/06/27/05:41.39
  22502927.344          39.970  %2018/06/27/05:41.39
  23728939.402          39.436  %2018/06/27/05:41.39
 18  6 27  8 39 12.9999383  0  8G 2G 3G 6G 9G17G19G23G28
  24505964.268          29.702  %2018/06/27/05:41.40
  23078168.816          23.683  %2018/06/27/05:41.40
  21165921.640          30.864  %2018/06/27/05:41.40
  21809780.509          44.623  %2018/06/27/05:41.40
  20385291.454          33.884  %2018/06/27/05:41.40
  20400711.287          34.446  %2018/06/27/05:41.40
  22502893.176          39.148  %2018/06/27/05:41.40
  23729522.187          38.958  %2018/06/27/05:41.40
 18  6 27  8 39 13.9999383  0  8G 2G 3G 6G 9G17G19G23G28
  24505550.262          29.345  %2018/06/27/05:41.41
  23078695.551          27.074  %2018/06/27/05:41.41
  21165694.386          30.326  %2018/06/27/05:41.41
  21809338.303          44.949  %2018/06/27/05:41.41
  20385299.255          36.501  %2018/06/27/05:41.41
  20400501.727          32.777  %2018/06/27/05:41.41
  22502858.398          40.766  %2018/06/27/05:41.41
  23730109.492          39.313  %2018/06/27/05:41.41
 18  6 27  8 39 14.9999383  0  8G 2G 3G 6G 9G17G19G23G28
  24505128.752          31.899  %2018/06/27/05:41.42
  23079296.327          29.487  %2018/06/27/05:41.42
  21165409.598          29.375  %2018/06/27/05:41.42
  21808887.425          45.636  %2018/06/27/05:41.42
  20385310.650          41.040  %2018/06/27/05:41.42
  20400289.777          31.686  %2018/06/27/05:41.42
  22502815.820          40.640  %2018/06/27/05:41.42
  23730698.576          40.058  %2018/06/27/05:41.42
 18  6 27  8 39 15.9999383  0  8G 2G 3G 6G 9G17G19G23G28
  24504624.807          32.864  %2018/06/27/05:41.43
  23079818.874          28.321  %2018/06/27/05:41.43
  21165151.475          31.084  %2018/06/27/05:41.43
  21808441.921          45.199  %2018/06/27/05:41.43
  20385317.228          40.053  %2018/06/27/05:41.43
  20400068.229          32.044  %2018/06/27/05:41.43
  22502760.956          40.187  %2018/06/27/05:41.43
  23731293.070          42.207  %2018/06/27/05:41.43
 18  6 27  8 39 16.9999383  0  8G 2G 3G 6G 9G17G19G23G28
  24504211.394          35.648  %2018/06/27/05:41.44
  23080377.385          26.736  %2018/06/27/05:41.44
  21164881.660          30.148  %2018/06/27/05:41.44
  21807998.528          45.082  %2018/06/27/05:41.44
  20385316.635          39.646  %2018/06/27/05:41.44
  20399848.478          32.002  %2018/06/27/05:41.44
  22502721.990          40.448  %2018/06/27/05:41.44
  23731883.952          42.300  %2018/06/27/05:41.44
 18  6 27  8 39 17.9999383  0  8G 2G 3G 6G 9G17G19G23G28
  24503763.796          34.455  %2018/06/27/05:41.45
  23080994.058          26.803  %2018/06/27/05:41.45
  21164616.940          28.773  %2018/06/27/05:41.45
  21807554.245          44.466  %2018/06/27/05:41.45
  20385332.532          37.959  %2018/06/27/05:41.45
  20399650.017          32.253  %2018/06/27/05:41.45
  22502674.612          40.385  %2018/06/27/05:41.45
  23732475.444          38.538  %2018/06/27/05:41.45
 18  6 27  8 39 18.9999383  0  8G 2G 3G 6G 9G17G19G23G28
  24503296.426          35.493  %2018/06/27/05:41.46
  23081555.572          28.834  %2018/06/27/05:41.46
  21164356.111          29.394  %2018/06/27/05:41.46
  21807113.243          44.566  %2018/06/27/05:41.46
  20385332.532          39.921  %2018/06/27/05:41.46
  20399421.873          33.178  %2018/06/27/05:41.46
  22502624.251          40.839  %2018/06/27/05:41.46
  23733056.746          42.850  %2018/06/27/05:41.46
 18  6 27  8 39 19.9999383  0  8G 2G 3G 6G 9G17G19G23G28
  24502866.523          35.739  %2018/06/27/05:41.47
  23082108.691          26.421  %2018/06/27/05:41.47
  21164098.302          29.416  %2018/06/27/05:41.47
  21806664.755          44.181  %2018/06/27/05:41.47
  20385348.115          38.972  %2018/06/27/05:41.47
  20399215.018          32.635  %2018/06/27/05:41.47
  22502587.675          39.991  %2018/06/27/05:41.47
  23733651.833          43.914  %2018/06/27/05:41.47
 18  6 27  8 39 20.9999383  0  8G 2G 3G 6G 9G17G19G23G28
  24502433.321          37.980  %2018/06/27/05:41.48
  23082719.361          30.697  %2018/06/27/05:41.48
  21163821.890          31.297  %2018/06/27/05:41.48
  21806216.564          44.468  %2018/06/27/05:41.48
  20385340.018          40.434  %2018/06/27/05:41.48
  20398998.566          33.842  %2018/06/27/05:41.48
  22502556.806          41.858  %2018/06/27/05:41.48
  23734235.822          44.225  %2018/06/27/05:41.48
 18  6 27  8 39 21.9999383  0  8G 2G 3G 6G 9G17G19G23G28
  24501962.340          38.174  %2018/06/27/05:41.49
  23083290.769          30.521  %2018/06/27/05:41.49
  21163572.160          31.264  %2018/06/27/05:41.49
  21805779.471          43.442  %2018/06/27/05:41.49
  20385350.820          40.031  %2018/06/27/05:41.49
  20398780.612          32.552  %2018/06/27/05:41.49
  22502499.534          39.603  %2018/06/27/05:41.49
  23734827.612          42.310  %2018/06/27/05:41.49
 18  6 27  8 39 22.9999383  0  8G 2G 3G 6G 9G17G19G23G28
  24501525.247          38.675  %2018/06/27/05:41.50
  23083830.696          29.441  %2018/06/27/05:41.50
  21163311.349          30.327  %2018/06/27/05:41.50
  21805334.578          44.116  %2018/06/27/05:41.50
  20385351.710          39.387  %2018/06/27/05:41.50
  20398559.972          34.282  %2018/06/27/05:41.50
  22502468.665          41.515  %2018/06/27/05:41.50
  23735412.508          46.332  %2018/06/27/05:41.50
 18  6 27  8 39 23.9999383  0  8G 2G 3G 6G 9G17G19G23G28
  24501072.553          38.972  %2018/06/27/05:41.51
  23084394.006          27.884  %2018/06/27/05:41.51
  21163047.223          31.762  %2018/06/27/05:41.51
  21804884.589          44.917  %2018/06/27/05:41.51
  20385364.309          40.730  %2018/06/27/05:41.51
  20398357.008          34.198  %2018/06/27/05:41.51
  22502414.395          40.699  %2018/06/27/05:41.51
  23736001.907          45.895  %2018/06/27/05:41.51
 18  6 27  8 39 24.9999383  0  8G 2G 3G 6G 9G17G19G23G28
  24500636.368          39.562  %2018/06/27/05:41.52
  23084981.904          29.324  %2018/06/27/05:41.52
  21162781.613          32.156  %2018/06/27/05:41.52
  21804444.494          44.494  %2018/06/27/05:41.52
  20385365.496          40.101  %2018/06/27/05:41.52
  20398141.463          34.120  %2018/06/27/05:41.52
  22502387.417          41.451  %2018/06/27/05:41.52
  23736593.992          45.281  %2018/06/27/05:41.52
 18  6 27  8 39 25.9999383  0  8G 2G 3G 6G 9G17G19G23G28
  24500197.163          39.076  %2018/06/27/05:41.53
  23085554.795          30.615  %2018/06/27/05:41.53
  21162516.300          31.450  %2018/06/27/05:41.53
  21803996.914          44.919  %2018/06/27/05:41.53
  20385377.187          39.769  %2018/06/27/05:41.53
  20397915.413          33.734  %2018/06/27/05:41.53
  22502331.960          42.437  %2018/06/27/05:41.53
  23737181.890          41.904  %2018/06/27/05:41.53
 18  6 27  8 39 26.9999383  0  8G 2G 3G 6G 9G17G19G23G28
  24499766.055          36.526  %2018/06/27/05:41.54
  23086107.025          29.202  %2018/06/27/05:41.54
  21162253.081          31.696  %2018/06/27/05:41.54
  21803556.505          45.145  %2018/06/27/05:41.54
  20385384.691          39.503  %2018/06/27/05:41.54
  20397711.856          34.341  %2018/06/27/05:41.54
  22502292.086          41.370  %2018/06/27/05:41.54
  23737771.882          39.344  %2018/06/27/05:41.54
 18  6 27  8 39 27.9999383  0  8G 2G 3G 6G 9G17G19G23G28
  24499348.454          34.991  %2018/06/27/05:41.55
  23086682.917          29.897  %2018/06/27/05:41.55
  21161985.953          31.618  %2018/06/27/05:41.55
  21803112.816          45.095  %2018/06/27/05:41.55
  20385386.785          39.304  %2018/06/27/05:41.55
  20397492.402          34.903  %2018/06/27/05:41.55
  22502245.913          41.667  %2018/06/27/05:41.55
  23738358.576          38.034  %2018/06/27/05:41.55
 18  6 27  8 39 28.9999383  0  8G 2G 3G 6G 9G17G19G23G28
  24498848.104          32.308  %2018/06/27/05:41.56
  23087244.726          34.022  %2018/06/27/05:41.56
  21161730.237          31.104  %2018/06/27/05:41.56
  21802669.423          43.200  %2018/06/27/05:41.56
  20385392.491          39.638  %2018/06/27/05:41.56
  20397277.154          34.898  %2018/06/27/05:41.56
  22502213.246          41.129  %2018/06/27/05:41.56
  23738947.067          34.596  %2018/06/27/05:41.56
 18  6 27  8 39 29.9999383  0  8G 2G 3G 6G 9G17G19G23G28
  24498461.058          33.431  %2018/06/27/05:41.57
  23087831.420          32.258  %2018/06/27/05:41.57
  21161468.816          33.613  %2018/06/27/05:41.57
  21802222.139          42.980  %2018/06/27/05:41.57
  20385401.478          39.718  %2018/06/27/05:41.57
  20397072.707          35.182  %2018/06/27/05:41.57
  22502165.275          40.828  %2018/06/27/05:41.57
  23739538.263          33.092  %2018/06/27/05:41.57
 18  6 27  8 39 30.9999383  0  8G 2G 3G 6G 9G17G19G23G28
  24497976.605          33.350  %2018/06/27/05:41.58
  23088385.744          35.341  %2018/06/27/05:41.58
  21161210.989          34.301  %2018/06/27/05:41.58
  21801777.246          44.869  %2018/06/27/05:41.58
  20385410.465          40.103  %2018/06/27/05:41.58
  20396856.255          35.177  %2018/06/27/05:41.58
  22502128.700          40.436  %2018/06/27/05:41.58
  23740130.646          31.546  %2018/06/27/05:41.58
 18  6 27  8 39 31.9999383  0  8G 2G 3G 6G 9G17G19G23G28
  24497534.399          35.618  %2018/06/27/05:41.59
  23088965.248          33.028  %2018/06/27/05:41.59
  21160938.783          31.951  %2018/06/27/05:41.59
  21801334.447          42.906  %2018/06/27/05:41.59
  20385414.374          42.833  %2018/06/27/05:41.59
  20396639.506          34.776  %2018/06/27/05:41.59
  22502087.622          41.164  %2018/06/27/05:41.59
  23740723.639          29.689  %2018/06/27/05:41.59
 18  6 27  8 39 32.9999383  0  8G 2G 3G 6G 9G17G19G23G28
  24497088.913          33.240  %2018/06/27/05:42.00
  23089536.952          31.647  %2018/06/27/05:42.00
  21160685.755          30.929  %2018/06/27/05:42.00
  21800893.759          42.679  %2018/06/27/05:42.00
  20385428.159          42.996  %2018/06/27/05:42.00
  20396423.053          34.323  %2018/06/27/05:42.00
  22502041.763          40.899  %2018/06/27/05:42.00
  23741308.239          31.008  %2018/06/27/05:42.00
 18  6 27  8 39 33.9999383  0  8G 2G 3G 6G 9G17G19G23G28
  24496772.942          30.011  %2018/06/27/05:42.01
  23090110.454          34.382  %2018/06/27/05:42.01
  21160430.632          31.026  %2018/06/27/05:42.01
  21800450.960          43.893  %2018/06/27/05:42.01
  20385427.252          40.282  %2018/06/27/05:42.01
  20396225.185          34.827  %2018/06/27/05:42.01
  22502002.779          41.751  %2018/06/27/05:42.01
  23741903.029          28.343  %2018/06/27/05:42.01
 18  6 27  8 39 34.9999383  0  8G 2G 3G 6G 9G17G19G23G28
  24496325.047          26.788  %2018/06/27/05:42.02
  23090676.155          32.623  %2018/06/27/05:42.02
  21160166.820          31.810  %2018/06/27/05:42.02
  21800006.660          45.105  %2018/06/27/05:42.02
  20385435.663          41.060  %2018/06/27/05:42.02
  20395995.837          35.092  %2018/06/27/05:42.02
  22501960.218          42.085  %2018/06/27/05:42.02
  23742482.813          24.345  %2018/06/27/05:42.02
 18  6 27  8 39 35.9999383  0  8G 2G 3G 6G 9G17G19G23G28
  24495859.475          29.278  %2018/06/27/05:42.03
  23091232.276          33.582  %2018/06/27/05:42.03
  21159896.115          30.594  %2018/06/27/05:42.03
  21799564.471          45.368  %2018/06/27/05:42.03
  20385447.355          40.387  %2018/06/27/05:42.03
  20395791.983          35.703  %2018/06/27/05:42.03
  22501928.441          40.649  %2018/06/27/05:42.03
  23743109.991          21.852  %2018/06/27/05:42.03
 18  6 27  8 39 36.9999383  0  9G 2G 3G 6G 9G12G17G19G23G28
  24495425.366          28.957  %2018/06/27/05:42.04
  23091813.263          34.131  %2018/06/27/05:42.04
  21159644.884          29.527  %2018/06/27/05:42.04
  21799117.781          45.052  %2018/06/27/05:42.04
  24072720.697          34.690  %2018/06/27/05:42.04
  20385456.045          39.723  %2018/06/27/05:42.04
  20395580.330          35.394  %2018/06/27/05:42.04
  22501886.473          40.379  %2018/06/27/05:42.04
  23743672.987          21.094  %2018/06/27/05:42.04
 18  6 27  8 39 37.9999383  0  9G 2G 3G 6G 9G12G17G19G23G28
  24494977.786          25.855  %2018/06/27/05:42.05
  23092394.565          33.992  %2018/06/27/05:42.05
  21159384.056          30.372  %2018/06/27/05:42.05
  21798678.593          45.933  %2018/06/27/05:42.05
  24072384.327          36.064  %2018/06/27/05:42.05
  20385463.828          39.919  %2018/06/27/05:42.05
  20395370.770          33.592  %2018/06/27/05:42.05
  22501842.394          41.910  %2018/06/27/05:42.05
  23744295.663          20.270  %2018/06/27/05:42.05
 18  6 27  8 39 38.9999383  0  9G 2G 3G 6G 9G12G17G19G23G28
  24494568.560          24.406  %2018/06/27/05:42.06
  23092954.577          31.790  %2018/06/27/05:42.06
  21159112.443          29.847  %2018/06/27/05:42.06
  21798231.589          46.233  %2018/06/27/05:42.06
  24072068.652          36.801  %2018/06/27/05:42.06
  20385471.925          39.172  %2018/06/27/05:42.06
  20395155.522          34.263  %2018/06/27/05:42.06
  22501807.022          42.331  %2018/06/27/05:42.06
  23744821.508          20.533  %2018/06/27/05:42.06
 18  6 27  8 39 39.9999383  0  9G 2G 3G 6G 9G12G17G19G23G28
  24494108.084          26.349  %2018/06/27/05:42.07
  23093521.779          31.638  %2018/06/27/05:42.07
  21158860.619          31.346  %2018/06/27/05:42.07
  21797791.494          46.416  %2018/06/27/05:42.07
  24071737.081          34.600  %2018/06/27/05:42.07
  20385474.333          41.053  %2018/06/27/05:42.07
  20394945.369          33.232  %2018/06/27/05:42.07
  22501752.752          41.014  %2018/06/27/05:42.07
  23745419.283          19.500  %2018/06/27/05:42.07
 18  6 27  8 39 40.9999383  0  9G 2G 3G 6G 9G12G17G19G23G28
  24493647.590          24.801  %2018/06/27/05:42.08
  23094088.998          31.631  %2018/06/27/05:42.08
  21158593.212          32.813  %2018/06/27/05:42.08
  21797344.507          46.771  %2018/06/27/05:42.08
  24071422.593          31.812  %2018/06/27/05:42.08
  20385484.820          41.192  %2018/06/27/05:42.08
  20394725.618          32.371  %2018/06/27/05:42.08
  22501714.990          39.926  %2018/06/27/05:42.08
  23746033.862          20.030  %2018/06/27/05:42.08
 18  6 27  8 39 41.9999383  0  9G 2G 3G 6G 9G12G17G19G23G28
  24493230.286          25.691  %2018/06/27/05:42.09
  23094660.406          33.678  %2018/06/27/05:42.09
  21158336.886          32.847  %2018/06/27/05:42.09
  21796902.022          46.393  %2018/06/27/05:42.09
  24071138.695          30.323  %2018/06/27/05:42.09
  20385487.822          39.628  %2018/06/27/05:42.09
  20394520.857          33.552  %2018/06/27/05:42.09
  22501670.614          38.447  %2018/06/27/05:42.09
  23746614.256          17.404  %2018/06/27/05:42.09
 18  6 27  8 39 42.9999383  0  9G 2G 3G 6G 9G12G17G19G23G28
  24492805.478          22.554  %2018/06/27/05:42.10
  23095230.295          32.358  %2018/06/27/05:42.10
  21158066.180          28.380  %2018/06/27/05:42.10
  21796464.318          46.568  %2018/06/27/05:42.10
  24070810.422          29.980  %2018/06/27/05:42.10
  20385502.515          41.727  %2018/06/27/05:42.10
  20394310.704          33.522  %2018/06/27/05:42.10
  22501626.849          39.042  %2018/06/27/05:42.10
  23747215.347          19.511  %2018/06/27/05:42.10
 18  6 27  8 39 43.9999383  0  9G 2G 3G 6G 9G12G17G19G23G28
  24492327.918          23.653  %2018/06/27/05:42.11
  23095809.206          32.993  %2018/06/27/05:42.11
  21157852.119          23.838  %2018/06/27/05:42.11
  21796018.221          45.587  %2018/06/27/05:42.11
  24070482.445          27.085  %2018/06/27/05:42.11
  20385505.813          38.604  %2018/06/27/05:42.11
  20394156.915          28.209  %2018/06/27/05:42.11
  22501585.474          40.371  %2018/06/27/05:42.11
  23747809.527          18.581  %2018/06/27/05:42.11
 18  6 27  8 39 44.9999383  0  9G 2G 3G 6G 9G12G17G19G23G28
  24491880.023          26.168  %2018/06/27/05:42.12
  23096369.812          32.355  %2018/06/27/05:42.12
  21157581.117          20.551  %2018/06/27/05:42.12
  21795577.829          45.040  %2018/06/27/05:42.12
  24070181.167          25.247  %2018/06/27/05:42.12
  20385535.182          33.676  %2018/06/27/05:42.12
  20393899.088          23.838  %2018/06/27/05:42.12
  22501549.195          39.974  %2018/06/27/05:42.12
  23748398.925          17.628  %2018/06/27/05:42.12
 18  6 27  8 39 45.9999383  0  9G 2G 3G 6G 9G12G17G19G23G28
  24491461.514          24.714  %2018/06/27/05:42.13
  23096933.122          31.782  %2018/06/27/05:42.13
  21157318.491          18.330  %2018/06/27/05:42.13
  21795138.939          39.962  %2018/06/27/05:42.13
  24069828.010          22.894  %2018/06/27/05:42.13
  20385574.759          28.537  %2018/06/27/05:42.13
  20393698.533          19.495  %2018/06/27/05:42.13
  22501509.636          42.089  %2018/06/27/05:42.13
  23748990.121          16.133  %2018/06/27/05:42.13
 18  6 27  8 39 46.9999383  0  9G 2G 3G 6G 9G12G17G19G23G28
  24491001.631          27.489  %2018/06/27/05:42.14
  23097547.405          29.412  %2018/06/27/05:42.14
  21157063.369          15.008  %2018/06/27/05:42.14
  21794709.629          34.574  %2018/06/27/05:42.14
  24069489.545          18.830  %2018/06/27/05:42.14
  20385593.343          24.077  %2018/06/27/05:42.14
  20393515.969          17.215  %2018/06/27/05:42.14
  22501467.354          40.852  %2018/06/27/05:42.14
  23749574.703          16.747  %2018/06/27/05:42.14
 18  6 27  8 39 47.9999383  0  9G 2G 3G 6G 9G12G17G19G23G28
  24490572.024          25.017  %2018/06/27/05:42.15
  23098092.724          28.967  %2018/06/27/05:42.15
  21156819.031          17.509  %2018/06/27/05:42.15
  21794282.430          29.580  %2018/06/27/05:42.15
  24069179.560          17.111  %2018/06/27/05:42.15
  20385649.707          19.814  %2018/06/27/05:42.15
  20393325.901          13.349  %2018/06/27/05:42.15
  22501434.373          34.389  %2018/06/27/05:42.15
  23750174.293          13.745  %2018/06/27/05:42.15
 18  6 27  8 39 48.9999383  0  9G 2G 3G 6G 9G12G17G19G23G28
  24490102.247          21.325  %2018/06/27/05:42.16
  23098666.819          28.710  %2018/06/27/05:42.16
  21156551.624          15.903  %2018/06/27/05:42.16
  21793807.557          24.672  %2018/06/27/05:42.16
  24068884.860          17.530  %2018/06/27/05:42.16
  20385620.932          19.263  %2018/06/27/05:42.16
  20393121.437          12.707  %2018/06/27/05:42.16
  22501399.001          30.136  %2018/06/27/05:42.16
  23750762.784          12.885  %2018/06/27/05:42.16
 18  6 27  8 39 49.9999383  0  9G 2G 3G 6G 9G12G17G19G23G28
  24489643.865          18.914  %2018/06/27/05:42.17
  23099236.725          27.085  %2018/06/27/05:42.17
  21156292.907          12.038  %2018/06/27/05:42.17
  21793361.774          20.383  %2018/06/27/05:42.17
  24068578.766          17.177  %2018/06/27/05:42.17
  20385624.230          18.981  %2018/06/27/05:42.17
  20392908.579          15.009  %2018/06/27/05:42.17
  22501341.137          25.817  %2018/06/27/05:42.17
  23751310.808          12.158  %2018/06/27/05:42.17
 18  6 27  8 39 50.9999383  0  9G 2G 3G 6G 9G12G17G19G23G28
  24489208.569          19.218  %2018/06/27/05:42.18
  23099804.241          27.381  %2018/06/27/05:42.18
  21156040.175          14.850  %2018/06/27/05:42.18
  21792919.882          16.318  %2018/06/27/05:42.18
  24068254.698          16.145  %2018/06/27/05:42.18
  20385651.505          18.801  %2018/06/27/05:42.18
  20392652.253          11.724  %2018/06/27/05:42.18
  22501369.319          22.148  %2018/06/27/05:42.18
  23751936.782          12.940  %2018/06/27/05:42.18
 18  6 27  8 39 51.9999383  0  9G 2G 3G 6G 9G12G17G19G23G28
  24488768.475          16.016  %2018/06/27/05:42.19
  23100412.818          26.344  %2018/06/27/05:42.19
  21155761.966          14.240  %2018/06/27/05:42.19
  21792522.645          15.691  %2018/06/27/05:42.19
  24067920.125          14.812  %2018/06/27/05:42.19
  20385661.399          16.419  %2018/06/27/05:42.19
  20392548.529          11.698  %2018/06/27/05:42.19
  22501335.744          21.632  %2018/06/27/05:42.19
  23752513.268          13.400  %2018/06/27/05:42.19
 18  6 27  8 39 52.9999383  0  9G 2G 3G 6G 9G12G17G19G23G28
  24488332.882          15.461  %2018/06/27/05:42.20
  23101003.106          24.357  %2018/06/27/05:42.20
  21155497.561          15.234  %2018/06/27/05:42.20
  21792079.863          15.008  %2018/06/27/05:42.20
  24067580.160          15.312  %2018/06/27/05:42.20
  20385687.784          14.738  %2018/06/27/05:42.20
  20392235.856          12.846  %2018/06/27/05:42.20
  22501261.092          21.493  %2018/06/27/05:42.20
  23753092.772          14.170  %2018/06/27/05:42.20
 18  6 27  8 39 53.9999383  0  9G 2G 3G 6G 9G12G17G19G23G28
  24487919.766          14.263  %2018/06/27/05:42.21
  23101544.534          23.839  %2018/06/27/05:42.21
  21155249.017          14.769  %2018/06/27/05:42.21
  21791646.662          12.794  %2018/06/27/05:42.21
  24067216.218          15.930  %2018/06/27/05:42.21
  20385706.962          16.516  %2018/06/27/05:42.21
  20392025.685          12.769  %2018/06/27/05:42.21
  22501187.051          19.834  %2018/06/27/05:42.21
  23753714.244          19.367  %2018/06/27/05:42.21
 18  6 27  8 39 54.9999383  0  9G 2G 3G 6G 9G12G17G19G23G28
  24487495.254          15.597  %2018/06/27/05:42.22
  23102129.431          24.086  %2018/06/27/05:42.22
  21154988.206          14.183  %2018/06/27/05:42.22
  21791190.077          15.612  %2018/06/27/05:42.22
  24066888.241          14.409  %2018/06/27/05:42.22
  20385694.677          18.220  %2018/06/27/05:42.22
  20391815.236          12.618  %2018/06/27/05:42.22
  22501167.856          21.294  %2018/06/27/05:42.22
  23754296.436          16.720  %2018/06/27/05:42.22
 18  6 27  8 39 55.9999383  0  9G 2G 3G 6G 9G12G17G19G23G28
  24487045.562          14.615  %2018/06/27/05:42.23
  23102675.047          24.001  %2018/06/27/05:42.23
  21154730.676          13.887  %2018/06/27/05:42.23
  21790713.407          17.039  %2018/06/27/05:42.23
  24066580.350          14.300  %2018/06/27/05:42.23
  20385711.760          17.812  %2018/06/27/05:42.23
  20391605.990          12.316  %2018/06/27/05:42.23
  22501176.249          20.701  %2018/06/27/05:42.23
  23754878.645          16.502  %2018/06/27/05:42.23
 18  6 27  8 39 56.9999383  0  9G 2G 3G 6G 9G12G17G19G23G28
  24486569.503          14.184  %2018/06/27/05:42.24
  23103253.050          22.569  %2018/06/27/05:42.24
  21154465.363          13.782  %2018/06/27/05:42.24
  21790282.596          17.703  %2018/06/27/05:42.24
  24066148.352          14.156  %2018/06/27/05:42.24
  20385757.026          17.094  %2018/06/27/05:42.24
  20391396.134          12.442  %2018/06/27/05:42.24
  22501123.794          21.232  %2018/06/27/05:42.24
  23755453.333          17.276  %2018/06/27/05:42.24
 18  6 27  8 39 57.9999383  0  9G 2G 3G 6G 9G12G17G19G23G28
  24486121.608          14.680  %2018/06/27/05:42.25
  23103806.466          22.003  %2018/06/27/05:42.25
  21154182.966          14.440  %2018/06/27/05:42.25
  21789866.792          14.664  %2018/06/27/05:42.25
  24065920.504          13.550  %2018/06/27/05:42.25
  20385741.740          16.855  %2018/06/27/05:42.25
  20391189.279          12.113  %2018/06/27/05:42.25
  22501069.838          21.304  %2018/06/27/05:42.25
  23756038.543          15.821  %2018/06/27/05:42.25
 18  6 27  8 39 58.9999383  0  9G 2G 3G 6G 9G12G17G19G23G28
  24485504.045          14.000  %2018/06/27/05:42.26
  23104487.601          21.819  %2018/06/27/05:42.26
  21153896.067          14.415  %2018/06/27/05:42.26
  21789434.184          15.841  %2018/06/27/05:42.26
  24065563.752          13.772  %2018/06/27/05:42.26
  20385721.358          18.025  %2018/06/27/05:42.26
  20391050.463          12.882  %2018/06/27/05:42.26
  22501033.262          19.357  %2018/06/27/05:42.26
  23756643.211          16.385  %2018/06/27/05:42.26
 18  6 27  8 39 59.9999383  0  9G 2G 3G 6G 9G12G17G19G23G28
  24485152.685          13.857  %2018/06/27/05:42.27
  23105026.620          21.787  %2018/06/27/05:42.27
  21153653.526          14.774  %2018/06/27/05:42.27
  21789019.566          16.461  %2018/06/27/05:42.27
  24065204.906          14.210  %2018/06/27/05:42.27
  20385784.318          17.079  %2018/06/27/05:42.27
  20390765.658          12.438  %2018/06/27/05:42.27
  22501008.082          18.944  %2018/06/27/05:42.27
  23757243.393          17.924  %2018/06/27/05:42.27
 18  6 27  8 40  0.9999383  0 10G 2G 3G 6G 9G12G17G19G22G23G28
  24484708.681          14.113  %2018/06/27/05:42.28
  23105639.106          21.421  %2018/06/27/05:42.28
  21153416.395          15.253  %2018/06/27/05:42.28
  21788539.598          17.606  %2018/06/27/05:42.28
  24064916.506          14.134  %2018/06/27/05:42.28
  20385751.337          20.651  %2018/06/27/05:42.28
  20390522.541          13.052  %2018/06/27/05:42.28
  25546351.136          25.552  %2018/06/27/05:42.28
  22500966.707          19.002  %2018/06/27/05:42.28
  23757827.400          20.277  %2018/06/27/05:42.28
 18  6 27  8 40  1.9999383  0 10G 2G 3G 6G 9G12G17G19G22G23G28
  24484293.768          13.395  %2018/06/27/05:42.29
  23106219.500          21.998  %2018/06/27/05:42.29
  21153155.567          15.157  %2018/06/27/05:42.29
  21788095.612          18.425  %2018/06/27/05:42.29
  24064565.739          14.479  %2018/06/27/05:42.29
  20385761.528          18.353  %2018/06/27/05:42.29
  20390365.437          13.253  %2018/06/27/05:42.29
  25546909.647          22.805  %2018/06/27/05:42.29
  22500934.023          19.537  %2018/06/27/05:42.29
  23758385.004          20.585  %2018/06/27/05:42.29
 18  6 27  8 40  2.9999383  0 10G 2G 3G 6G 9G12G17G19G22G23G28
  24483859.676          12.591  %2018/06/27/05:42.30
  23106796.299          21.335  %2018/06/27/05:42.30
  21152863.869          14.963  %2018/06/27/05:42.30
  21787633.635          18.810  %2018/06/27/05:42.30
  24064244.673          14.520  %2018/06/27/05:42.30
  20385771.719          17.978  %2018/06/27/05:42.30
  20390182.262          12.860  %2018/06/27/05:42.30
  25547431.583          23.577  %2018/06/27/05:42.30
  22500890.851          18.756  %2018/06/27/05:42.30
  23758963.008          18.073  %2018/06/27/05:42.30
 18  6 27  8 40  3.9999383  0 10G 2G 3G 6G 9G12G17G19G22G23G28
  24483332.941          12.243  %2018/06/27/05:42.31
  23107353.607          20.616  %2018/06/27/05:42.31
  21152610.544          15.164  %2018/06/27/05:42.31
  21787204.325          18.215  %2018/06/27/05:42.31
  24063940.376          14.089  %2018/06/27/05:42.31
  20385793.899          16.127  %2018/06/27/05:42.31
  20389967.624          12.278  %2018/06/27/05:42.31
  25547875.569          25.799  %2018/06/27/05:42.31
  22500883.068          19.422  %2018/06/27/05:42.31
  23759547.311          20.770  %2018/06/27/05:42.31
 18  6 27  8 40  4.9999383  0 10G 2G 3G 6G 9G12G17G19G22G23G28
  24482882.045          12.414  %2018/06/27/05:42.32
  23107892.330          18.580  %2018/06/27/05:42.32
  21152331.742          15.341  %2018/06/27/05:42.32
  21786767.529          17.884  %2018/06/27/05:42.32
  24063586.328          14.405  %2018/06/27/05:42.32
  20385757.026          16.004  %2018/06/27/05:42.32
  20389705.906          12.553  %2018/06/27/05:42.32
  25548490.742          25.853  %2018/06/27/05:42.32
  22500859.074          18.272  %2018/06/27/05:42.32
  23760159.185          24.333  %2018/06/27/05:42.32
 18  6 27  8 40  5.9999383  0 10G 2G 3G 6G 9G12G17G19G22G23G28
  24482455.439          11.943  %2018/06/27/05:42.33
  23108430.163          19.378  %2018/06/27/05:42.33
  21152072.118          15.447  %2018/06/27/05:42.33
  21786318.744          15.669  %2018/06/27/05:42.33
  24063271.544          14.819  %2018/06/27/05:42.33
  20385760.028          14.246  %2018/06/27/05:42.33
  20389452.267          13.269  %2018/06/27/05:42.33
  25549100.819          23.371  %2018/06/27/05:42.33
  22500806.322          19.305  %2018/06/27/05:42.33
  23760740.784          24.194  %2018/06/27/05:42.33
 18  6 27  8 40  6.9999383  0 10G 2G 3G 6G 9G12G17G19G22G23G28
  24482013.844          11.652  %2018/06/27/05:42.34
  23109045.336          19.332  %2018/06/27/05:42.34
  21151854.182          15.209  %2018/06/27/05:42.34
  21785892.138          17.078  %2018/06/27/05:42.34
  24062975.641          14.325  %2018/06/27/05:42.34
  20385772.016          14.099  %2018/06/27/05:42.34
  20389235.221          14.529  %2018/06/27/05:42.34
  25549677.933          20.836  %2018/06/27/05:42.34
  22500783.236          16.425  %2018/06/27/05:42.34
  23761346.062          22.672  %2018/06/27/05:42.34
 18  6 27  8 40  7.9999383  0 10G 2G 3G 6G 9G12G17G19G22G23G28
  24481551.867          11.366  %2018/06/27/05:42.35
  23109642.517          20.504  %2018/06/27/05:42.35
  21151587.665          15.903  %2018/06/27/05:42.35
  21785472.722          16.778  %2018/06/27/05:42.35
  24062638.677          14.331  %2018/06/27/05:42.35
  20385788.506          14.421  %2018/06/27/05:42.35
  20389053.844          14.322  %2018/06/27/05:42.35
  25550261.328          20.876  %2018/06/27/05:42.35
  22500770.340          17.090  %2018/06/27/05:42.35
  23761906.964          21.825  %2018/06/27/05:42.35
 18  6 27  8 40  8.9999383  0 10G 2G 3G 6G 9G12G17G19G22G23G28
  24481278.457          11.611  %2018/06/27/05:42.36
  23110258.300          21.899  %2018/06/27/05:42.36
  21151302.563          20.063  %2018/06/27/05:42.36
  21785035.333          18.047  %2018/06/27/05:42.36
  24062260.042          19.910  %2018/06/27/05:42.36
  20385796.603          14.625  %2018/06/27/05:42.36
  20388852.084          14.391  %2018/06/27/05:42.36
  25551029.085          23.866  %2018/06/27/05:42.36
  22500723.870          16.777  %2018/06/27/05:42.36
  23762511.352          20.458  %2018/06/27/05:42.36
 18  6 27  8 40  9.9999383  0 10G 2G 3G 6G 9G12G17G19G22G23G28
  24480672.289          11.583  %2018/06/27/05:42.37
  23110815.015          21.846  %2018/06/27/05:42.37
  21151022.243          19.200  %2018/06/27/05:42.37
  21784587.438          16.054  %2018/06/27/05:42.37
  24061942.570          19.399  %2018/06/27/05:42.37
  20385793.305          15.667  %2018/06/27/05:42.37
  20388646.730          14.398  %2018/06/27/05:42.37
  25551565.715          28.871  %2018/06/27/05:42.37
  22500663.021          18.944  %2018/06/27/05:42.37
  23763107.941          20.317  %2018/06/27/05:42.37
 18  6 27  8 40 10.9999383  0 10G 2G 3G 6G 9G12G17G19G22G23G28
  24480214.500          11.852  %2018/06/27/05:42.38
  23111325.259          19.229  %2018/06/27/05:42.38
  21150743.737          18.547  %2018/06/27/05:42.38
  21784135.652          13.376  %2018/06/27/05:42.38
  24061605.293          20.898  %2018/06/27/05:42.38
  20385784.615          19.212  %2018/06/27/05:42.38
  20388440.782          16.352  %2018/06/27/05:42.38
  25552126.931          32.267  %2018/06/27/05:42.38
  22500616.848          17.767  %2018/06/27/05:42.38
  23763702.138          22.229  %2018/06/27/05:42.38
 18  6 27  8 40 11.9999383  0 10G 2G 3G 6G 9G12G17G19G22G23G28
  24479770.514          12.371  %2018/06/27/05:42.39
  23111845.694          18.372  %2018/06/27/05:42.39
  21150528.489          25.156  %2018/06/27/05:42.39
  21783672.767          16.373  %2018/06/27/05:42.39
  24061280.020          23.220  %2018/06/27/05:42.39
  20385825.082          21.445  %2018/06/27/05:42.39
  20388228.221          18.686  %2018/06/27/05:42.39
  25552709.419          33.433  %2018/06/27/05:42.39
  22500588.369          17.803  %2018/06/27/05:42.39
  23764299.616          21.457  %2018/06/27/05:42.39
 18  6 27  8 40 12.9999383  0 10G 2G 3G 6G 9G12G17G19G22G23G28
  24479327.104          12.666  %2018/06/27/05:42.40
  23112464.479          20.107  %2018/06/27/05:42.40
  21150259.284          24.447  %2018/06/27/05:42.40
  21783238.082          18.276  %2018/06/27/05:42.40
  24060942.760          27.052  %2018/06/27/05:42.40
  20385839.182          23.395  %2018/06/27/05:42.40
  20388036.950          18.011  %2018/06/27/05:42.40
  25553305.117          31.083  %2018/06/27/05:42.40
  22500537.694          19.790  %2018/06/27/05:42.40
  23764837.449          24.246  %2018/06/27/05:42.40
 18  6 27  8 40 13.9999383  0 10G 2G 3G 6G 9G12G17G19G22G23G28
  24478883.415          13.234  %2018/06/27/05:42.41
  23113053.564          23.137  %2018/06/27/05:42.41
  21149991.563          22.701  %2018/06/27/05:42.41
  21782767.398          22.616  %2018/06/27/05:42.41
  24060581.802          27.466  %2018/06/27/05:42.41
  20385828.084          24.805  %2018/06/27/05:42.41
  20387826.203          18.003  %2018/06/27/05:42.41
  25553889.106          29.689  %2018/06/27/05:42.41
  22500494.836          19.480  %2018/06/27/05:42.41
  23765458.014          23.070  %2018/06/27/05:42.41
 18  6 27  8 40 14.9999383  0 10G 2G 3G 6G 9G12G17G19G22G23G28
  24478451.121          13.195  %2018/06/27/05:42.42
  23113623.767          23.784  %2018/06/27/05:42.42
  21149724.453          25.163  %2018/06/27/05:42.42
  21782344.701          25.591  %2018/06/27/05:42.42
  24060270.316          33.701  %2018/06/27/05:42.42
  20385808.295          33.202  %2018/06/27/05:42.42
  20387583.366          23.475  %2018/06/27/05:42.42
  25554458.716          28.159  %2018/06/27/05:42.42
  22500422.278          20.761  %2018/06/27/05:42.42
  23766029.124          24.451  %2018/06/27/05:42.42
 18  6 27  8 40 15.9999383  0 10G 2G 3G 6G 9G12G17G19G22G23G28
  24477990.033          13.559  %2018/06/27/05:42.43
  23114195.471          22.873  %2018/06/27/05:42.43
  21149445.633          30.608  %2018/06/27/05:42.43
  21781892.304          37.126  %2018/06/27/05:42.43
  24059955.235          33.065  %2018/06/27/05:42.43
  20385823.581          41.447  %2018/06/27/05:42.43
  20387368.118          34.533  %2018/06/27/05:42.43
  25555031.014          26.864  %2018/06/27/05:42.43
  22500382.701          20.296  %2018/06/27/05:42.43
  23766630.494          29.042  %2018/06/27/05:42.43
 18  6 27  8 40 16.9999383  0 10G 2G 3G 6G 9G12G17G19G22G23G28
  24477559.537          13.203  %2018/06/27/05:42.44
  23114754.593          24.222  %2018/06/27/05:42.44
  21149191.122          35.289  %2018/06/27/05:42.44
  21781451.320          44.680  %2018/06/27/05:42.44
  24059619.772          36.889  %2018/06/27/05:42.44
  20385835.884          40.125  %2018/06/27/05:42.44
  20387157.057          34.433  %2018/06/27/05:42.44
  25555595.825          25.821  %2018/06/27/05:42.44
  22500343.438          19.766  %2018/06/27/05:42.44
  23767220.189          27.910  %2018/06/27/05:42.44
 18  6 27  8 40 17.9999383  0 10G 2G 3G 6G 9G12G17G19G22G23G28
  24477180.902          13.716  %2018/06/27/05:42.45
  23115393.742          20.288  %2018/06/27/05:42.45
  21148929.403          32.827  %2018/06/27/05:42.45
  21781008.817          44.549  %2018/06/27/05:42.45
  24059287.904          39.773  %2018/06/27/05:42.45
  20385849.076          38.256  %2018/06/27/05:42.45
  20386944.217          34.418  %2018/06/27/05:42.45
  25556175.329          23.132  %2018/06/27/05:42.45
  22500307.752          22.388  %2018/06/27/05:42.45
  23767795.488          24.563  %2018/06/27/05:42.45
 18  6 27  8 40 18.9999383  0 10G 2G 3G 6G 9G12G17G19G22G23G28
  24476714.126          13.936  %2018/06/27/05:42.46
  23115897.391          20.034  %2018/06/27/05:42.46
  21148662.590          32.613  %2018/06/27/05:42.46
  21780572.614          46.058  %2018/06/27/05:42.46
  24058972.526          39.387  %2018/06/27/05:42.46
  20385865.252          40.221  %2018/06/27/05:42.46
  20386743.051          34.219  %2018/06/27/05:42.46
  25556750.628          21.865  %2018/06/27/05:42.46
  22500257.391          23.039  %2018/06/27/05:42.46
  23768411.271          28.144  %2018/06/27/05:42.46
 18  6 27  8 40 19.9999383  0 10G 2G 3G 6G 9G12G17G19G22G23G28
  24476260.542          13.801  %2018/06/27/05:42.47
  23116469.391          16.686  %2018/06/27/05:42.47
  21148398.760          31.703  %2018/06/27/05:42.47
  21780128.925          45.808  %2018/06/27/05:42.47
  24058637.342          38.064  %2018/06/27/05:42.47
  20385872.459          40.347  %2018/06/27/05:42.47
  20386533.194          34.070  %2018/06/27/05:42.47
  25557316.643          22.345  %2018/06/27/05:42.47
  22500219.314          23.603  %2018/06/27/05:42.47
  23768987.774          28.059  %2018/06/27/05:42.47
 18  6 27  8 40 20.9999383  0 10G 2G 3G 6G 9G12G17G19G22G23G28
  24475833.937          13.730  %2018/06/27/05:42.48
  23117008.132          19.151  %2018/06/27/05:42.48
  21148144.545          32.476  %2018/06/27/05:42.48
  21779688.237          45.745  %2018/06/27/05:42.48
  24058321.371          37.395  %2018/06/27/05:42.48
  20385886.542          39.292  %2018/06/27/05:42.48
  20386316.445          33.409  %2018/06/27/05:42.48
  25557904.820          25.106  %2018/06/27/05:42.48
  22500172.844          23.875  %2018/06/27/05:42.48
  23769566.371          28.061  %2018/06/27/05:42.48
 18  6 27  8 40 21.9999383  0  9G 3G 6G 9G12G17G19G22G23G28
  23117617.302          21.538  %2018/06/27/05:42.49
  21147882.827          31.961  %2018/06/27/05:42.49
  21779252.331          45.883  %2018/06/27/05:42.49
  24057990.689          37.805  %2018/06/27/05:42.49
  20385890.137          39.287  %2018/06/27/05:42.49
  20386114.093          32.553  %2018/06/27/05:42.49
  25558483.120          26.983  %2018/06/27/05:42.49
  22500144.680          24.734  %2018/06/27/05:42.49
  23770173.743          26.423  %2018/06/27/05:42.49
 18  6 27  8 40 22.9999383  0  9G 3G 6G 9G12G17G19G22G23G28
  23118211.796          21.003  %2018/06/27/05:42.50
  21147621.702          32.759  %2018/06/27/05:42.50
  21778809.549          45.106  %2018/06/27/05:42.50
  24057674.125          40.037  %2018/06/27/05:42.50
  20385904.830          39.116  %2018/06/27/05:42.50
  20385905.423          33.334  %2018/06/27/05:42.50
  25559046.745          25.826  %2018/06/27/05:42.50
  22500082.609          25.546  %2018/06/27/05:42.50
  23770746.651          27.589  %2018/06/27/05:42.50
 18  6 27  8 40 23.9999383  0  9G 3G 6G 9G12G17G19G22G23G28
  23118710.942          20.022  %2018/06/27/05:42.51
  21147368.673          33.134  %2018/06/27/05:42.51
  21778368.843          41.457  %2018/06/27/05:42.51
  24057352.744          40.067  %2018/06/27/05:42.51
  20385920.413          40.619  %2018/06/27/05:42.51
  20385689.878          33.060  %2018/06/27/05:42.51
  25559636.126          25.532  %2018/06/27/05:42.51
  22500055.335          28.215  %2018/06/27/05:42.51
  23771353.430          27.027  %2018/06/27/05:42.51
 18  6 27  8 40 24.9999383  0  9G 3G 6G 9G12G17G19G22G23G28
  23119286.851          17.508  %2018/06/27/05:42.52
  21147105.158          31.939  %2018/06/27/05:42.52
  21777932.658          41.795  %2018/06/27/05:42.52
  24057027.158          37.559  %2018/06/27/05:42.52
  20385931.214          41.249  %2018/06/27/05:42.52
  20385486.618          33.904  %2018/06/27/05:42.52
  25560190.450          23.433  %2018/06/27/05:42.52
  22500009.772          32.044  %2018/06/27/05:42.52
  23771923.633          28.555  %2018/06/27/05:42.52
 18  6 27  8 40 25.9999383  0  9G 3G 6G 9G12G17G19G22G23G28
  23119897.521          19.173  %2018/06/27/05:42.53
  21146842.846          31.868  %2018/06/27/05:42.53
  21777489.859          41.044  %2018/06/27/05:42.53
  24056693.789          37.937  %2018/06/27/05:42.53
  20385941.702          40.648  %2018/06/27/05:42.53
  20385281.560          34.537  %2018/06/27/05:42.53
  25560832.304          24.292  %2018/06/27/05:42.53
  22499970.492          38.491  %2018/06/27/05:42.53
  23772513.922          27.864  %2018/06/27/05:42.53
 18  6 27  8 40 26.9999383  0  9G 3G 6G 9G12G17G19G22G23G28
  23120440.450          18.781  %2018/06/27/05:42.54
  21146587.724          32.444  %2018/06/27/05:42.54
  21777055.156          44.090  %2018/06/27/05:42.54
  24056369.424          34.643  %2018/06/27/05:42.54
  20385956.395          39.500  %2018/06/27/05:42.54
  20385069.017          34.948  %2018/06/27/05:42.54
  25561379.124          23.458  %2018/06/27/05:42.54
  22499941.716          40.888  %2018/06/27/05:42.54
  23773101.820          29.456  %2018/06/27/05:42.54
 18  6 27  8 40 27.9999383  0  9G 3G 6G 9G12G17G19G22G23G28
  23120991.162          20.672  %2018/06/27/05:42.55
  21146327.506          32.176  %2018/06/27/05:42.55
  21776612.671          44.624  %2018/06/27/05:42.55
  24056050.138          32.389  %2018/06/27/05:42.55
  20385965.085          39.996  %2018/06/27/05:42.55
  20384875.040          34.575  %2018/06/27/05:42.55
  25561991.591          25.990  %2018/06/27/05:42.55
  22499901.249          40.002  %2018/06/27/05:42.55
  23773725.386          25.911  %2018/06/27/05:42.55
 18  6 27  8 40 28.9999383  0  9G 3G 6G 9G12G17G19G22G23G28
  23121634.516          23.717  %2018/06/27/05:42.56
  21146068.178          30.815  %2018/06/27/05:42.56
  21776176.468          45.020  %2018/06/27/05:42.56
  24055744.061          29.463  %2018/06/27/05:42.56
  20385978.871          38.537  %2018/06/27/05:42.56
  20384659.791          32.107  %2018/06/27/05:42.56
  25562549.510          25.683  %2018/06/27/05:42.56
  22499867.972          41.972  %2018/06/27/05:42.56
  23774303.093          25.859  %2018/06/27/05:42.56
