     2.11           OBSERVATION DATA    G (GPS)             RINEX VERSION / TYPE
AndroidGNSSReceiver RITSUMEIKAN KUBOLAB 1524039092365       PGM / RUN BY / DATE
flounder                                                    MARKER NAME
GRitzLogger         KUBOLAB                                 OBSERVER / AGENCY
0                   Android Receiver                        REC # / TYPE / VERS
0                   Android Anttena                         ANT # / TYPE
        0.0000        0.0000        0.0000                  APPROX POSITION XYZ
        0.0000        0.0000        0.0000                  ANTENNA: DELTA H/E/N
1     0                                                     WAVELENGTH FACT L1/2
2         C1    S1                                          # / TYPES OF OBSERV
1.000                                                       INTERVAL
  2018     4    18     8     9   54.0004101     GPS         TIME OF FIRST OBS
                                                            END OF HEADER
 18  4 18  8  9 54.0004101  0  8G 1G 7G 8G11G16G18G27G30
  21534610.294          42.584  
  21401935.050          41.555  
  20748114.375          38.351  
  21110854.861          37.859  
  23364505.984          42.719  
  20240847.260          44.115  
  22223189.517          30.010  
  22672032.186          38.661  
 18  4 18  8  9 55.0004101  0  8G 1G 7G 8G11G16G18G27G30
  21534047.298          41.657  
  21401873.887          40.746  
  20748189.027          38.696  
  21110451.342          40.026  
  23364998.551          42.962  
  20240527.676          43.425  
  22223613.121          28.757  
  22671685.328          39.801  
 18  4 18  8  9 56.0004101  0  8G 1G 7G 8G11G16G18G27G30
  21533477.095          43.047  
  21401816.336          38.402  
  20748261.882          39.209  
  21110043.321          40.431  
  23365486.319          41.548  
  20240204.498          43.042  
  22223999.556          28.096  
  22671332.468          39.722  
 18  4 18  8  9 57.0004101  0  8G 1G 7G 8G11G16G18G27G30
  21532911.079          43.229  
  21401759.082          38.478  
  20748323.935          39.600  
  21109637.411          39.968  
  23365982.464          42.192  
  20239889.121          44.132  
  22224401.574          33.686  
  22670980.811          39.635  
 18  4 18  8  9 58.0004101  0  8G 1G 7G 8G11G16G18G27G30
  21532345.064          42.668  
  21401699.420          36.195  
  20748398.587          40.289  
  21109228.186          40.379  
  23366465.434          41.832  
  20239567.443          42.945  
  22224811.078          37.268  
  22670633.045          38.498  
 18  4 18  8  9 59.0004101  0  8G 1G 7G 8G11G16G18G27G30
  21531780.567          42.275  
  21401637.663          39.154  
  20748463.344          40.499  
  21108824.667          39.565  
  23366966.988          43.351  
  20239244.858          43.238  
  22225197.810          34.704  
  22670285.297          37.683  
 18  4 18  8 10  0.0004101  0  8G 1G 7G 8G11G16G18G27G30
  21531219.054          40.476  
  21401582.503          36.572  
  20748531.994          41.644  
  21108419.944          38.203  
  23367456.850          44.095  
  20238926.479          44.160  
  22225612.724          35.873  
  22669925.247          39.230  
 18  4 18  8 10  1.0004101  0  8G 1G 7G 8G11G16G18G27G30
  21530648.554          37.387  
  21401524.638          35.134  
  20748599.142          41.295  
  21108016.129          41.472  
  23367949.714          42.033  
  20238604.505          43.218  
  22226017.150          35.564  
  22669574.480          39.888  
 18  4 18  8 10  2.0004101  0  8G 1G 7G 8G11G16G18G27G30
  21530076.536          34.053  
  21401469.775          31.984  
  20748672.904          40.452  
  21107606.607          38.680  
  23368437.169          41.284  
  20238283.439          42.295  
  22226413.480          33.785  
  22669221.323          38.581  
 18  4 18  8 10  3.0004101  0  8G 1G 7G 8G11G16G18G27G30
  21529542.908          31.223  
  21401422.415          30.251  
  20748741.553          41.474  
  21107197.103          32.484  
  23368934.831          41.880  
  20237963.559          43.001  
  22226831.988          36.259  
  22668881.968          34.016  
 18  4 18  8 10  4.0004101  0  8G 1G 7G 8G11G16G18G27G30
  21528974.205          28.519  
  21401446.688          26.421  
  20748818.596          41.083  
  21106802.868          28.721  
  23369418.691          41.781  
  20237642.178          42.802  
  22227223.222          36.421  
  22668588.159          29.869  
 18  4 18  8 10  5.0004101  0  8G 1G 7G 8G11G16G18G27G30
  21528427.385          24.525  
  21401346.262          24.227  
  20748884.854          41.035  
  21106441.317          25.269  
  23369915.743          41.080  
  20237321.391          43.241  
  22227621.035          36.071  
  22668250.009          25.902  
 18  4 18  8 10  6.0004101  0  8G 1G 7G 8G11G16G18G27G30
  21527817.012          21.665  
  21401325.566          22.505  
  20748952.003          40.228  
  21106030.905          23.026  
  23370407.403          41.816  
  20237003.012          42.926  
  22228029.056          35.350  
  22667880.361          24.513  
 18  4 18  8 10  7.0004101  0  9G 1G 7G 8G11G16G18G22G27G30
  21527307.064          21.032  
  21401239.536          22.335  
  20749020.355          39.812  
  21105656.161          22.822  
  23370899.359          40.751  
  20236684.039          44.670  
  24382855.704          27.017  
  22228425.088          35.914  
  22667586.866          22.035  
 18  4 18  8 10  8.0004101  0  9G 1G 7G 8G11G16G18G22G27G30
  21526786.611          19.080  
  21401217.951          21.306  
  20749094.100          40.652  
  21105240.358          24.179  
  23371391.927          40.949  
  20236367.457          40.409  
  24382279.795          27.458  
  22228834.907          36.104  
  22667232.504          23.226  
 18  4 18  8 10  9.0004101  0  9G 1G 7G 8G11G16G18G22G27G30
  21526191.524          20.717  
  21401164.884          17.702  
  20749163.656          40.945  
  21104817.050          23.621  
  23371880.882          42.307  
  20236059.566          35.753  
  24381697.306          30.671  
  22229229.125          36.541  
  22666903.637          21.015  
 18  4 18  8 10 10.0004101  0  9G 1G 7G 8G11G16G18G22G27G30
  21525623.729          19.439  
  21401100.737          16.686  
  20749237.104          40.023  
  21104445.902          20.489  
  23372377.044          38.893  
  20235747.783          30.247  
  24381112.410          27.571  
  22229639.536          35.462  
  22666513.607          19.591  
 18  4 18  8 10 11.0004101  0  9G 1G 7G 8G11G16G18G22G27G30
  21525085.302          19.104  
  21401012.282          17.463  
  20749315.945          35.887  
  21104007.011          17.893  
  23372870.204          42.345  
  20235470.778          25.365  
  24380555.992          23.960  
  22230038.274          38.462  
  22666138.271          18.345  
 18  4 18  8 10 12.0004101  0  9G 1G 7G 8G11G16G18G22G27G30
  21524517.490          17.068  
  21400973.316          19.183  
  20749383.704          31.380  
  21103591.190          16.407  
  23373359.456          42.658  
  20235149.100          21.200  
  24379944.711          20.534  
  22230446.277          36.488  
  22665800.400          17.587  
 18  4 18  8 10 13.0004101  0  9G 1G 7G 8G11G16G18G22G27G30
  21523951.178          16.483  
  21400935.850          18.939  
  20749469.751          27.116  
  21103171.477          16.974  
  23373858.323          38.830  
  20234855.012          19.055  
  24379390.998          16.524  
  22230854.002          38.919  
  22665455.932          17.433  
 18  4 18  8 10 14.0004101  0  9G 1G 7G 8G11G16G18G22G27G30
  21523372.581          15.431  
  21400881.580          16.307  
  20749564.174          22.648  
  21102762.566          15.408  
  23374357.172          33.604  
  20234538.116          16.537  
  24378821.702          15.777  
  22231244.625          37.537  
  22665116.264          18.367  
 18  4 18  8 10 15.0004101  0  9G 1G 7G 8G11G16G18G22G27G30
  21522764.005          15.951  
  21400811.134          13.424  
  20749606.456          19.441  
  21102376.725          13.674  
  23374854.224          28.463  
  20234202.356          17.092  
  24378333.027          10.445  
  22231663.744          34.512  
  22664772.407          16.924  
 18  4 18  8 10 16.0004101  0  9G 1G 7G 8G11G16G18G22G27G30
  21522214.776          15.516  
  21400742.781          13.223  
  20749687.687          18.531  
  21101972.909          13.791  
  23375358.483          24.889  
  20233897.466          16.354  
  24377630.917          11.769  
  22232067.560          30.352  
  22664430.645          14.199  
 18  4 18  8 10 17.0004101  0  9G 1G 7G 8G11G16G18G22G27G30
  21521646.685          16.061  
  21400664.238          14.038  
  20749749.757          18.673  
  21101502.242          13.359  
  23375788.684          20.844  
  20233595.874          15.411  
  24377053.821          12.119  
  22232459.997          29.062  
  22664102.668          13.531  
 18  4 18  8 10 18.0004101  0  9G 1G 7G 8G11G16G18G22G27G30
  21521101.348          15.249  
  21400558.105          14.405  
  20749835.787          17.025  
  21101135.595          13.241  
  23376304.931          17.727  
  20233285.888          16.804  
  24376457.530          12.340  
  22232878.506          28.504  
  22663729.425          13.405  
 18  4 18  8 10 19.0004101  0  9G 1G 7G 8G11G16G18G22G27G30
  21520522.751          15.690  
  21400545.210          13.921  
  20749923.631          16.508  
  21100756.350          13.608  
  23376833.166          17.459  
  20232966.008          15.749  
  24375866.648          13.430  
  22233287.714          26.112  
  22663449.122          13.043  
 18  4 18  8 10 20.0004101  0  9G 1G 7G 8G11G16G18G22G27G30
  21519931.572          14.984  
  21400496.646          15.118  
  20750004.582          13.386  
  21100398.097          14.964  
  23377326.920          18.785  
  20232594.266          17.521  
  24375297.928          14.447  
  22233709.834          23.816  
  22662916.088          12.748  
 18  4 18  8 10 21.0004101  0  9G 1G 7G 8G11G16G18G22G27G30
  21519419.827          14.933  
  21400474.170          15.538  
  20750111.308          14.806  
  21100002.378          18.082  
  23377838.962          18.957  
  20232242.906          17.576  
  24374746.012          22.872  
  22234139.721          24.112  
  22662752.998          12.582  
 18  4 18  8 10 22.0004101  0  9G 1G 7G 8G11G16G18G22G27G30
  21518831.930          15.264  
  21400449.879          14.449  
  20750142.771          18.060  
  21099572.475          18.957  
  23378348.002          16.753  
  20231934.718          16.445  
  24374131.136          20.118  
  22234524.358          22.481  
  22662402.545          12.395  
 18  4 18  8 10 23.0004101  0  8G 1G 7G 8G11G16G18G22G27
  21518297.691          15.359  
  21400393.218          14.918  
  20750220.721          16.866  
  21099157.264          21.927  
  23378854.966          19.296  
  20231613.651          13.627  
  24373584.613          17.223  
  22234913.795          23.179  
 18  4 18  8 10 24.0004101  0  8G 1G 7G 8G11G16G18G22G27
  21517731.693          15.840  
  21400251.715          14.622  
  20750288.777          16.109  
  21098722.858          20.907  
  23379286.353          23.761  
  20231304.556          14.047  
  24373011.722          19.856  
  22235317.907          21.564  
 18  4 18  8 10 25.0004101  0  7G 1G 8G11G16G18G22G27
  21517136.606          16.186  
  20750363.429          15.595  
  21098335.533          19.407  
  23379768.433          35.848  
  20231078.523          14.727  
  24372432.515          17.844  
  22235752.016          20.560  
 18  4 18  8 10 26.0004101  0  7G 1G 8G11G16G18G22G27
  21516597.569          16.493  
  20750452.756          17.205  
  21097946.394          21.410  
  23380286.774          31.630  
  20230737.057          14.631  
  24371862.922          17.169  
  22236100.078          20.788  
 18  4 18  8 10 27.0004101  0  7G 1G 8G11G16G18G22G27
  21516044.449          17.155  
  20750518.422          19.809  
  21097509.597          20.197  
  23380762.537          27.156  
  20230414.176          14.442  
  24371263.926          17.577  
  22236511.694          19.438  
 18  4 18  8 10 28.0004101  0  7G 1G 8G11G16G18G22G27
  21515463.165          18.981  
  20750608.063          17.905  
  21097127.071          16.930  
  23381294.978          23.719  
  20230100.002          13.913  
  24370677.529          18.381  
  22236935.298          21.324  
 18  4 18  8 10 29.0004101  0  7G 1G 8G11G16G18G22G27
  21514892.054          19.241  
  20750686.310          15.929  
  21096741.229          17.019  
  23381801.313          19.590  
  20229768.134          13.626  
  24370078.550          17.627  
  22237344.802          17.882  
 18  4 18  8 10 30.0004101  0  7G 1G 8G11G16G18G22G27
  21514333.839          20.164  
  20750763.946          16.951  
  21096361.704          20.865  
  23382306.165          20.998  
  20229422.462          14.535  
  24369515.833          18.248  
  22237807.390          19.445  
 18  4 18  8 10 31.0004101  0  6G 1G 8G11G16G18G22
  21513766.637          17.950  
  20750817.606          16.888  
  21095914.106          22.908  
  23382724.081          20.432  
  20229114.571          15.765  
  24368926.748          22.949  
 18  4 18  8 10 32.0004101  0  6G 1G 8G11G16G18G22
  21513236.308          17.825  
  20750854.181          17.064  
  21095522.279          22.429  
  23383212.739          22.586  
  20228796.506          18.102  
  24368369.127          24.288  
 18  4 18  8 10 33.0004101  0  6G 1G 8G11G16G18G22
  21512681.391          19.312  
  20750942.619          15.184  
  21095092.969          22.053  
  23383700.508          21.459  
  20228473.328          17.462  
  24367760.847          22.863  
 18  4 18  8 10 34.0004101  0  6G 1G 8G11G16G18G22
  21512056.917          20.217  
  20751002.281          18.407  
  21094719.429          22.953  
  23384197.856          18.879  
  20228157.339          16.326  
  24367194.238          23.699  
 18  4 18  8 10 35.0004101  0  6G 1G 8G11G16G18G22
  21511494.200          19.039  
  20751112.602          17.177  
  21094327.899          21.398  
  23384716.198          19.893  
  20227841.368          14.605  
  24366627.630          23.504  
 18  4 18  8 10 36.0004101  0  6G 1G 8G11G16G18G22
  21510953.086          18.117  
  20751180.954          16.801  
  21093923.787          19.640  
  23385208.468          19.757  
  20227540.963          16.276  
  24366032.857          20.941  
 18  4 18  8 10 37.0004101  0  6G 1G 8G11G16G18G22
  21510427.538          19.575  
  20751247.806          14.554  
  21093497.775          17.381  
  23385692.624          16.086  
  20227221.397          17.210  
  24365485.723          18.802  
 18  4 18  8 10 38.0004101  0  6G 1G 8G11G16G18G22
  21509864.228          16.889  
  20751282.881          16.178  
  21093066.074          17.583  
  23386192.381          15.252  
  20226858.345          17.362  
  24364894.544          17.915  
 18  4 18  8 10 39.0004101  0  6G 1G 8G11G16G18G22
  21509301.528          16.937  
  20751339.856          15.192  
  21092702.132          21.344  
  23386785.060          16.762  
  20226576.541          19.000  
  24364296.752          16.056  
 18  4 18  8 10 40.0004101  0  6G 1G 8G11G16G18G22
  21508723.821          21.702  
  20751413.007          15.835  
  21092283.013          24.044  
  23387296.212          16.916  
  20226274.042          20.741  
  24363685.174          16.051  
 18  4 18  8 10 41.0004101  0  6G 1G 8G11G16G18G22
  21508195.586          20.129  
  20751480.155          16.682  
  21091871.100          25.181  
  23387744.997          18.778  
  20225944.268          19.585  
  24363145.247          14.800  
 18  4 18  8 10 42.0004101  0  6G 1G 8G11G16G18G22
  21507631.385          19.428  
  20751568.000          17.762  
  21091511.661          22.019  
  23388245.661          19.418  
  20225588.126          20.359  
  24362614.010          16.383  
 18  4 18  8 10 43.0004101  0  6G 1G 8G11G16G18G22
  21507035.094          22.019  
  20751617.750          19.582  
  21091071.863          28.782  
  23388723.221          20.859  
  20225319.812          20.002  
  24361981.754          20.418  
 18  4 18  8 10 44.0004101  0  6G 1G 8G11G16G18G22
  21506463.390          24.567  
  20751689.401          17.679  
  21090678.832          27.516  
  23389215.492          19.750  
  20224990.334          18.245  
  24361419.944          20.637  
 18  4 18  8 10 45.0004101  0  6G 1G 8G11G16G18G22
  21505901.580          24.554  
  20751777.542          13.437  
  21090263.010          29.104  
  23389760.811          20.947  
  20224667.156          18.222  
  24360826.357          22.370  
 18  4 18  8 10 46.0004101  0  5G 1G11G16G18G22
  21505329.579          26.735  
  21089878.076          28.781  
  23390259.364          19.542  
  20224383.852          18.370  
  24360241.164          22.581  
 18  4 18  8 10 47.0004101  0  5G 1G11G16G18G22
  21504769.253          32.433  
  21089468.868          27.956  
  23390715.041          19.863  
  20224014.518          23.722  
  24359649.672          24.428  
 18  4 18  8 10 48.0004101  0  5G 1G11G16G18G22
  21504213.743          37.158  
  21089062.348          30.150  
  23391178.519          19.369  
  20223702.717          26.921  
  24359057.586          19.878  
 18  4 18  8 10 49.0004101  0  6G 1G 7G11G16G18G22
  21503648.931          41.419  
  21398845.698          39.502  
  21088651.029          37.587  
  23391640.514          18.461  
  20223385.246          28.745  
  24358478.082          21.981  
 18  4 18  8 10 50.0004101  0  8G 1G 7G11G16G18G22G28G30
  21503094.625          39.473  
  21398791.725          39.738  
  21088256.514          37.984  
  23392127.078          21.491  
  20223062.661          38.812  
  24357888.980          28.544  
  24976549.699          30.011  
  22652502.496          36.094  
 18  4 18  8 10 51.0004101  0  8G 1G 7G11G16G18G22G28G30
  21502528.017          39.466  
  21398740.456          40.539  
  21087859.574          36.193  
  23392619.628          19.812  
  20222751.489          42.688  
  24357316.979          29.428  
  24976000.471          26.882  
  22652148.745          34.348  
 18  4 18  8 10 52.0004101  0  8G 1G 7G11G16G18G22G28G30
  21501974.304          38.129  
  21398684.406          36.414  
  21087453.072          37.794  
  23393128.982          17.647  
  20222439.706          41.277  
  24356745.275          29.558  
  24975432.676          27.019  
  22651820.768          31.387  
 18  4 18  8 10 53.0004101  0  7G 1G 7G11G18G22G28G30
  21501411.883          38.198  
  21398637.936          36.548  
  21087051.647          39.887  
  20222122.827          43.326  
  24356165.474          30.892  
  24974899.642          26.219  
  22651479.302          30.327  
 18  4 18  8 10 54.0004101  0  7G 1G 7G11G18G22G28G30
  21500856.373          38.471  
  21398589.075          36.571  
  21086655.021          39.050  
  20221813.435          43.314  
  24355592.583          32.503  
  24974344.428          27.378  
  22651142.042          30.156  
 18  4 18  8 10 55.0004101  0  6G 1G11G18G22G28G30
  21500290.968          35.822  
  21086254.800          39.369  
  20221495.055          43.333  
  24355037.666          31.022  
  24973795.497          26.546  
  22650779.287          32.141  
 18  4 18  8 10 56.0004101  0  5G 1G11G18G22G28
  21499730.642          36.681  
  21085850.967          39.759  
  20221180.271          43.519  
  24354429.387          28.362  
  24973252.586          27.973  
 18  4 18  8 10 57.0004101  0  5G 1G11G18G22G28
  21499173.928          34.160  
  21085451.357          38.998  
  20220869.692          42.891  
  24353844.490          27.181  
  24972715.956          25.574  
 18  4 18  8 10 58.0004101  0  5G 1G11G18G22G28
  21498613.915          35.030  
  21085053.230          37.751  
  20220557.595          43.214  
  24353269.785          26.367  
  24972137.045          23.879  
 18  4 18  8 10 59.0004101  0  5G 1G11G18G22G28
  21498050.308          36.412  
  21084656.308          33.553  
  20220237.732          42.394  
  24352695.987          25.407  
  24971563.247          23.991  
 18  4 18  8 11  0.0004101  0  5G 1G11G18G22G28
  21497495.391          35.714  
  21084251.288          34.804  
  20219928.340          42.674  
  24352078.703          25.671  
  24971093.767          21.942  
 18  4 18  8 11  1.0004101  0  7G 1G 7G 8G11G18G22G28
  21496928.783          35.653  
  21398227.821          43.784  
  20752873.294          45.832  
  21083844.157          33.238  
  20219613.259          41.966  
  24351530.993          26.014  
  24970472.312          23.374  
 18  4 18  8 11  2.0004101  0  7G 1G 7G 8G11G18G22G28
  21496375.366          38.344  
  21398179.554          43.542  
  20752940.739          45.941  
  21083456.535          34.536  
  20219307.165          42.041  
  24350947.597          24.635  
  24969936.870          24.252  
 18  4 18  8 11  3.0004101  0  7G 1G 7G 8G11G18G22G28
  21495821.060          36.791  
  21398129.489          42.300  
  20753017.781          44.871  
  21083056.315          36.114  
  20218992.991          41.158  
  24350358.199          25.186  
  24969400.555          25.421  
