     2.11           OBSERVATION DATA    G (GPS)             RINEX VERSION / TYPE
AndroidGNSSReceiver RITSUMEIKAN KUBOLAB 1530253515930       PGM / RUN BY / DATE
HWVTR                                                       MARKER NAME
GRitzLogger         KUBOLAB                                 OBSERVER / AGENCY
0                   Android Receiver                        REC # / TYPE / VERS
0                   Android Anttena                         ANT # / TYPE
        0.0000        0.0000        0.0000                  APPROX POSITION XYZ
        0.0000        0.0000        0.0000                  ANTENNA: DELTA H/E/N
1     0                                                     WAVELENGTH FACT L1/2
2         C1    S1                                          # / TYPES OF OBSERV
1.000                                                       INTERVAL
  2018     6    29     6    19   32.0000207     GPS         TIME OF FIRST OBS
                                                            END OF HEADER
 18  6 29  6 19 32.0000207  0 11G 1G 3G 6G 8G11G17G18G19G22G23G28
  21432955.761          30.253  %2018/06/29/03:25.15
  20501428.656          37.405  %2018/06/29/03:25.15
  23998554.742          32.183  %2018/06/29/03:25.15
  24185966.991          24.768  %2018/06/29/03:25.15
  21716352.881          29.019  %2018/06/29/03:25.15
  22480582.619          36.764  %2018/06/29/03:25.15
  22985809.944          24.416  %2018/06/29/03:25.15
  23920625.489          27.810  %2018/06/29/03:25.15
  21482429.013          27.840  %2018/06/29/03:25.15
  25036709.639          35.256  %2018/06/29/03:25.15
  20639913.881          33.444  %2018/06/29/03:25.15
 18  6 29  6 19 33.0000207  0 11G 1G 3G 6G 8G11G17G18G19G22G23G28
  21433502.598          27.570  %2018/06/29/03:25.16
  20501459.229          37.677  %2018/06/29/03:25.16
  23998189.892          32.881  %2018/06/29/03:25.16
  24186579.180          24.632  %2018/06/29/03:25.16
  21716876.911          27.018  %2018/06/29/03:25.16
  22480275.932          37.590  %2018/06/29/03:25.16
  22986488.373          24.934  %2018/06/29/03:25.16
  23920180.596          24.344  %2018/06/29/03:25.16
  21482819.950          29.227  %2018/06/29/03:25.16
  25036384.367          38.120  %2018/06/29/03:25.16
  20640067.670          36.021  %2018/06/29/03:25.16
 18  6 29  6 19 34.0000207  0 11G 1G 3G 6G 8G11G17G18G19G22G23G28
  21434016.438          27.641  %2018/06/29/03:25.17
  20501499.696          38.368  %2018/06/29/03:25.17
  23997819.355          32.828  %2018/06/29/03:25.17
  24187212.344          22.391  %2018/06/29/03:25.17
  21717409.352          28.840  %2018/06/29/03:25.17
  22479971.931          35.890  %2018/06/29/03:25.17
  22987175.214          28.531  %2018/06/29/03:25.17
  23919745.004          24.964  %2018/06/29/03:25.17
  21483197.695          31.255  %2018/06/29/03:25.17
  25036054.593          34.649  %2018/06/29/03:25.17
  20640200.780          38.235  %2018/06/29/03:25.17
 18  6 29  6 19 35.0000207  0 11G 1G 3G 6G 8G11G17G18G19G22G23G28
  21434551.269          29.508  %2018/06/29/03:25.18
  20501531.473          37.040  %2018/06/29/03:25.18
  23997471.886          31.852  %2018/06/29/03:25.18
  24187836.206          24.826  %2018/06/29/03:25.18
  21717930.677          26.963  %2018/06/29/03:25.18
  22479661.352          33.233  %2018/06/29/03:25.18
  22987869.523          25.838  %2018/06/29/03:25.18
  23919324.087          23.344  %2018/06/29/03:25.18
  21483590.412          33.195  %2018/06/29/03:25.18
  25035724.819          35.731  %2018/06/29/03:25.18
  20640339.893          36.070  %2018/06/29/03:25.18
 18  6 29  6 19 36.0000207  0 11G 1G 3G 6G 8G11G17G18G19G22G23G28
  21435093.290          28.071  %2018/06/29/03:25.19
  20501570.457          38.344  %2018/06/29/03:25.19
  23997098.957          31.668  %2018/06/29/03:25.19
  24188469.963          26.692  %2018/06/29/03:25.19
  21718454.114          25.012  %2018/06/29/03:25.19
  22479359.167          35.014  %2018/06/29/03:25.19
  22988537.168          24.306  %2018/06/29/03:25.19
  23918872.301          22.354  %2018/06/29/03:25.19
  21483981.349          31.142  %2018/06/29/03:25.19
  25035398.046          35.448  %2018/06/29/03:25.19
  20640474.801          33.961  %2018/06/29/03:25.19
 18  6 29  6 19 37.0000207  0 12G 1G 3G 6G 8G11G17G18G19G22G23G28G30
  21435618.525          26.588  %2018/06/29/03:25.20
  20501604.624          38.968  %2018/06/29/03:25.20
  23996736.499          34.050  %2018/06/29/03:25.20
  24189087.544          28.182  %2018/06/29/03:25.20
  21718980.552          25.055  %2018/06/29/03:25.20
  22479059.966          36.211  %2018/06/29/03:25.20
  22989231.478          25.917  %2018/06/29/03:25.20
  23918451.995          25.430  %2018/06/29/03:25.20
  21484362.375          31.079  %2018/06/29/03:25.20
  25035070.977          34.686  %2018/06/29/03:25.20
  20640620.196          35.839  %2018/06/29/03:25.20
  25003390.403          31.898  %2018/06/29/03:25.20
 18  6 29  6 19 38.0000207  0 12G 1G 3G 6G 8G11G17G18G19G22G23G28G30
  21436141.665          26.703  %2018/06/29/03:25.21
  20501646.906          35.777  %2018/06/29/03:25.21
  23996384.249          34.029  %2018/06/29/03:25.21
  24189728.194          26.289  %2018/06/29/03:25.21
  21719499.208          29.501  %2018/06/29/03:25.21
  22478764.673          32.916  %2018/06/29/03:25.21
  22989929.399          25.130  %2018/06/29/03:25.21
  23917989.425          23.978  %2018/06/29/03:25.21
  21484753.609          35.432  %2018/06/29/03:25.21
  25034741.499          35.500  %2018/06/29/03:25.21
  20640758.995          37.847  %2018/06/29/03:25.21
  25004011.875          30.447  %2018/06/29/03:25.21
 18  6 29  6 19 39.0000207  0 12G 1G 3G 6G 8G11G17G18G19G22G23G28G30
  21436681.888          27.762  %2018/06/29/03:25.22
  20501680.480          37.844  %2018/06/29/03:25.22
  23996018.492          32.908  %2018/06/29/03:25.22
  24190340.068          24.920  %2018/06/29/03:25.22
  21720039.432          27.683  %2018/06/29/03:25.22
  22478450.482          34.379  %2018/06/29/03:25.22
  22990601.529          26.423  %2018/06/29/03:25.22
  23917599.377          24.835  %2018/06/29/03:25.22
  21485141.545          33.406  %2018/06/29/03:25.22
  25034413.540          35.086  %2018/06/29/03:25.22
  20640894.810          35.401  %2018/06/29/03:25.22
  25004627.047          28.630  %2018/06/29/03:25.22
 18  6 29  6 19 40.0000207  0 12G 1G 3G 6G 8G11G17G18G19G22G23G28G30
  21437214.015          29.455  %2018/06/29/03:25.23
  20501718.243          38.211  %2018/06/29/03:25.23
  23995667.743          31.217  %2018/06/29/03:25.23
  24190975.326          26.297  %2018/06/29/03:25.23
  21720555.068          27.206  %2018/06/29/03:25.23
  22478150.094          35.554  %2018/06/29/03:25.23
  22991293.762          27.940  %2018/06/29/03:25.23
  23917153.891          24.371  %2018/06/29/03:25.23
  21485521.977          29.933  %2018/06/29/03:25.23
  25034090.047          36.024  %2018/06/29/03:25.23
  20641036.000          35.721  %2018/06/29/03:25.23
  25005256.023          25.862  %2018/06/29/03:25.23
 18  6 29  6 19 41.0000207  0 12G 1G 3G 6G 8G11G17G18G19G22G23G28G30
  21437754.553          29.159  %2018/06/29/03:25.24
  20501753.021          36.875  %2018/06/29/03:25.24
  23995306.785          29.040  %2018/06/29/03:25.24
  24191609.694          23.902  %2018/06/29/03:25.24
  21721074.317          28.554  %2018/06/29/03:25.24
  22477846.111          37.082  %2018/06/29/03:25.24
  22991976.379          28.376  %2018/06/29/03:25.24
  23916711.999          22.975  %2018/06/29/03:25.24
  21485917.713          29.606  %2018/06/29/03:25.24
  25033763.275          32.868  %2018/06/29/03:25.24
  20641178.708          37.135  %2018/06/29/03:25.24
  25005864.896          23.032  %2018/06/29/03:25.24
 18  6 29  6 19 42.0000207  0 12G 1G 3G 6G 8G11G17G18G19G22G23G28G30
  21438280.084          28.555  %2018/06/29/03:25.25
  20501792.301          37.042  %2018/06/29/03:25.25
  23994929.058          33.523  %2018/06/29/03:25.25
  24192228.461          24.476  %2018/06/29/03:25.25
  21721596.846          27.653  %2018/06/29/03:25.25
  22477543.018          38.963  %2018/06/29/03:25.25
  22992663.499          25.605  %2018/06/29/03:25.25
  23916273.108          26.432  %2018/06/29/03:25.25
  21486305.334          32.051  %2018/06/29/03:25.25
  25033437.409          33.022  %2018/06/29/03:25.25
  20641322.602          36.244  %2018/06/29/03:25.25
  25006474.973          24.056  %2018/06/29/03:25.25
 18  6 29  6 19 43.0000207  0 12G 1G 3G 6G 8G11G17G18G19G22G23G28G30
  21438823.013          29.738  %2018/06/29/03:25.26
  20501833.379          37.285  %2018/06/29/03:25.26
  23994570.194          35.132  %2018/06/29/03:25.26
  24192858.623          24.938  %2018/06/29/03:25.26
  21722131.381          29.822  %2018/06/29/03:25.26
  22477242.927          35.601  %2018/06/29/03:25.26
  22993344.930          27.207  %2018/06/29/03:25.26
  23915838.406          25.386  %2018/06/29/03:25.26
  21486691.769          34.128  %2018/06/29/03:25.26
  25033117.826          31.471  %2018/06/29/03:25.26
  20641459.011          39.027  %2018/06/29/03:25.26
  25007090.739          25.221  %2018/06/29/03:25.26
 18  6 29  6 19 44.0000207  0 12G 1G 3G 6G 8G11G17G18G19G22G23G28G30
  21439352.749          30.309  %2018/06/29/03:25.27
  20501865.453          37.346  %2018/06/29/03:25.27
  23994211.644          35.407  %2018/06/29/03:25.27
  24193490.286          24.117  %2018/06/29/03:25.27
  21722656.319          28.603  %2018/06/29/03:25.27
  22476933.534          34.983  %2018/06/29/03:25.27
  22994041.351          26.075  %2018/06/29/03:25.27
  23915415.099          26.500  %2018/06/29/03:25.27
  21487078.501          32.785  %2018/06/29/03:25.27
  25032782.066          32.168  %2018/06/29/03:25.27
  20641602.608          38.980  %2018/06/29/03:25.27
  25007748.193          21.841  %2018/06/29/03:25.27
 18  6 29  6 19 45.0000207  0 12G 1G 3G 6G 8G11G17G18G19G22G23G28G30
  21439883.969          29.040  %2018/06/29/03:25.28
  20501905.623          38.438  %2018/06/29/03:25.28
  23993856.393          32.247  %2018/06/29/03:25.28
  24194116.261          25.277  %2018/06/29/03:25.28
  21723174.363          27.158  %2018/06/29/03:25.28
  22476637.352          34.496  %2018/06/29/03:25.28
  22994723.986          27.931  %2018/06/29/03:25.28
  23914970.502          28.065  %2018/06/29/03:25.28
  21487473.033          31.861  %2018/06/29/03:25.28
  25032450.791          31.267  %2018/06/29/03:25.28
  20641745.020          38.405  %2018/06/29/03:25.28
  25008323.492          21.290  %2018/06/29/03:25.28
 18  6 29  6 19 46.0000207  0 12G 1G 3G 6G 8G11G17G18G19G22G23G28G30
  21440418.504          28.196  %2018/06/29/03:25.29
  20501949.092          38.427  %2018/06/29/03:25.29
  23993494.842          30.775  %2018/06/29/03:25.29
  24194737.122          27.253  %2018/06/29/03:25.29
  21723701.691          29.741  %2018/06/29/03:25.29
  22476324.661          34.826  %2018/06/29/03:25.29
  22995410.513          28.145  %2018/06/29/03:25.29
  23914533.112          24.885  %2018/06/29/03:25.29
  21487863.656          35.052  %2018/06/29/03:25.29
  25032124.019          33.189  %2018/06/29/03:25.29
  20641884.709          38.112  %2018/06/29/03:25.29
  25008965.957          21.318  %2018/06/29/03:25.29
 18  6 29  6 19 47.0000207  0 12G 1G 3G 6G 8G11G17G18G19G22G23G28G30
  21440953.335          29.971  %2018/06/29/03:25.30
  20501981.165          36.565  %2018/06/29/03:25.30
  23993135.402          36.142  %2018/06/29/03:25.30
  24195357.390          26.427  %2018/06/29/03:25.30
  21724232.318          31.161  %2018/06/29/03:25.30
  22476023.069          31.678  %2018/06/29/03:25.30
  22996116.513          25.287  %2018/06/29/03:25.30
  23914099.911          22.673  %2018/06/29/03:25.30
  21488244.996          36.281  %2018/06/29/03:25.30
  25031803.231          31.477  %2018/06/29/03:25.30
  20642024.118          38.863  %2018/06/29/03:25.30
  25009570.031          22.862  %2018/06/29/03:25.30
 18  6 29  6 19 48.0000207  0 12G 1G 3G 6G 8G11G17G18G19G22G23G28G30
  21441480.367          31.197  %2018/06/29/03:25.31
  20502025.541          36.236  %2018/06/29/03:25.31
  23992775.334          36.642  %2018/06/29/03:25.31
  24195992.665          28.507  %2018/06/29/03:25.31
  21724755.458          30.776  %2018/06/29/03:25.31
  22475724.775          33.490  %2018/06/29/03:25.31
  22996776.062          27.645  %2018/06/29/03:25.31
  23913676.010          25.846  %2018/06/29/03:25.31
  21488634.415          36.271  %2018/06/29/03:25.31
  25031469.269          31.931  %2018/06/29/03:25.31
  20642169.514          39.433  %2018/06/29/03:25.31
  25010207.383          22.362  %2018/06/29/03:25.31
 18  6 29  6 19 49.0000207  0 12G 1G 3G 6G 8G11G17G18G19G22G23G28G30
  21442015.495          31.405  %2018/06/29/03:25.32
  20502060.023          37.323  %2018/06/29/03:25.32
  23992413.190          35.937  %2018/06/29/03:25.32
  24196627.312          26.855  %2018/06/29/03:25.32
  21725285.787          31.061  %2018/06/29/03:25.32
  22475417.494          34.096  %2018/06/29/03:25.32
  22997468.574          28.500  %2018/06/29/03:25.32
  23913243.402          27.876  %2018/06/29/03:25.32
  21489026.260          34.980  %2018/06/29/03:25.32
  25031138.902          31.805  %2018/06/29/03:25.32
  20642308.627          38.810  %2018/06/29/03:25.32
  25010800.673          25.054  %2018/06/29/03:25.32
 18  6 29  6 19 50.0000207  0 12G 1G 3G 6G 8G11G17G18G19G22G23G28G30
  21442560.518          31.382  %2018/06/29/03:25.33
  20502098.396          36.576  %2018/06/29/03:25.33
  23992051.639          34.655  %2018/06/29/03:25.33
  24197246.097          25.474  %2018/06/29/03:25.33
  21725813.133          30.557  %2018/06/29/03:25.33
  22475117.089          33.586  %2018/06/29/03:25.33
  22998157.194          27.414  %2018/06/29/03:25.33
  23912803.900          27.110  %2018/06/29/03:25.33
  21489406.692          35.221  %2018/06/29/03:25.33
  25030821.726          32.281  %2018/06/29/03:25.33
  20642452.818          39.048  %2018/06/29/03:25.33
  25011405.358          27.385  %2018/06/29/03:25.33
 18  6 29  6 19 51.0000207  0 12G 1G 3G 6G 8G11G17G18G19G22G23G28G30
  21443087.253          32.410  %2018/06/29/03:25.34
  20502140.660          36.875  %2018/06/29/03:25.34
  23991692.496          34.411  %2018/06/29/03:25.34
  24197867.255          25.874  %2018/06/29/03:25.34
  21726334.772          31.701  %2018/06/29/03:25.34
  22474816.404          32.553  %2018/06/29/03:25.34
  22998856.023          25.768  %2018/06/29/03:25.34
  23912387.486          27.542  %2018/06/29/03:25.34
  21489808.117          35.228  %2018/06/29/03:25.34
  25030491.045          32.439  %2018/06/29/03:25.34
  20642593.118          38.823  %2018/06/29/03:25.34
  25012014.841          30.430  %2018/06/29/03:25.34
 18  6 29  6 19 52.0000207  0 12G 1G 3G 6G 8G11G17G18G19G22G23G28G30
  21443622.992          31.974  %2018/06/29/03:25.35
  20502179.330          37.261  %2018/06/29/03:25.35
  23991342.636          32.850  %2018/06/29/03:25.35
  24198511.220          25.288  %2018/06/29/03:25.35
  21726860.896          31.895  %2018/06/29/03:25.35
  22474506.419          33.192  %2018/06/29/03:25.35
  22999529.654          23.255  %2018/06/29/03:25.35
  23911951.597          29.023  %2018/06/29/03:25.35
  21490193.941          34.249  %2018/06/29/03:25.35
  25030165.773          32.738  %2018/06/29/03:25.35
  20642737.030          39.262  %2018/06/29/03:25.35
  25012641.112          30.445  %2018/06/29/03:25.35
 18  6 29  6 19 53.0000207  0 12G 1G 3G 6G 8G11G17G18G19G22G23G28G30
  21444160.808          33.958  %2018/06/29/03:25.36
  20502216.202          34.926  %2018/06/29/03:25.36
  23990974.489          28.901  %2018/06/29/03:25.36
  24199128.190          24.519  %2018/06/29/03:25.36
  21727392.133          35.338  %2018/06/29/03:25.36
  22474207.828          34.732  %2018/06/29/03:25.36
  23000226.371          25.670  %2018/06/29/03:25.36
  23911516.005          26.148  %2018/06/29/03:25.36
  21490586.972          35.593  %2018/06/29/03:25.36
  25029833.608          31.027  %2018/06/29/03:25.36
  20642878.830          37.842  %2018/06/29/03:25.36
  25013268.273          27.815  %2018/06/29/03:25.36
 18  6 29  6 19 54.0000207  0 12G 1G 3G 6G 8G11G17G18G19G22G23G28G30
  21444695.936          33.466  %2018/06/29/03:25.37
  20502260.281          34.665  %2018/06/29/03:25.37
  23990619.831          27.726  %2018/06/29/03:25.37
  24199770.044          23.121  %2018/06/29/03:25.37
  21727915.273          34.702  %2018/06/29/03:25.37
  22473901.437          33.542  %2018/06/29/03:25.37
  23000905.097          26.972  %2018/06/29/03:25.37
  23911072.612          27.116  %2018/06/29/03:25.37
  21490968.905          35.825  %2018/06/29/03:25.37
  25029508.929          28.687  %2018/06/29/03:25.37
  20643026.023          38.053  %2018/06/29/03:25.37
  25013914.018          24.547  %2018/06/29/03:25.37
 18  6 29  6 19 55.0000207  0 12G 1G 3G 6G 8G11G17G18G19G22G23G28G30
  21445224.468          34.442  %2018/06/29/03:25.38
  20502294.152          37.827  %2018/06/29/03:25.38
  23990252.294          30.290  %2018/06/29/03:25.38
  24200412.805          22.527  %2018/06/29/03:25.38
  21728439.914          34.635  %2018/06/29/03:25.38
  22473598.047          33.235  %2018/06/29/03:25.38
  23001592.217          29.371  %2018/06/29/03:25.38
  23910647.507          30.266  %2018/06/29/03:25.38
  21491357.434          34.126  %2018/06/29/03:25.38
  25029174.967          29.161  %2018/06/29/03:25.38
  20643164.525          35.815  %2018/06/29/03:25.38
  25014501.009          22.628  %2018/06/29/03:25.38
 18  6 29  6 19 56.0000207  0 12G 1G 3G 6G 8G11G17G18G19G22G23G28G30
  21445759.003          33.843  %2018/06/29/03:25.39
  20502341.826          37.206  %2018/06/29/03:25.39
  23989899.137          32.315  %2018/06/29/03:25.39
  24201044.468          20.694  %2018/06/29/03:25.39
  21728966.649          36.835  %2018/06/29/03:25.39
  22473300.661          33.652  %2018/06/29/03:25.39
  23002281.745          28.917  %2018/06/29/03:25.39
  23910213.992          29.810  %2018/06/29/03:25.39
  21491755.561          34.916  %2018/06/29/03:25.39
  25028860.479          29.817  %2018/06/29/03:25.39
  20643307.826          34.093  %2018/06/29/03:25.39
  25015117.385          24.266  %2018/06/29/03:25.39
 18  6 29  6 19 57.0000207  0 12G 1G 3G 6G 8G11G17G18G19G22G23G28G30
  21446295.336          34.088  %2018/06/29/03:25.40
  20502376.901          37.176  %2018/06/29/03:25.40
  23989531.286          33.862  %2018/06/29/03:25.40
  24201635.053          24.183  %2018/06/29/03:25.40
  21729496.071          36.171  %2018/06/29/03:25.40
  22473001.163          33.141  %2018/06/29/03:25.40
  23002947.593          25.551  %2018/06/29/03:25.40
  23909795.797          28.125  %2018/06/29/03:25.40
  21492141.403          35.236  %2018/06/29/03:25.40
  25028537.894          29.830  %2018/06/29/03:25.40
  20643449.941          38.202  %2018/06/29/03:25.40
  25015751.457          22.417  %2018/06/29/03:25.40
 18  6 29  6 19 58.0000207  0 12G 1G 3G 6G 8G11G17G18G19G22G23G28G30
  21446833.762          34.026  %2018/06/29/03:25.41
  20502414.663          34.862  %2018/06/29/03:25.41
  23989177.536          33.119  %2018/06/29/03:25.41
  24202276.314          23.668  %2018/06/29/03:25.41
  21730019.508          35.686  %2018/06/29/03:25.41
  22472691.177          32.827  %2018/06/29/03:25.41
  23003676.087          23.468  %2018/06/29/03:25.41
  23909346.402          26.737  %2018/06/29/03:25.41
  21492531.118          35.963  %2018/06/29/03:25.41
  25028203.025          30.636  %2018/06/29/03:25.41
  20643598.337          37.196  %2018/06/29/03:25.41
  25016347.137          20.103  %2018/06/29/03:25.41
 18  6 29  6 19 59.0000207  0 12G 1G 3G 6G 8G11G17G18G19G22G23G28G30
  21447362.591          34.181  %2018/06/29/03:25.42
  20502461.133          36.765  %2018/06/29/03:25.42
  23988819.579          34.430  %2018/06/29/03:25.42
  24202919.669          23.274  %2018/06/29/03:25.42
  21730542.055          35.380  %2018/06/29/03:25.42
  22472399.183          34.504  %2018/06/29/03:25.42
  23004340.121          23.303  %2018/06/29/03:25.42
  23908917.702          26.294  %2018/06/29/03:25.42
  21492925.650          35.203  %2018/06/29/03:25.42
  25027869.970          31.103  %2018/06/29/03:25.42
  20643739.527          35.951  %2018/06/29/03:25.42
  25016937.426          23.024  %2018/06/29/03:25.42
 18  6 29  6 20  0.0000207  0 12G 1G 3G 6G 8G11G17G18G19G22G23G28G30
  21447899.517          34.259  %2018/06/29/03:25.43
  20502501.007          35.704  %2018/06/29/03:25.43
  23988456.231          32.123  %2018/06/29/03:25.43
  24203541.141          21.850  %2018/06/29/03:25.43
  21731078.387          36.282  %2018/06/29/03:25.43
  22472086.789          32.276  %2018/06/29/03:25.43
  23005023.349          24.893  %2018/06/29/03:25.43
  23908501.584          23.963  %2018/06/29/03:25.43
  21493313.883          35.023  %2018/06/29/03:25.43
  25027547.088          30.802  %2018/06/29/03:25.43
  20643882.828          35.988  %2018/06/29/03:25.43
  25017580.780          21.918  %2018/06/29/03:25.43
 18  6 29  6 20  1.0000207  0 12G 1G 3G 6G 8G11G17G18G19G22G23G28G30
  21448427.159          34.238  %2018/06/29/03:25.44
  20502539.677          36.959  %2018/06/29/03:25.44
  23988097.088          34.165  %2018/06/29/03:25.44
  24204201.876          20.797  %2018/06/29/03:25.44
  21731606.326          36.396  %2018/06/29/03:25.44
  22471788.198          33.600  %2018/06/29/03:25.44
  23005723.364          26.453  %2018/06/29/03:25.44
  23908056.394          27.723  %2018/06/29/03:25.44
  21493710.805          34.184  %2018/06/29/03:25.44
  25027224.800          29.362  %2018/06/29/03:25.44
  20644030.335          36.786  %2018/06/29/03:25.44
  25018188.170          23.232  %2018/06/29/03:25.44
 18  6 29  6 20  2.0000207  0 12G 1G 3G 6G 8G11G17G18G19G22G23G28G30
  21448974.276          33.697  %2018/06/29/03:25.45
  20502581.959          37.098  %2018/06/29/03:25.45
  23987738.224          38.425  %2018/06/29/03:25.45
  24204789.477          23.142  %2018/06/29/03:25.45
  21732125.557          35.848  %2018/06/29/03:25.45
  22471486.903          32.809  %2018/06/29/03:25.45
  23006409.891          27.545  %2018/06/29/03:25.45
  23907617.504          26.987  %2018/06/29/03:25.45
  21494106.542          35.360  %2018/06/29/03:25.45
  25026886.650          28.937  %2018/06/29/03:25.45
  20644169.134          36.290  %2018/06/29/03:25.45
  25018799.137          25.627  %2018/06/29/03:25.45
 18  6 29  6 20  3.0000207  0 12G 1G 3G 6G 8G11G17G18G19G22G23G28G30
  21449498.620          34.202  %2018/06/29/03:25.46
  20502620.628          38.071  %2018/06/29/03:25.46
  23987381.472          35.917  %2018/06/29/03:25.46
  24205446.617          23.756  %2018/06/29/03:25.46
  21732660.092          35.530  %2018/06/29/03:25.46
  22471180.826          34.008  %2018/06/29/03:25.46
  23007103.607          27.241  %2018/06/29/03:25.46
  23907177.706          27.941  %2018/06/29/03:25.46
  21494488.771          33.654  %2018/06/29/03:25.46
  25026569.754          28.200  %2018/06/29/03:25.46
  20644316.327          34.877  %2018/06/29/03:25.46
  25019427.205          23.287  %2018/06/29/03:25.46
 18  6 29  6 20  4.0000207  0 12G 1G 3G 6G 8G11G17G18G19G22G23G28G30
  21450038.250          32.899  %2018/06/29/03:25.47
  20502658.705          36.479  %2018/06/29/03:25.47
  23987021.718          33.380  %2018/06/29/03:25.47
  24206070.777          22.243  %2018/06/29/03:25.47
  21733188.328          35.270  %2018/06/29/03:25.47
  22470881.921          34.577  %2018/06/29/03:25.47
  23007780.832          25.336  %2018/06/29/03:25.47
  23906756.493          29.001  %2018/06/29/03:25.47
  21494883.006          34.117  %2018/06/29/03:25.47
  25026245.686          27.451  %2018/06/29/03:25.47
  20644462.333          36.673  %2018/06/29/03:25.47
  25020031.594          25.571  %2018/06/29/03:25.47
 18  6 29  6 20  5.0000207  0 12G 1G 3G 6G 8G11G17G18G19G22G23G28G30
  21450577.567          32.464  %2018/06/29/03:25.48
  20502703.971          34.699  %2018/06/29/03:25.48
  23986659.574          32.678  %2018/06/29/03:25.48
  24206675.758          22.438  %2018/06/29/03:25.48
  21733709.653          34.339  %2018/06/29/03:25.48
  22470574.640          33.698  %2018/06/29/03:25.48
  23008464.375          25.241  %2018/06/29/03:25.48
  23906326.589          29.350  %2018/06/29/03:25.48
  21495275.130          34.830  %2018/06/29/03:25.48
  25025906.314          27.288  %2018/06/29/03:25.48
  20644602.632          37.572  %2018/06/29/03:25.48
  25020653.659          24.982  %2018/06/29/03:25.48
 18  6 29  6 20  6.0000207  0 12G 1G 3G 6G 8G11G17G18G19G22G23G28G30
  21451107.600          33.486  %2018/06/29/03:25.49
  20502747.439          35.643  %2018/06/29/03:25.49
  23986301.024          36.287  %2018/06/29/03:25.49
  24207301.732          23.916  %2018/06/29/03:25.49
  21734238.796          34.617  %2018/06/29/03:25.49
  22470279.051          32.295  %2018/06/29/03:25.49
  23009149.994          23.621  %2018/06/29/03:25.49
  23905887.699          29.135  %2018/06/29/03:25.49
  21495662.752          35.074  %2018/06/29/03:25.49
  25025572.055          26.700  %2018/06/29/03:25.49
  20644745.934          36.970  %2018/06/29/03:25.49
  25021287.713          21.991  %2018/06/29/03:25.49
 18  6 29  6 20  7.0000207  0 12G 1G 3G 6G 8G11G17G18G19G22G23G28G30
  21451637.929          32.993  %2018/06/29/03:25.50
  20502786.109          34.437  %2018/06/29/03:25.50
  23985955.370          33.639  %2018/06/29/03:25.50
  24207934.896          23.812  %2018/06/29/03:25.50
  21734767.328          35.461  %2018/06/29/03:25.50
  22469974.457          32.251  %2018/06/29/03:25.50
  23009855.401          22.147  %2018/06/29/03:25.50
  23905466.189          28.631  %2018/06/29/03:25.50
  21496060.285          35.597  %2018/06/29/03:25.50
  25025275.262          26.573  %2018/06/29/03:25.50
  20644890.439          37.047  %2018/06/29/03:25.50
  25021907.091          22.443  %2018/06/29/03:25.50
 18  6 29  6 20  8.0000207  0 12G 1G 3G 6G 8G11G17G18G19G22G23G28G30
  21452189.251          32.425  %2018/06/29/03:25.51
  20502829.577          33.636  %2018/06/29/03:25.51
  23985581.831          32.689  %2018/06/29/03:25.51
  24208574.656          25.840  %2018/06/29/03:25.51
  21735291.969          34.098  %2018/06/29/03:25.51
  22469676.163          31.831  %2018/06/29/03:25.51
  23010547.931          19.387  %2018/06/29/03:25.51
  23905018.591          28.004  %2018/06/29/03:25.51
  21496448.221          35.692  %2018/06/29/03:25.51
  25024938.298          25.895  %2018/06/29/03:25.51
  20645041.837          38.442  %2018/06/29/03:25.51
  25022491.080          23.788  %2018/06/29/03:25.51
 18  6 29  6 20  9.0000207  0 12G 1G 3G 6G 8G11G17G18G19G22G23G28G30
  21452712.095          33.574  %2018/06/29/03:25.52
  20502873.953          34.192  %2018/06/29/03:25.52
  23985224.765          35.633  %2018/06/29/03:25.52
  24209191.626          26.532  %2018/06/29/03:25.52
  21735824.392          32.073  %2018/06/29/03:25.52
  22469376.369          31.631  %2018/06/29/03:25.52
  23011239.553          18.979  %2018/06/29/03:25.52
  23904593.486          28.229  %2018/06/29/03:25.52
  21496841.549          36.290  %2018/06/29/03:25.52
  25024606.727          26.114  %2018/06/29/03:25.52
  20645181.526          37.660  %2018/06/29/03:25.52
  25023132.044          29.136  %2018/06/29/03:25.52
 18  6 29  6 20 10.0000207  0 12G 1G 3G 6G 8G11G17G18G19G22G23G28G30
  21453248.724          33.454  %2018/06/29/03:25.53
  20502915.328          35.012  %2018/06/29/03:25.53
  23984864.121          37.591  %2018/06/29/03:25.53
  24209833.183          25.630  %2018/06/29/03:25.53
  21736349.033          31.787  %2018/06/29/03:25.53
  22469070.588          32.880  %2018/06/29/03:25.53
  23011932.065          20.087  %2018/06/29/03:25.53
  23904162.082          29.835  %2018/06/29/03:25.53
  21497235.767          36.275  %2018/06/29/03:25.53
  25024276.045          25.043  %2018/06/29/03:25.53
  20645327.235          37.545  %2018/06/29/03:25.53
  25023737.619          26.294  %2018/06/29/03:25.53
 18  6 29  6 20 11.0000207  0 12G 1G 3G 6G 8G11G17G18G19G22G23G28G30
  21453784.149          34.880  %2018/06/29/03:25.54
  20502953.701          35.919  %2018/06/29/03:25.54
  23984506.775          35.057  %2018/06/29/03:25.54
  24210460.937          25.141  %2018/06/29/03:25.54
  21736870.969          32.348  %2018/06/29/03:25.54
  22468774.388          33.059  %2018/06/29/03:25.54
  23012607.807          22.233  %2018/06/29/03:25.54
  23903720.190          27.495  %2018/06/29/03:25.54
  21497630.892          35.971  %2018/06/29/03:25.54
  25023962.168          23.924  %2018/06/29/03:25.54
  20645473.224          38.156  %2018/06/29/03:25.54
  25024349.807          24.754  %2018/06/29/03:25.54
 18  6 29  6 20 12.0000207  0 12G 1G 3G 6G 8G11G17G18G19G22G23G28G30
  21454327.078          33.255  %2018/06/29/03:25.55
  20502998.059          36.349  %2018/06/29/03:25.55
  23984149.709          33.981  %2018/06/29/03:25.55
  24211093.211          24.824  %2018/06/29/03:25.55
  21737408.209          32.799  %2018/06/29/03:25.55
  22468464.996          33.435  %2018/06/29/03:25.55
  23013306.322          21.877  %2018/06/29/03:25.55
  23903304.979          26.525  %2018/06/29/03:25.55
  21498017.327          35.773  %2018/06/29/03:25.55
  25023612.902          22.393  %2018/06/29/03:25.55
  20645618.340          38.037  %2018/06/29/03:25.55
  25024973.373          24.487  %2018/06/29/03:25.55
 18  6 29  6 20 13.0000207  0 12G 1G 3G 6G 8G11G17G18G19G22G23G28G30
  21454855.906          32.489  %2018/06/29/03:25.56
  20503037.933          34.659  %2018/06/29/03:25.56
  23983792.660          30.931  %2018/06/29/03:25.56
  24211710.478          25.070  %2018/06/29/03:25.56
  21737935.537          31.800  %2018/06/29/03:25.56
  22468158.605          32.550  %2018/06/29/03:25.56
  23013992.848          22.419  %2018/06/29/03:25.56
  23902864.588          24.213  %2018/06/29/03:25.56
  21498408.264          36.126  %2018/06/29/03:25.56
  25023297.524          21.864  %2018/06/29/03:25.56
  20645759.233          38.904  %2018/06/29/03:25.56
  25025582.543          26.911  %2018/06/29/03:25.56
 18  6 29  6 20 14.0000207  0 12G 1G 3G 6G 8G11G17G18G19G22G23G28G30
  21455386.847          34.003  %2018/06/29/03:25.57
  20503077.213          33.747  %2018/06/29/03:25.57
  23983434.407          32.561  %2018/06/29/03:25.57
  24212343.345          25.281  %2018/06/29/03:25.57
  21738459.567          32.312  %2018/06/29/03:25.57
  22467855.530          31.714  %2018/06/29/03:25.57
  23014649.378          27.134  %2018/06/29/03:25.57
  23902421.492          22.010  %2018/06/29/03:25.57
  21498805.780          35.787  %2018/06/29/03:25.57
  25022958.466          22.619  %2018/06/29/03:25.57
  20645909.130          38.608  %2018/06/29/03:25.57
  25026204.311          24.109  %2018/06/29/03:25.57
 18  6 29  6 20 15.0000207  0 12G 1G 3G 6G 8G11G17G18G19G22G23G28G30
  21455917.176          31.956  %2018/06/29/03:25.58
  20503120.682          32.751  %2018/06/29/03:25.58
  23983062.665          34.122  %2018/06/29/03:25.58
  24212977.695          24.536  %2018/06/29/03:25.58
  21738970.126          29.497  %2018/06/29/03:25.58
  22467562.925          33.270  %2018/06/29/03:25.58
  23015353.005          25.708  %2018/06/29/03:25.58
  23901976.599          21.949  %2018/06/29/03:25.58
  21499191.011          34.893  %2018/06/29/03:25.58
  25022637.382          22.688  %2018/06/29/03:25.58
  20646049.727          37.890  %2018/06/29/03:25.58
  25026841.977          22.188  %2018/06/29/03:25.58
 18  6 29  6 20 16.0000207  0 12G 1G 3G 6G 8G11G17G18G19G22G23G28G30
  21456466.701          29.766  %2018/06/29/03:25.59
  20503168.652          35.074  %2018/06/29/03:25.59
  23982713.417          32.641  %2018/06/29/03:25.59
  24213610.562          26.886  %2018/06/29/03:25.59
  21739516.335          27.984  %2018/06/29/03:25.59
  22467252.049          35.335  %2018/06/29/03:25.59
  23016045.517          26.637  %2018/06/29/03:25.59
  23901569.485          24.422  %2018/06/29/03:25.59
  21499583.135          32.498  %2018/06/29/03:25.59
  25022331.899          22.491  %2018/06/29/03:25.59
  20646196.622          36.715  %2018/06/29/03:25.59
  25027449.646          23.146  %2018/06/29/03:25.59
 18  6 29  6 20 17.0000207  0 12G 1G 3G 6G 8G11G17G18G19G22G23G28G30
  21457001.219          29.022  %2018/06/29/03:26.00
  20503205.228          34.717  %2018/06/29/03:26.00
  23982352.162          33.983  %2018/06/29/03:26.00
  24214232.627          27.890  %2018/06/29/03:26.00
  21740045.478          26.085  %2018/06/29/03:26.00
  22466947.752          34.744  %2018/06/29/03:26.00
  23016734.138          24.686  %2018/06/29/03:26.00
  23901135.690          24.007  %2018/06/29/03:26.00
  21499984.874          32.644  %2018/06/29/03:26.00
  25021983.540          22.711  %2018/06/29/03:26.00
  20646345.630          36.199  %2018/06/29/03:26.00
  25028073.212          21.250  %2018/06/29/03:26.00
 18  6 29  6 20 18.0000207  0 12G 1G 3G 6G 8G11G17G18G19G22G23G28G30
  21457526.156          28.478  %2018/06/29/03:26.01
  20503257.683          36.022  %2018/06/29/03:26.01
  23981996.911          34.030  %2018/06/29/03:26.01
  24214859.491          27.008  %2018/06/29/03:26.01
  21740570.415          26.684  %2018/06/29/03:26.01
  22466653.664          35.154  %2018/06/29/03:26.01
  23017397.874          22.944  %2018/06/29/03:26.01
  23900691.390          21.398  %2018/06/29/03:26.01
  21500372.199          30.411  %2018/06/29/03:26.01
  25021654.359          23.786  %2018/06/29/03:26.01
  20646487.134          36.397  %2018/06/29/03:26.01
  25028664.112          20.731  %2018/06/29/03:26.01
 18  6 29  6 20 19.0000207  0 11G 1G 3G 6G11G17G18G19G22G23G28G30
  21458073.273          30.078  %2018/06/29/03:26.02
  20503293.055          33.680  %2018/06/29/03:26.02
  23981637.157          32.670  %2018/06/29/03:26.02
  21741104.951          25.359  %2018/06/29/03:26.02
  22466341.566          33.087  %2018/06/29/03:26.02
  23018112.879          22.614  %2018/06/29/03:26.02
  23900268.676          22.333  %2018/06/29/03:26.02
  21500765.824          32.088  %2018/06/29/03:26.02
  25021337.777          24.034  %2018/06/29/03:26.02
  20646632.232          36.455  %2018/06/29/03:26.02
  25029294.274          19.222  %2018/06/29/03:26.02
 18  6 29  6 20 20.0000207  0 11G 1G 3G 6G11G17G18G19G22G23G28G30
  21458604.806          30.140  %2018/06/29/03:26.03
  20503339.822          33.824  %2018/06/29/03:26.03
  23981273.198          31.904  %2018/06/29/03:26.03
  21741626.887          27.369  %2018/06/29/03:26.03
  22466055.871          34.239  %2018/06/29/03:26.03
  23018811.097          25.269  %2018/06/29/03:26.03
  23899854.670          22.288  %2018/06/29/03:26.03
  21501162.153          31.888  %2018/06/29/03:26.03
  25020999.924          23.603  %2018/06/29/03:26.03
  20646783.927          35.703  %2018/06/29/03:26.03
  25029922.935          18.515  %2018/06/29/03:26.03
 18  6 29  6 20 21.0000207  0 11G 1G 3G 6G11G17G18G19G22G23G28G30
  21459128.854          30.325  %2018/06/29/03:26.04
  20503382.104          33.693  %2018/06/29/03:26.04
  23980933.233          31.288  %2018/06/29/03:26.04
  21742141.616          29.536  %2018/06/29/03:26.04
  22465744.385          34.122  %2018/06/29/03:26.04
  23019472.147          26.336  %2018/06/29/03:26.04
  23899399.882          23.378  %2018/06/29/03:26.04
  21501547.384          32.175  %2018/06/29/03:26.04
  25020687.827          22.138  %2018/06/29/03:26.04
  20646922.133          33.559  %2018/06/29/03:26.04
  25030519.820          23.940  %2018/06/29/03:26.04
 18  6 29  6 20 22.0000207  0 11G 1G 3G 6G11G17G18G19G22G23G28G30
  21459670.578          28.995  %2018/06/29/03:26.05
  20503419.569          34.289  %2018/06/29/03:26.05
  23980556.098          30.321  %2018/06/29/03:26.05
  21742681.543          27.995  %2018/06/29/03:26.05
  22465443.700          34.241  %2018/06/29/03:26.05
  23020150.873          23.224  %2018/06/29/03:26.05
  23898956.490          25.596  %2018/06/29/03:26.05
  21501949.106          33.294  %2018/06/29/03:26.05
  25020342.469          23.218  %2018/06/29/03:26.05
  20647078.016          33.259  %2018/06/29/03:26.05
  25031145.794          21.441  %2018/06/29/03:26.05
 18  6 29  6 20 23.0000207  0 11G 1G 3G 6G11G17G18G19G22G23G28G30
  21460195.813          28.700  %2018/06/29/03:26.06
  20503465.149          33.985  %2018/06/29/03:26.06
  23980209.240          32.233  %2018/06/29/03:26.06
  21743208.592          28.472  %2018/06/29/03:26.06
  22465133.715          33.906  %2018/06/29/03:26.06
  23020865.878          22.703  %2018/06/29/03:26.06
  23898540.372          28.273  %2018/06/29/03:26.06
  21502345.435          33.507  %2018/06/29/03:26.06
  25020017.197          23.833  %2018/06/29/03:26.06
  20647219.223          32.068  %2018/06/29/03:26.06
  25031745.977          23.976  %2018/06/29/03:26.06
 18  6 29  6 20 24.0000207  0 11G 1G 3G 6G11G17G18G19G22G23G28G30
  21460749.525          28.671  %2018/06/29/03:26.07
  20503511.602          33.975  %2018/06/29/03:26.07
  23979840.500          33.985  %2018/06/29/03:26.07
  21743727.526          28.234  %2018/06/29/03:26.07
  22464839.609          34.472  %2018/06/29/03:26.07
  23021541.306          26.935  %2018/06/29/03:26.07
  23898108.671          27.156  %2018/06/29/03:26.07
  21502731.870          32.500  %2018/06/29/03:26.07
  25019688.924          21.300  %2018/06/29/03:26.07
  20647366.729          33.587  %2018/06/29/03:26.07
  25032378.548          23.790  %2018/06/29/03:26.07
 18  6 29  6 20 25.0000207  0 12G 1G 3G 6G 8G11G17G18G19G22G23G28G30
  21461269.961          29.160  %2018/06/29/03:26.08
  20503555.681          34.225  %2018/06/29/03:26.08
  23979478.356          33.704  %2018/06/29/03:26.08
  24219260.750          29.138  %2018/06/29/03:26.08
  21744248.258          28.514  %2018/06/29/03:26.08
  22464531.124          33.254  %2018/06/29/03:26.08
  23022227.239          25.819  %2018/06/29/03:26.08
  23897650.288          24.596  %2018/06/29/03:26.08
  21503123.697          33.160  %2018/06/29/03:26.08
  25019361.558          21.348  %2018/06/29/03:26.08
  20647515.423          34.227  %2018/06/29/03:26.08
  25032982.028          28.922  %2018/06/29/03:26.08
 18  6 29  6 20 26.0000207  0 12G 1G 3G 6G 8G11G17G18G19G22G23G28G30
  21461804.199          28.102  %2018/06/29/03:26.09
  20503590.756          34.268  %2018/06/29/03:26.09
  23979125.198          34.956  %2018/06/29/03:26.09
  24219890.023          29.113  %2018/06/29/03:26.09
  21744785.498          27.822  %2018/06/29/03:26.09
  22464230.439          32.344  %2018/06/29/03:26.09
  23022915.563          24.858  %2018/06/29/03:26.09
  23897225.184          23.366  %2018/06/29/03:26.09
  21503513.116          33.141  %2018/06/29/03:26.09
  25019017.684          18.732  %2018/06/29/03:26.09
  20647654.815          35.387  %2018/06/29/03:26.09
  25033616.675          25.815  %2018/06/29/03:26.09
 18  6 29  6 20 27.0000207  0 12G 1G 3G 6G 8G11G17G18G19G22G23G28G30
  21462354.911          29.270  %2018/06/29/03:26.10
  20503644.415          33.768  %2018/06/29/03:26.10
  23978763.036          33.261  %2018/06/29/03:26.10
  24220532.767          28.284  %2018/06/29/03:26.10
  21745317.625          27.436  %2018/06/29/03:26.10
  22463933.942          33.384  %2018/06/29/03:26.10
  23023598.198          22.799  %2018/06/29/03:26.10
  23896803.988          28.400  %2018/06/29/03:26.10
  21503911.540          33.647  %2018/06/29/03:26.10
  25018706.511          18.049  %2018/06/29/03:26.10
  20647802.025          34.628  %2018/06/29/03:26.10
  25034257.936          21.775  %2018/06/29/03:26.10
 18  6 29  6 20 28.0000207  0 12G 1G 3G 6G 8G11G17G18G19G22G23G28G30
  21462886.741          29.523  %2018/06/29/03:26.11
  20503678.286          34.120  %2018/06/29/03:26.11
  23978403.597          33.239  %2018/06/29/03:26.11
  24221153.035          27.431  %2018/06/29/03:26.11
  21745842.266          28.316  %2018/06/29/03:26.11
  22463632.350          34.347  %2018/06/29/03:26.11
  23024313.797          22.082  %2018/06/29/03:26.11
  23896360.892          29.042  %2018/06/29/03:26.11
  21504301.569          33.033  %2018/06/29/03:26.11
  25018392.931          17.311  %2018/06/29/03:26.11
  20647951.015          32.943  %2018/06/29/03:26.11
  25034860.230          20.390  %2018/06/29/03:26.11
 18  6 29  6 20 29.0000207  0 12G 1G 3G 6G 8G11G17G18G19G22G23G28G30
  21463414.086          28.526  %2018/06/29/03:26.12
  20503726.257          33.895  %2018/06/29/03:26.12
  23978050.439          35.457  %2018/06/29/03:26.12
  24221790.701          25.084  %2018/06/29/03:26.12
  21746372.892          27.686  %2018/06/29/03:26.12
  22463325.663          33.954  %2018/06/29/03:26.12
  23025023.410          22.608  %2018/06/29/03:26.12
  23895933.990          28.208  %2018/06/29/03:26.12
  21504696.101          33.035  %2018/06/29/03:26.12
  25018060.155          16.163  %2018/06/29/03:26.12
  20648090.128          34.360  %2018/06/29/03:26.12
  25035466.102          19.988  %2018/06/29/03:26.12
 18  6 29  6 20 30.0000207  0 12G 1G 3G 6G 8G11G17G18G19G22G23G28G30
  21463956.404          30.087  %2018/06/29/03:26.13
  20503770.633          33.218  %2018/06/29/03:26.13
  23977691.279          32.258  %2018/06/29/03:26.13
  24222423.568          26.727  %2018/06/29/03:26.13
  21746898.126          29.233  %2018/06/29/03:26.13
  22463030.370          34.427  %2018/06/29/03:26.13
  23025679.049          22.182  %2018/06/29/03:26.13
  23895512.776          27.294  %2018/06/29/03:26.13
  21505090.040          34.177  %2018/06/29/03:26.13
  25017733.976          14.737  %2018/06/29/03:26.13
  20648241.212          35.571  %2018/06/29/03:26.13
  25036050.998          20.677  %2018/06/29/03:26.13
 18  6 29  6 20 31.0000207  0 12G 1G 3G 6G 8G11G17G18G19G22G23G28G30
  21464489.439          29.648  %2018/06/29/03:26.14
  20503814.991          32.413  %2018/06/29/03:26.14
  23977340.826          31.274  %2018/06/29/03:26.14
  24223039.333          26.775  %2018/06/29/03:26.14
  21747423.674          29.513  %2018/06/29/03:26.14
  22462720.978          35.994  %2018/06/29/03:26.14
  23026355.385          24.205  %2018/06/29/03:26.14
  23895073.572          29.532  %2018/06/29/03:26.14
  21505489.353          34.067  %2018/06/29/03:26.14
  25017407.203          15.831  %2018/06/29/03:26.14
  20648388.422          35.459  %2018/06/29/03:26.14
  25036698.558          18.720  %2018/06/29/03:26.14
 18  6 29  6 20 32.0000207  0 12G 1G 3G 6G 8G11G17G18G19G22G23G28G30
  21465026.364          29.056  %2018/06/29/03:26.15
  20503862.665          34.079  %2018/06/29/03:26.15
  23976971.178          29.745  %2018/06/29/03:26.15
  24223675.202          28.707  %2018/06/29/03:26.15
  21747948.612          29.625  %2018/06/29/03:26.15
  22462422.980          36.953  %2018/06/29/03:26.15
  23027070.687          22.877  %2018/06/29/03:26.15
  23894637.386          29.767  %2018/06/29/03:26.15
  21505879.977          33.138  %2018/06/29/03:26.15
  25017096.921          17.683  %2018/06/29/03:26.15
  20648540.414          35.721  %2018/06/29/03:26.15
  25037332.909          18.720  %2018/06/29/03:26.15
 18  6 29  6 20 33.0000207  0 12G 1G 3G 6G 8G11G17G18G19G22G23G28G30
  21465558.195          29.332  %2018/06/29/03:26.16
  20503913.323          34.304  %2018/06/29/03:26.16
  23976628.526          28.018  %2018/06/29/03:26.16
  24224312.554          27.585  %2018/06/29/03:26.16
  21748488.522          31.001  %2018/06/29/03:26.16
  22462115.700          35.053  %2018/06/29/03:26.16
  23027737.128          22.575  %2018/06/29/03:26.16
  23894205.982          28.022  %2018/06/29/03:26.16
  21506266.115          33.257  %2018/06/29/03:26.16
  25016775.243          18.085  %2018/06/29/03:26.16
  20648685.215          35.666  %2018/06/29/03:26.16
  25037912.710          21.882  %2018/06/29/03:26.16
 18  6 29  6 20 34.0000207  0 12G 1G 3G 6G 8G11G17G18G19G22G23G28G30
  21466097.529          29.204  %2018/06/29/03:26.17
  20503954.698          33.255  %2018/06/29/03:26.17
  23976258.284          30.876  %2018/06/29/03:26.17
  24224942.123          27.022  %2018/06/29/03:26.17
  21749021.556          29.962  %2018/06/29/03:26.17
  22461817.999          35.838  %2018/06/29/03:26.17
  23028425.749          21.176  %2018/06/29/03:26.17
  23893781.174          26.482  %2018/06/29/03:26.17
  21506669.634          32.476  %2018/06/29/03:26.17
  25016430.479          17.720  %2018/06/29/03:26.17
  20648836.003          36.592  %2018/06/29/03:26.17
  25038546.763          22.194  %2018/06/29/03:26.17
 18  6 29  6 20 35.0000207  0 12G 1G 3G 6G 8G11G17G18G19G22G23G28G30
  21466637.752          29.760  %2018/06/29/03:26.18
  20503991.273          32.827  %2018/06/29/03:26.18
  23975906.313          33.313  %2018/06/29/03:26.18
  24225571.377          27.747  %2018/06/29/03:26.18
  21749545.900          29.838  %2018/06/29/03:26.18
  22461518.518          35.787  %2018/06/29/03:26.18
  23029127.265          24.417  %2018/06/29/03:26.18
  23893340.783          29.530  %2018/06/29/03:26.18
  21507060.274          32.681  %2018/06/29/03:26.18
  25016107.598          16.409  %2018/06/29/03:26.18
  20648983.195          35.349  %2018/06/29/03:26.18
  25039181.428          21.325  %2018/06/29/03:26.18
 18  6 29  6 20 36.0000207  0 12G 1G 3G 6G 8G11G17G18G19G22G23G28G30
  21467171.380          29.218  %2018/06/29/03:26.19
  20504038.040          33.182  %2018/06/29/03:26.19
  23975536.072          30.949  %2018/06/29/03:26.19
  24226203.948          28.052  %2018/06/29/03:26.19
  21750064.835          29.054  %2018/06/29/03:26.19
  22461212.721          35.462  %2018/06/29/03:26.19
  23029787.703          25.505  %2018/06/29/03:26.19
  23892912.083          29.543  %2018/06/29/03:26.19
  21507455.086          32.873  %2018/06/29/03:26.19
  25015761.351          16.227  %2018/06/29/03:26.19
  20649133.389          36.275  %2018/06/29/03:26.19
  25039762.729          22.289  %2018/06/29/03:26.19
 18  6 29  6 20 37.0000207  0 12G 1G 3G 6G 8G11G17G18G19G22G23G28G30
  21467701.413          29.159  %2018/06/29/03:26.20
  20504086.918          35.144  %2018/06/29/03:26.20
  23975178.727          32.770  %2018/06/29/03:26.20
  24226822.715          27.674  %2018/06/29/03:26.20
  21750597.869          27.072  %2018/06/29/03:26.20
  22460908.738          34.120  %2018/06/29/03:26.20
  23030473.322          22.590  %2018/06/29/03:26.20
  23892485.478          29.644  %2018/06/29/03:26.20
  21507846.616          32.814  %2018/06/29/03:26.20
  25015427.982          16.263  %2018/06/29/03:26.20
  20649277.895          37.079  %2018/06/29/03:26.20
  25040390.187          19.943  %2018/06/29/03:26.20
 18  6 29  6 20 38.0000207  0 12G 1G 3G 6G 8G11G17G18G19G22G23G28G30
  21468231.446          27.616  %2018/06/29/03:26.21
  20504134.278          35.961  %2018/06/29/03:26.21
  23974820.770          33.446  %2018/06/29/03:26.21
  24227458.269          31.053  %2018/06/29/03:26.21
  21751135.405          25.115  %2018/06/29/03:26.21
  22460611.944          33.169  %2018/06/29/03:26.21
  23031173.041          26.591  %2018/06/29/03:26.21
  23892045.977          26.505  %2018/06/29/03:26.21
  21508240.851          32.633  %2018/06/29/03:26.21
  25015099.098          16.537  %2018/06/29/03:26.21
  20649422.993          37.915  %2018/06/29/03:26.21
  25041002.375          24.001  %2018/06/29/03:26.21
 18  6 29  6 20 39.0000207  0 12G 1G 3G 6G 8G11G17G18G19G22G23G28G30
  21468768.075          29.634  %2018/06/29/03:26.22
  20504184.936          34.021  %2018/06/29/03:26.22
  23974466.426          30.975  %2018/06/29/03:26.22
  24228087.838          31.264  %2018/06/29/03:26.22
  21751659.139          27.368  %2018/06/29/03:26.22
  22460304.053          37.537  %2018/06/29/03:26.22
  23031877.559          23.583  %2018/06/29/03:26.22
  23891614.869          30.025  %2018/06/29/03:26.22
  21508639.868          32.821  %2018/06/29/03:26.22
  25014775.623          15.861  %2018/06/29/03:26.22
  20649574.095          34.312  %2018/06/29/03:26.22
  25041633.131          24.278  %2018/06/29/03:26.22
 18  6 29  6 20 40.0000207  0 12G 1G 3G 6G 8G11G17G18G19G22G23G28G30
  21469312.801          29.691  %2018/06/29/03:26.23
  20504217.323          33.045  %2018/06/29/03:26.23
  23974103.374          30.248  %2018/06/29/03:26.23
  24228714.999          31.126  %2018/06/29/03:26.23
  21752199.363          26.178  %2018/06/29/03:26.23
  22460006.055          37.423  %2018/06/29/03:26.23
  23032550.300          22.580  %2018/06/29/03:26.23
  23891175.385          30.956  %2018/06/29/03:26.23
  21509036.197          33.511  %2018/06/29/03:26.23
  25014455.446          13.428  %2018/06/29/03:26.23
  20649713.801          33.787  %2018/06/29/03:26.23
  25042245.302          23.699  %2018/06/29/03:26.23
 18  6 29  6 20 41.0000207  0 12G 1G 3G 6G 8G11G17G18G19G22G23G28G30
  21469852.135          30.380  %2018/06/29/03:26.24
  20504269.482          34.354  %2018/06/29/03:26.24
  23973752.014          31.507  %2018/06/29/03:26.24
  24229352.962          30.542  %2018/06/29/03:26.24
  21752703.011          27.249  %2018/06/29/03:26.24
  22459698.478          36.478  %2018/06/29/03:26.24
  23033252.706          22.136  %2018/06/29/03:26.24
  23890740.979          31.165  %2018/06/29/03:26.24
  21509427.135          34.451  %2018/06/29/03:26.24
  25014133.176          13.193  %2018/06/29/03:26.24
  20649862.198          34.875  %2018/06/29/03:26.24
  25042851.191          24.070  %2018/06/29/03:26.24
 18  6 29  6 20 42.0000207  0 12G 1G 3G 6G 8G11G17G18G19G22G23G28G30
  21470381.557          29.783  %2018/06/29/03:26.25
  20504314.451          33.818  %2018/06/29/03:26.25
  23973392.557          33.070  %2018/06/29/03:26.25
  24229980.123          31.974  %2018/06/29/03:26.25
  21753233.951          30.014  %2018/06/29/03:26.25
  22459397.776          37.604  %2018/06/29/03:26.25
  23033936.527          22.811  %2018/06/29/03:26.25
  23890320.377          34.792  %2018/06/29/03:26.25
  21509826.448          33.755  %2018/06/29/03:26.25
  25013800.103          12.833  %2018/06/29/03:26.25
  20650011.799          33.617  %2018/06/29/03:26.25
  25043457.970          27.365  %2018/06/29/03:26.25
 18  6 29  6 20 43.0000207  0 12G 1G 3G 6G 8G11G17G18G19G22G23G28G30
  21470918.483          28.579  %2018/06/29/03:26.26
  20504363.923          34.507  %2018/06/29/03:26.26
  23973041.197          32.482  %2018/06/29/03:26.26
  24230618.993          33.539  %2018/06/29/03:26.26
  21753766.968          30.562  %2018/06/29/03:26.26
  22459103.687          36.679  %2018/06/29/03:26.26
  23034589.480          24.182  %2018/06/29/03:26.26
  23889885.064          33.912  %2018/06/29/03:26.26
  21510223.074          33.306  %2018/06/29/03:26.26
  25013477.222          13.341  %2018/06/29/03:26.26
  20650161.993          34.558  %2018/06/29/03:26.26
  25044070.752          28.135  %2018/06/29/03:26.26
 18  6 29  6 20 44.0000207  0 12G 1G 3G 6G 8G11G17G18G19G22G23G28G30
  21471448.516          28.983  %2018/06/29/03:26.27
  20504405.594          32.838  %2018/06/29/03:26.27
  23972687.743          31.576  %2018/06/29/03:26.27
  24231240.761          33.031  %2018/06/29/03:26.27
  21754294.907          29.574  %2018/06/29/03:26.27
  22458801.188          37.430  %2018/06/29/03:26.27
  23035307.783          25.169  %2018/06/29/03:26.27
  23889457.865          32.684  %2018/06/29/03:26.27
  21510615.198          33.648  %2018/06/29/03:26.27
  25013155.841          13.972  %2018/06/29/03:26.27
  20650316.671          33.987  %2018/06/29/03:26.27
  25044688.926          31.784  %2018/06/29/03:26.27
 18  6 29  6 20 45.0000207  0 12G 1G 3G 6G 8G11G17G18G19G22G23G28G30
  21471991.444          28.290  %2018/06/29/03:26.28
  20504459.253          32.769  %2018/06/29/03:26.28
  23972315.111          32.023  %2018/06/29/03:26.28
  24231877.223          32.102  %2018/06/29/03:26.28
  21754821.938          28.744  %2018/06/29/03:26.28
  22458497.205          36.291  %2018/06/29/03:26.28
  23036001.499          26.164  %2018/06/29/03:26.28
  23889018.067          32.973  %2018/06/29/03:26.28
  21511013.639          32.797  %2018/06/29/03:26.28
  25012828.772          14.185  %2018/06/29/03:26.28
  20650466.883          35.237  %2018/06/29/03:26.28
  25045310.991          31.468  %2018/06/29/03:26.28
 18  6 29  6 20 46.0000207  0 12G 1G 3G 6G 8G11G17G18G19G22G23G28G30
  21472518.179          27.227  %2018/06/29/03:26.29
  20504497.330          33.450  %2018/06/29/03:26.29
  23971961.046          31.527  %2018/06/29/03:26.29
  24232501.086          32.241  %2018/06/29/03:26.29
  21755359.178          28.705  %2018/06/29/03:26.29
  22458194.705          37.610  %2018/06/29/03:26.29
  23036683.523          24.338  %2018/06/29/03:26.29
  23888584.569          33.734  %2018/06/29/03:26.29
  21511405.152          32.117  %2018/06/29/03:26.29
  25012497.811          14.967  %2018/06/29/03:26.29
  20650608.369          33.308  %2018/06/29/03:26.29
  25045920.457          32.364  %2018/06/29/03:26.29
 18  6 29  6 20 47.0000207  0 12G 1G 3G 6G 8G11G17G18G19G22G23G28G30
  21473056.012          28.110  %2018/06/29/03:26.30
  20504548.895          34.323  %2018/06/29/03:26.30
  23971604.905          30.525  %2018/06/29/03:26.30
  24233130.341          33.373  %2018/06/29/03:26.30
  21755885.302          28.401  %2018/06/29/03:26.30
  22457888.925          36.324  %2018/06/29/03:26.30
  23037357.468          25.547  %2018/06/29/03:26.30
  23888151.367          34.256  %2018/06/29/03:26.30
  21511803.889          32.397  %2018/06/29/03:26.30
  25012160.533          18.388  %2018/06/29/03:26.30
  20650758.266          34.842  %2018/06/29/03:26.30
  25046547.932          30.787  %2018/06/29/03:26.30
 18  6 29  6 20 48.0000207  0 12G 1G 3G 6G 8G11G17G18G19G22G23G28G30
  21473601.925          27.774  %2018/06/29/03:26.31
  20504589.065          36.824  %2018/06/29/03:26.31
  23971248.449          32.018  %2018/06/29/03:26.31
  24233764.115          35.095  %2018/06/29/03:26.31
  21756411.741          26.674  %2018/06/29/03:26.31
  22457591.521          35.978  %2018/06/29/03:26.31
  23038062.579          25.330  %2018/06/29/03:26.31
  23887728.671          33.143  %2018/06/29/03:26.31
  21512205.314          31.202  %2018/06/29/03:26.31
  25011821.179          19.240  %2018/06/29/03:26.31
  20650911.165          37.509  %2018/06/29/03:26.31
  25047162.198          30.844  %2018/06/29/03:26.31
 18  6 29  6 20 49.0000207  0 12G 1G 3G 6G 8G11G17G18G19G22G23G28G30
  21474128.066          27.018  %2018/06/29/03:26.32
  20504643.632          37.337  %2018/06/29/03:26.32
  23970895.885          34.475  %2018/06/29/03:26.32
  24234392.777          34.965  %2018/06/29/03:26.32
  21756936.678          25.113  %2018/06/29/03:26.32
  22457287.242          34.830  %2018/06/29/03:26.32
  23038748.495          23.757  %2018/06/29/03:26.32
  23887285.871          31.089  %2018/06/29/03:26.32
  21512594.140          31.514  %2018/06/29/03:26.32
  25011503.690          19.189  %2018/06/29/03:26.32
  20651057.765          38.073  %2018/06/29/03:26.32
  25047768.383          30.742  %2018/06/29/03:26.32
 18  6 29  6 20 50.0000207  0 12G 1G 3G 6G 8G11G17G18G19G22G23G28G30
  21474670.698          26.321  %2018/06/29/03:26.33
  20504681.098          37.294  %2018/06/29/03:26.33
  23970529.849          36.684  %2018/06/29/03:26.33
  24235022.939          35.632  %2018/06/29/03:26.33
  21757475.715          22.304  %2018/06/29/03:26.33
  22456982.945          37.226  %2018/06/29/03:26.33
  23039426.331          20.770  %2018/06/29/03:26.33
  23886851.466          32.152  %2018/06/29/03:26.33
  21512984.466          30.873  %2018/06/29/03:26.33
  25011183.216          19.123  %2018/06/29/03:26.33
  20651201.659          37.348  %2018/06/29/03:26.33
  25048381.462          31.710  %2018/06/29/03:26.33
 18  6 29  6 20 51.0000207  0 12G 1G 3G 6G 8G11G17G18G19G22G23G28G30
  21475214.814          24.818  %2018/06/29/03:26.34
  20504728.772          36.275  %2018/06/29/03:26.34
  23970168.891          36.139  %2018/06/29/03:26.34
  24235651.600          34.724  %2018/06/29/03:26.34
  21758004.247          19.838  %2018/06/29/03:26.34
  22456684.947          37.745  %2018/06/29/03:26.34
  23040121.548          19.929  %2018/06/29/03:26.34
  23886423.673          32.634  %2018/06/29/03:26.34
  21513384.984          31.590  %2018/06/29/03:26.34
  25010856.147          16.832  %2018/06/29/03:26.34
  20651353.668          37.067  %2018/06/29/03:26.34
  25048994.837          31.634  %2018/06/29/03:26.34
 18  6 29  6 20 52.0000207  0 12G 1G 3G 6G 8G11G17G18G19G22G23G28G30
  21475737.954          27.274  %2018/06/29/03:26.35
  20504772.537          34.893  %2018/06/29/03:26.35
  23969810.638          34.778  %2018/06/29/03:26.35
  24236285.357          33.329  %2018/06/29/03:26.35
  21758506.988          27.850  %2018/06/29/03:26.35
  22456392.656          34.659  %2018/06/29/03:26.35
  23040800.885          23.725  %2018/06/29/03:26.35
  23885995.567          29.526  %2018/06/29/03:26.35
  21513782.220          31.591  %2018/06/29/03:26.35
  25010527.263          14.556  %2018/06/29/03:26.35
  20651508.347          34.624  %2018/06/29/03:26.35
  25049616.309          30.608  %2018/06/29/03:26.35
 18  6 29  6 20 53.0000207  0 12G 1G 3G 6G 8G11G17G18G19G22G23G28G30
  21476283.273          26.641  %2018/06/29/03:26.36
  20504822.602          35.183  %2018/06/29/03:26.36
  23969453.293          30.369  %2018/06/29/03:26.36
  24236902.345          28.180  %2018/06/29/03:26.36
  21759054.419          26.517  %2018/06/29/03:26.36
  22456068.885          30.421  %2018/06/29/03:26.36
  23041496.398          18.565  %2018/06/29/03:26.36
  23885568.962          25.788  %2018/06/29/03:26.36
  21514174.048          30.609  %2018/06/29/03:26.36
  25010190.299          13.696  %2018/06/29/03:26.36
  20651653.759          31.109  %2018/06/29/03:26.36
  25050256.662          25.628  %2018/06/29/03:26.36
 18  6 29  6 20 54.0000207  0 12G 1G 3G 6G 8G11G17G18G19G22G23G28G30
  21476816.307          24.093  %2018/06/29/03:26.37
  20504868.164          34.068  %2018/06/29/03:26.37
  23969099.839          26.903  %2018/06/29/03:26.37
  24237522.002          24.437  %2018/06/29/03:26.37
  21759586.249          25.707  %2018/06/29/03:26.37
  22455772.388          26.647  %2018/06/29/03:26.37
  23042173.327          13.977  %2018/06/29/03:26.37
  23885140.559          23.194  %2018/06/29/03:26.37
  21514567.969          28.895  %2018/06/29/03:26.37
  25009856.930          12.836  %2018/06/29/03:26.37
  20651801.249          31.778  %2018/06/29/03:26.37
  25050842.763          21.201  %2018/06/29/03:26.37
 18  6 29  6 20 55.0000207  0 12G 1G 3G 6G 8G11G17G18G19G22G23G28G30
  21477348.138          24.703  %2018/06/29/03:26.38
  20504918.543          33.555  %2018/06/29/03:26.38
  23968726.596          27.731  %2018/06/29/03:26.38
  24238179.160          22.802  %2018/06/29/03:26.38
  21760115.375          26.466  %2018/06/29/03:26.38
  22455478.300          24.169  %2018/06/29/03:26.38
  23042873.342          13.927  %2018/06/29/03:26.38
  23884702.855          19.881  %2018/06/29/03:26.38
  21514964.891          29.655  %2018/06/29/03:26.38
  25009528.657          12.236  %2018/06/29/03:26.38
  20651954.444          30.630  %2018/06/29/03:26.38
  25051440.537          20.763  %2018/06/29/03:26.38
 18  6 29  6 20 56.0000207  0 12G 1G 3G 6G 8G11G17G18G19G22G23G28G30
  21477879.671          19.371  %2018/06/29/03:26.39
  20504953.304          28.844  %2018/06/29/03:26.39
  23968338.067          23.106  %2018/06/29/03:26.39
  24238821.904          19.764  %2018/06/29/03:26.39
  21760647.519          21.476  %2018/06/29/03:26.39
  22455181.192          19.175  %2018/06/29/03:26.39
