     2.11           OBSERVATION DATA    G (GPS)             RINEX VERSION / TYPE
AndroidGNSSReceiver RITSUMEIKAN KUBOLAB 1528784196806       PGM / RUN BY / DATE
flounder                                                    MARKER NAME
GRitzLogger         KUBOLAB                                 OBSERVER / AGENCY
0                   Android Receiver                        REC # / TYPE / VERS
0                   Android Anttena                         ANT # / TYPE
        0.0000        0.0000        0.0000                  APPROX POSITION XYZ
        0.0000        0.0000        0.0000                  ANTENNA: DELTA H/E/N
1     0                                                     WAVELENGTH FACT L1/2
2         C1    S1                                          # / TYPES OF OBSERV
1.000                                                       INTERVAL
  2018     6    12     6    14   19.0001572     GPS         TIME OF FIRST OBS
                                                            END OF HEADER
 18  6 12  6 14 19.0001572  0  9G 1G 3G 7G 8G11G17G18G22G30
  20133634.579          33.980   
  22032743.355          46.169  
  23451627.784          42.108  
  22256109.117          44.016  
  20401659.828          37.687  
  24508828.198          34.881  
  20733130.161          33.323  
  21426645.745          46.219  
  22935675.965          34.444  
 18  6 12  6 14 20.0001572  0  9G 1G 3G 7G 8G11G17G18G22G30
  20133774.285          34.022  
  22032168.353          44.180  
  23452154.518          41.355  
  22256414.313          40.821  
  20401813.024          35.214  
  24508387.798          35.121  
  20733465.327          35.969  
  21426390.021          44.290  
  22935988.054          34.751  
 18  6 12  6 14 21.0001572  0  9G 1G 3G 7G 8G11G17G18G22G30
  20133861.824          35.115  
  22031595.750          41.842  
  23452682.152          40.852  
  22256728.495          39.963  
  20401932.043          36.268  
  24507913.833          32.706  
  20733805.886          37.025  
  21426135.195          45.306  
  22936326.518          38.601  
 18  6 12  6 14 22.0001572  0  9G 1G 3G 7G 8G11G17G18G22G30
  20133978.444          35.447  
  22031011.150          42.747  
  23453194.796          39.530  
  22257044.772          37.736  
  20402069.045          33.562  
  24507498.317          30.951  
  20734200.418          34.063  
  21425880.073          46.493  
  22936661.981          40.746  
 18  6 12  6 14 23.0001572  0  9G 1G 3G 7G 8G11G17G18G22G30
  20134088.162          36.138  
  22030444.542          40.885  
  23453727.830          40.214  
  22257357.759          35.679  
  20402240.528          32.147  
  24506994.067          33.157  
  20734598.841          32.284  
  21425627.053          45.419  
  22937001.344          42.894  
 18  6 12  6 14 24.0001572  0  9G 1G 3G 7G 8G11G17G18G22G30
  20134196.389          36.189  
  22029868.344          41.135  
  23454242.568          39.304  
  22257663.242          35.689  
  20402350.255          31.632  
  24506565.960          32.186  
  20734970.880          32.640  
  21425372.830          44.745  
  22937338.613          43.320  
 18  6 12  6 14 25.0001572  0  9G 1G 3G 7G 8G11G17G18G22G30
  20134294.424          33.699  
  22029290.044          39.043  
  23454778.298          37.875  
  22257987.921          35.374  
  20402511.242          31.948  
  24506073.698          34.778  
  20735339.027          31.760  
  21425113.206          43.548  
  22937687.278          40.247  
 18  6 12  6 14 26.0001572  0  9G 1G 3G 7G 8G11G17G18G22G30
  20134407.746          34.077  
  22028714.440          43.100  
  23455309.535          33.393  
  22258292.811          37.630  
  20402640.749          33.238  
  24505604.829          35.433  
  20735712.872          33.521  
  21424860.483          46.273  
  22938026.335          36.797  
 18  6 12  6 14 27.0001572  0  9G 1G 3G 7G 8G11G17G18G22G30
  20134515.370          33.217  
  22028143.940          43.942  
  23455810.784          31.034  
  22258602.491          39.255  
  20402771.756          33.139  
  24505167.133          34.506  
  20736088.505          33.509  
  21424603.258          46.191  
  22938369.904          33.990  
 18  6 12  6 14 28.0001572  0  9G 1G 3G 7G 8G11G17G18G22G30
  20134626.894          32.631  
  22027566.538          44.151  
  23456356.705          30.515  
  22258913.681          39.617  
  20402922.256          34.440  
  24504708.751          36.283  
  20736457.551          33.621  
  21424348.432          46.489  
  22938707.766          33.694  
 18  6 12  6 14 29.0001572  0  9G 1G 3G 7G 8G11G17G18G22G30
  20134735.121          33.893  
  22026990.934          42.675  
  23456885.543          30.795  
  22259230.856          38.995  
  20403067.651          34.602  
  24504248.868          36.922  
  20736823.002          34.274  
  21424097.507          46.175  
  22939069.021          32.949  
 18  6 12  6 14 30.0001572  0  9G 1G 3G 7G 8G11G17G18G22G30
  20134828.348          35.089  
  22026419.230          39.896  
  23457405.978          31.246  
  22259552.839          36.795  
  20403203.763          33.783  
  24503762.600          40.153  
  20737206.436          33.177  
  21423844.182          45.121  
  22939401.186          31.154  
 18  6 12  6 14 31.0001572  0 10G 1G 3G 7G 8G11G17G18G22G28G30
  20134951.870          35.806  
  22025846.924          40.409  
  23457941.107          30.247  
  22259864.317          36.201  
  20403346.758          32.098  
  24503306.617          38.047  
  20737571.878          32.472  
  21423584.261          44.194  
  21616259.078          27.017  
  22939721.668          29.339  
 18  6 12  6 14 32.0001572  0 10G 1G 3G 7G 8G11G17G18G22G28G30
  20135055.297          36.024  
  22025265.631          42.189  
  23458482.831          29.672  
  22260169.809          36.528  
  20403487.660          32.488  
  24502836.247          40.438  
  20737943.324          32.431  
  21423333.336          45.643  
  21615802.798          27.167  
  22940095.207          27.701  
 18  6 12  6 14 33.0001572  0 10G 1G 3G 7G 8G11G17G18G22G28G30
  20135161.421          33.925  
  22024695.428          45.105  
  23459012.271          29.699  
  22260489.087          40.365  
  20403602.186          32.051  
  24502391.650          38.695  
  20738304.578          32.213  
  21423082.114          46.816  
  21615396.278          26.016  
  22940436.969          25.219  
 18  6 12  6 14 34.0001572  0 10G 1G 3G 7G 8G11G17G18G22G28G30
  20135273.242          32.504  
  22024120.426          45.144  
  23459560.888          28.151  
  22260788.882          40.439  
  20403741.290          32.261  
  24501926.977          37.861  
  20738694.302          33.011  
  21422823.388          46.632  
  21614966.078          24.498  
  22940743.055          23.711  
 18  6 12  6 14 35.0001572  0  9G 1G 3G 7G 8G11G17G18G22G28
  20135392.261          32.042  
  22023547.221          45.273  
  23460092.422          27.922  
  22261111.161          40.452  
  20403883.091          32.031  
  24501517.159          33.495  
  20739065.748          31.920  
  21422574.862          46.611  
  21614521.778          25.754  
 18  6 12  6 14 36.0001572  0  9G 1G 3G 7G 8G11G17G18G22G28
  20135486.099          32.504  
  22022972.515          43.293  
  23460611.958          26.262  
  22261417.543          39.350  
  20404017.999          32.702  
  24500996.121          35.744  
  20739452.776          33.767  
  21422315.840          46.508  
  21614069.695          26.424  
 18  6 12  6 14 37.0001572  0  9G 1G 3G 7G 8G11G17G18G22G28
  20135594.622          35.001  
  22022402.015          41.744  
  23461105.119          23.425  
  22261726.936          37.972  
  20404168.489          32.432  
  24500562.920          36.194  
  20739831.420          36.034  
  21422061.023          45.536  
  21613630.796          28.103  
 18  6 12  6 14 38.0001572  0  9G 1G 3G 7G 8G11G17G18G22G28
  20135699.550          35.294  
  22021821.918          43.208  
  23461622.858          22.408  
  22262052.208          38.792  
  20404301.303          33.722  
  24500107.530          35.060  
  20740209.758          35.524  
  21421808.291          45.570  
  21613200.596          29.381  
 18  6 12  6 14 39.0001572  0  9G 1G 3G 7G 8G11G17G18G22G28
  20135810.769          33.062  
  22021253.207          44.800  
  23462163.989          23.135  
  22262360.091          39.896  
  20404463.791          34.094  
  24499630.860          34.662  
  20740558.117          33.078  
  21421559.765          46.370  
  21612743.112          26.212  
 18  6 12  6 14 40.0001572  0  9G 1G 3G 7G 8G11G17G18G22G28
  20135928.593          32.740  
  22020675.805          44.548  
  23462673.937          22.498  
  22262669.177          39.419  
  20404578.910          33.265  
  24499164.686          36.395  
  20740962.534          34.793  
  21421307.339          45.606  
  21612332.395          25.024  
 18  6 12  6 14 41.0001572  0  9G 1G 3G 7G 8G11G17G18G22G28
  20136019.727          31.466  
  22020107.399          45.078  
  23463197.374          23.282  
  22262993.856          39.314  
  20404727.010          31.379  
  24498718.597          34.972  
  20741323.788          34.331  
  21421048.317          46.000  
  21611899.499          26.361  
 18  6 12  6 14 42.0001572  0  9G 1G 3G 7G 8G11G17G18G22G28
  20136151.337          31.823  
  22019529.099          43.812  
  23463689.627          26.656  
  22263294.550          40.691  
  20404873.007          31.849  
  24498369.035          30.525  
  20741700.923          34.238  
  21420800.096          46.465  
  21611457.607          26.289  
 18  6 12  6 14 43.0001572  0  9G 1G 3G 7G 8G11G17G18G22G28
  20136233.780          31.746  
  22018957.700          42.339  
  23464236.753          26.037  
  22263610.529          40.884  
  20405016.605          32.093  
  24497925.939          29.094  
  20742079.863          33.690  
  21420546.169          46.506  
  21611031.001          26.416  
 18  6 12  6 14 44.0001572  0  9G 1G 3G 7G 8G11G17G18G22G28
  20136343.202          34.601  
  22018382.995          41.168  
  23464748.201          26.456  
  22263939.396          39.421  
  20405142.220          31.693  
  24497421.095          27.807  
  20742452.800          34.622  
  21420293.743          45.203  
  21610584.005          26.431  
 18  6 12  6 14 45.0001572  0  9G 1G 3G 7G 8G11G17G18G22G28
  20136452.327          35.990  
  22017804.398          39.367  
  23465265.635          26.756  
  22264237.690          38.675  
  20405286.717          32.614  
  24496991.794          30.053  
  20742825.746          35.738  
  21420039.817          45.254  
  21610156.501          27.860  
 18  6 12  6 14 46.0001572  0  9G 1G 3G 7G 8G11G17G18G22G28
  20136565.648          36.192  
  22017236.585          39.444  
  23465814.558          25.950  
  22264556.968          40.034  
  20405413.231          33.348  
  24496534.310          29.398  
  20743196.589          38.271  
  21419785.593          45.700  
  21609727.200          29.008  
 18  6 12  6 14 47.0001572  0  9G 1G 3G 7G 8G11G17G18G22G28
  20136681.666          33.424  
  22016663.686          43.545  
  23466322.106          29.663  
  22264862.164          40.493  
  20405579.619          33.341  
  24496090.010          28.637  
  20743571.027          37.982  
  21419537.067          46.551  
  21609285.308          28.542  
 18  6 12  6 14 48.0001572  0  9G 1G 3G 7G 8G11G17G18G22G28
  20136783.602          32.010  
  22016087.480          43.080  
  23466855.437          32.486  
  22265176.041          40.898  
  20405699.231          33.170  
  24495627.431          30.330  
  20743954.766          35.963  
  21419284.344          47.360  
  21608854.505          27.513  
 18  6 12  6 14 49.0001572  0  9G 1G 3G 7G 8G11G17G18G22G28
  20136895.423          33.210  
  22015512.181          43.587  
  23467380.078          30.526  
  22265492.623          39.342  
  20405834.435          32.795  
  24495171.753          30.993  
  20744324.406          34.562  
  21419025.924          46.886  
  21608419.506          27.297  
 18  6 12  6 14 50.0001572  0  9G 1G 3G 7G 8G11G17G18G22G28
  20137006.048          33.667  
  22014944.674          44.853  
  23467896.316          29.832  
  22265799.310          39.274  
  20405975.337          33.761  
  24494697.779          29.819  
  20744707.543          34.381  
  21418777.093          46.066  
  21608023.779          23.618  
 18  6 12  6 14 51.0001572  0  9G 1G 3G 7G 8G11G17G18G22G28
  20137119.370          33.018  
  22014365.475          39.251  
  23468423.653          28.788  
  22266112.594          38.216  
  20406133.035          33.517  
  24494254.081          27.515  
  20745073.291          34.905  
  21418523.166          46.017  
  21607612.469          20.660  
 18  6 12  6 14 52.0001572  0  9G 1G 3G 7G 8G11G17G18G22G28
  20137256.372          29.026  
  22013800.969          34.573  
  23468940.197          29.518  
  22266422.580          39.147  
  20406270.935          32.399  
  24493783.414          27.056  
  20745457.623          34.606  
  21418274.343          46.110  
  21607143.887          21.300  
 18  6 12  6 14 53.0001572  0  9G 1G 3G 7G 8G11G17G18G22G28
  20137359.197          25.192  
  22013181.896          29.035  
  23469457.640          27.274  
  22266740.959          39.103  
  20406383.358          27.643  
  24493334.019          25.100  
  20745829.967          33.255  
  21418025.817          41.615  
  21606713.983          19.116  
 18  6 12  6 14 54.0001572  0  9G 1G 3G 7G 8G11G17G18G22G28
  20137508.501          21.463  
  22012716.316          24.405  
  23469996.965          24.280  
  22267058.439          38.424  
  20406562.938          24.693  
  24492849.557          24.169  
  20746232.587          29.557  
  21417786.583          36.173  
  21606290.083          15.814  
 18  6 12  6 14 55.0001572  0 10G 1G 3G 7G 8G11G17G18G22G27G28
  20137623.917          18.461  
  22012081.957          19.851  
  23470542.284          22.470  
  22267368.128          35.158  
  20406694.844          20.868  
  24492417.856          22.652  
  20746603.430          28.029  
  21417544.645          30.855  
  25182642.922          33.147  
  21605832.599          15.252  
 18  6 12  6 14 56.0001572  0 10G 1G 3G 7G 8G11G17G18G22G27G28
  20137740.537          16.227  
  22011508.752          16.050  
  23471025.847          23.760  
  22267677.809          32.400  
  20406852.533          16.991  
  24491952.275          25.272  
  20746964.981          26.222  
  21417342.589          25.924  
  25183125.586          29.282  
  21605385.603          13.503  
 18  6 12  6 14 58.0001572  0 10G 1G 3G 7G 8G11G17G18G22G27G28
  20137946.196          18.693  
  22010362.648          11.503  
  23472066.726          27.132  
  22268341.249          23.890  
  20407129.241          16.196  
  24491075.088          21.657  
  20747718.360          23.034  
  21416785.569          18.979  
  25184015.373          20.129  
  21604561.778          13.348  
 18  6 12  6 14 59.0001572  0 10G 1G 3G 7G 8G11G17G18G22G27G28
  20138066.411          19.594  
  22009788.841          11.270  
  23472597.361          29.456  
  22268647.936          21.243  
  20407290.831          16.994  
  24490583.123          19.124  
  20748114.986          20.855  
  21416568.820          18.836  
  25184543.007          17.939  
  21604180.142          13.137  
 18  6 12  6 15  0.0001572  0 10G 1G 3G 7G 8G11G17G18G22G27G28
  20138176.434          19.507  
  22009203.351          13.319  
  23473107.012          28.085  
  22268958.821          18.623  
  20407454.217          16.877  
  24490110.649          17.941  
  20748488.525          20.199  
  21416337.081          18.710  
  25185048.461          16.391  
  21603757.131          13.331  
 18  6 12  6 15  1.0001572  0 10G 1G 3G 7G 8G11G17G18G22G27G28
  20138275.368          20.564  
  22008633.445          14.266  
  23473620.555          25.197  
  22269273.003          17.374  
  20407632.593          17.148  
  24489677.753          17.751  
  20748932.520          20.050  
  21416086.758          14.715  
  25185422.899          16.831  
  21603319.741          13.163  
 18  6 12  6 15  2.0001572  0 10G 1G 3G 7G 8G11G17G18G22G27G28
  20138383.289          20.563  
  22008114.807          15.511  
  23474160.185          28.686  
  22269623.464          19.431  
  20407798.981          16.087  
  24489222.965          18.274  
  20749306.059          19.759  
  21415853.518          14.597  
  25185896.568          18.170  
  21602758.525          13.331  
 18  6 12  6 15  3.0001572  0 10G 1G 3G 7G 8G11G17G18G22G27G28
  20138494.814          18.756  
  22007529.910          15.224  
  23474685.419          32.081  
  22269945.142          19.476  
  20407953.974          16.406  
  24488778.971          18.711  
  20749678.700          19.621  
  21415600.490          16.755  
  25186368.448          17.936  
  21602448.539          13.379  
 18  6 12  6 15  4.0001572  0  9G 1G 3G 7G 8G11G17G18G22G27
  20138590.746          17.057  
  22006948.609          15.424  
  23475209.153          31.802  
  22270275.509          18.381  
  20408099.674          14.905  
  24488322.395          16.251  
  20750113.699          20.226  
  21415319.288          17.981  
  25186837.920          15.710  
 18  6 12  6 15  5.0001572  0  9G 1G 3G 7G 8G11G17G18G22G27
  20138712.767          15.370  
  22006379.906          15.809  
  23475743.688          31.076  
  22270612.482          17.263  
  20408229.783          14.773  
  24487844.224          16.304  
  20750474.953          22.312  
  21415061.165          17.618  
  25187307.697          14.971  
 18  6 12  6 15  6.0001572  0  9G 1G 3G 7G 8G11G17G18G22G27
  20138826.089          13.452  
  22005824.091          15.925  
  23476260.825          31.970  
  22270896.685          14.945  
  20408337.407          15.325  
  24487371.148          17.268  
  20750902.152          21.193  
  21414819.532          14.868  
  25187724.408          15.062  
 18  6 12  6 15  7.0001572  0  8G 3G 7G 8G11G17G18G22G27
  22005230.504          19.228  
  23476783.668          31.829  
  22271141.014          17.711  
  20408480.106          15.782  
  24486931.054          15.777  
  20751256.810          19.389  
  21414521.237          17.068  
  25188204.970          14.366  
 18  6 12  6 15  8.0001572  0  8G 3G 7G 8G11G17G18G22G27
  22004638.706          22.028  
  23477308.004          31.379  
  22271483.675          17.554  
  20408597.625          15.593  
  24486453.485          13.981  
  20751531.415          18.123  
  21414271.211          16.612  
  25188645.370          14.114  
 18  6 12  6 15  9.0001572  0  8G 3G 7G 8G11G17G18G22G27
  22004065.510          18.777  
  23477833.238          37.339  
  22271803.555          19.922  
  20408726.835          16.081  
  24485998.104          15.044  
  20751895.968          19.117  
  21414032.274          16.977  
  25189109.144          13.452  
 18  6 12  6 15 10.0001572  0  8G 3G 7G 8G11G17G18G22G27
  22003514.188          17.168  
  23478354.275          39.742  
  22272146.818          19.407  
  20408873.434          15.390  
  24485531.625          14.540  
  20752261.114          17.750  
  21413768.165          17.492  
  25189591.808          12.944  
 18  6 12  6 15 11.0001572  0  8G 3G 7G 8G11G17G18G22G27
  22002915.200          15.939  
  23478876.220          37.842  
  22272479.585          17.436  
  20408997.846          14.536  
  24484926.041          14.376  
  20752642.445          17.292  
  21413540.623          18.092  
  25190058.890          12.549  
 18  6 12  6 15 12.0001572  0  7G 3G 7G 8G17G18G22G27
  22002350.398          15.474  
  23479402.353          39.173  
  22272772.182          15.378  
  24484465.862          14.212  
  20753128.110          17.657  
  21413267.509          16.225  
  25190522.367          12.766  
 18  6 12  6 15 13.0001572  0  8G 3G 7G 8G17G18G22G27G30
  22001772.691          14.825  
  23479923.687          38.012  
  22273075.275          16.088  
  24484013.473          14.130  
  20753540.032          17.345  
  21413030.369          14.437  
  25190985.845          12.446  
  22954059.543          29.924  
 18  6 12  6 15 14.0001572  0  7G 3G 7G 8G17G18G22G30
  22001229.771          15.614  
  23480449.523          43.825  
  22273396.952          15.435  
  24483537.702          13.859  
  20753892.282          18.037  
  21412779.444          14.870  
  22954403.400          32.255  
 18  6 12  6 15 15.0001572  0  6G 3G 7G 8G18G22G30
  22000671.853          15.808  
  23480970.264          47.292  
  22273696.747          14.983  
  20754249.339          18.129  
  21412535.115          14.901  
  22954743.967          30.847  
 18  6 12  6 15 16.0001572  0  6G 3G 7G 8G18G22G30
  22000102.548          16.079  
  23481500.602          45.007  
  22274001.331          18.452  
  20754633.366          16.876  
  21412313.270          15.313  
  22955084.534          30.381  
 18  6 12  6 15 17.0001572  0  6G 3G 7G 8G18G22G30
  21999526.351          19.143  
  23482025.836          44.717  
  22274359.890          17.705  
  20754994.621          15.771  
  21412053.349          17.948  
  22955432.291          37.150  
 18  6 12  6 15 18.0001572  0  6G 3G 7G 8G18G22G30
  21998914.773          20.868  
  23482541.778          45.377  
  22274670.172          17.364  
  20755296.213          18.309  
  21411770.342          20.241  
  22955778.250          39.215  
 18  6 12  6 15 19.0001572  0  6G 3G 7G 8G18G22G30
  21998344.569          23.086  
  23483065.817          46.894  
  22274970.866          15.373  
  20755678.146          20.014  
  21411527.513          17.773  
  22956115.816          37.161  
 18  6 12  6 15 20.0001572  0  5G 3G 7G18G22G30
  21997767.465          29.102  
  23483591.949          46.209  
  20756088.863          21.340  
  21411265.193          18.160  
  22956461.478          33.083  
 18  6 12  6 15 21.0001572  0  5G 3G 7G18G22G30
  21997197.261          43.475  
  23484118.990          42.955  
  20756503.776          22.545  
  21411025.060          19.961  
  22956813.432          32.582  
 18  6 12  6 15 22.0001572  0  5G 3G 7G18G22G30
  21996624.659          43.394  
  23484642.723          40.324  
  20756879.419          22.803  
  21410790.922          22.238  
  22957150.997          34.542  
 18  6 12  6 15 23.0001572  0  5G 3G 7G18G22G30
  21996058.050          44.328  
  23485169.161          39.108  
  20757212.788          24.159  
  21410506.719          29.126  
  22957482.569          31.787  
 18  6 12  6 15 24.0001572  0  5G 3G 7G18G22G30
  21995480.046          45.756  
  23485701.890          38.935  
  20757598.315          24.586  
  21410249.494          38.076  
  22957838.423          29.748  
 18  6 12  6 15 25.0001572  0  6G 3G 7G18G22G28G30
  21994909.843          44.070  
  23486217.535          38.998  
  20757974.856          20.770  
  21410000.366          46.586  
  21592800.916          29.075  
  22958196.676          29.233  
 18  6 12  6 15 26.0001572  0  6G 3G 7G18G22G28G30
  21994334.544          43.806  
  23486743.066          37.908  
  20758284.842          22.855  
  21409749.441          46.730  
  21592362.025          29.881  
  22958536.344          28.997  
 18  6 12  6 15 27.0001572  0  6G 3G 7G18G22G28G30
  21993767.639          41.564  
  23487268.309          39.503  
  20758762.411          21.328  
  21409503.916          44.912  
  21591932.122          31.054  
  22958871.510          28.550  
 18  6 12  6 15 28.0001572  0  6G 3G 7G18G22G28G30
  21993193.832          38.630  
  23487789.346          43.374  
  20759061.603          23.045  
  21409251.490          45.092  
  21591500.421          32.516  
  22959206.677          33.891  
 18  6 12  6 15 29.0001572  0  6G 3G 7G18G22G28G30
  21992627.529          41.794  
  23488319.379          46.805  
  20759493.008          26.847  
  21409003.863          45.492  
  21591064.218          33.324  
  22959552.636          34.246  
 18  6 12  6 15 30.0001572  0  6G 3G 7G18G22G28G30
  21992052.222          39.609  
  23488836.822          47.335  
  20759805.986          26.470  
  21408752.632          43.972  
  21590633.119          33.723  
  22959896.798          32.461  
 18  6 12  6 15 31.0001572  0  7G 1G 3G 7G18G22G28G30
  20141538.306          35.648  
  21991482.315          38.174  
  23489362.353          46.959  
  20760175.032          28.518  
  21408510.100          45.071  
  21590210.117          32.257  
  22960252.355          31.082  
 18  6 12  6 15 32.0001572  0  7G 1G 3G 7G18G22G28G30
  20141655.223          34.121  
  21990919.310          41.381  
  23489892.988          42.705  
  20760560.568          31.007  
  21408260.073          45.720  
  21589772.413          31.880  
  22960596.517          33.082  
 18  6 12  6 15 33.0001572  0  7G 1G 3G 7G18G22G28G30
  20141760.456          36.763  
  21990338.008          42.670  
  23490407.132          37.244  
  20760929.911          31.849  
  21408005.850          44.527  
  21589326.324          32.132  
  22960928.385          33.325  
 18  6 12  6 15 34.0001572  0  7G 1G 3G 7G18G22G28G30
  20141880.374          36.952  
  21989770.204          43.330  
  23490944.363          38.655  
  20761324.434          31.659  
  21407762.716          46.686  
  21588907.511          32.511  
  22961279.745          33.164  
 18  6 12  6 15 35.0001572  0  7G 1G 3G 7G18G22G28G30
  20141996.392          37.190  
  21989197.602          45.010  
  23491458.804          39.066  
  20761691.683          31.324  
  21407514.486          46.886  
  21588481.812          31.574  
  22961624.204          33.094  
 18  6 12  6 15 36.0001572  0  7G 1G 3G 7G18G22G28G30
  20142103.719          37.554  
  21988624.100          43.844  
  23491983.742          40.171  
  20762075.116          31.683  
  21407262.069          47.078  
  21588026.728          30.426  
  22961957.573          34.840  
 18  6 12  6 15 37.0001572  0  7G 1G 3G 7G18G22G28G30
  20142219.135          36.961  
  21988053.295          41.171  
  23492512.876          41.374  
  20762461.848          31.053  
  21407016.239          46.788  
  21587606.719          31.864  
  22962309.526          38.990  
 18  6 12  6 15 38.0001572  0  7G 1G 3G 7G18G22G28G30
  20142340.554          33.900  
  21987487.280          43.331  
  23493042.909          38.148  
  20762831.199          32.103  
  21406770.104          44.548  
  21587183.708          29.573  
  22962648.889          38.928  
 18  6 12  6 15 39.0001572  0  7G 1G 3G 7G18G22G28G30
  20142437.682          33.419  
  21986911.981          44.684  
  23493557.655          41.005  
  20763213.132          33.883  
  21406520.679          42.525  
  21586734.322          29.596  
  22962989.456          38.899  
 18  6 12  6 15 40.0001572  0  7G 1G 3G 7G18G22G28G30
  20142560.601          32.393  
  21986341.777          44.702  
  23494081.092          41.832  
  20763583.077          35.389  
  21406271.551          43.994  
  21586317.305          31.656  
  22963336.620          38.692  
 18  6 12  6 15 41.0001572  0  7G 1G 3G 7G18G22G28G30
  20142675.720          30.856  
  21985771.269          44.827  
  23494600.934          39.154  
  20763973.403          33.503  
  21406022.720          45.796  
  21585885.307          32.278  
  22963686.776          38.960  
 18  6 12  6 15 42.0001572  0  7G 1G 3G 7G18G22G28G30
  20142782.446          32.383  
  21985206.161          45.618  
  23495140.556          38.312  
  20764347.545          31.326  
  21405778.390          46.918  
  21585445.509          31.034  
  22964025.537          41.084  
 18  6 12  6 15 43.0001572  0  8G 1G 3G 7G 8G18G22G28G30
  20142895.165          31.529  
  21984635.059          44.683  
  23495660.101          41.905  
  22282424.604          39.170  
  20764724.382          30.942  
  21405528.364          46.184  
  21585026.704          30.697  
  22964367.299          40.568  
 18  6 12  6 15 44.0001572  0  8G 1G 3G 7G 8G18G22G28G30
  20143017.482          31.586  
  21984063.957          44.423  
  23496177.840          42.491  
  22282741.779          39.544  
  20765096.429          34.725  
  21405284.331          45.458  
  21584574.613          29.789  
  22964718.057          36.662  
 18  6 12  6 15 45.0001572  0  8G 1G 3G 7G 8G18G22G28G30
  20143113.720          33.836  
  21983494.050          42.857  
  23496712.367          43.490  
  22283049.671          40.243  
  20765491.249          33.207  
  21405034.008          46.197  
  21584153.705          31.387  
  22965058.921          38.921  
