     2.11           OBSERVATION DATA    G (GPS)             RINEX VERSION / TYPE
AndroidGNSSReceiver RITSUMEIKAN KUBOLAB 1535098494981       PGM / RUN BY / DATE
flounder                                                    MARKER NAME
GRitzLogger         KUBOLAB                                 OBSERVER / AGENCY
0                   Android Receiver                        REC # / TYPE / VERS
0                   Android Anttena                         ANT # / TYPE
        0.0000        0.0000        0.0000                  APPROX POSITION XYZ
        0.0000        0.0000        0.0000                  ANTENNA: DELTA H/E/N
1     0                                                     WAVELENGTH FACT L1/2
2         C1    S1                                          # / TYPES OF OBSERV
1.000                                                       INTERVAL
  2018     8    24     8    11   45.9996472     GPS         TIME OF FIRST OBS
                                                            END OF HEADER
 18  8 24  8 11 45.9996472  0  8G 2G 5G 6G 7G13G15G29G30	
  20398633.716          40.438  %2018/08/24/05:14.55
  20780548.327          42.499  %2018/08/24/05:14.55
  22307625.746          44.606  %2018/08/24/05:14.55
  23376166.708          39.204  %2018/08/24/05:14.55
  21528946.006          32.689  %2018/08/24/05:14.55
  24731431.883          25.593  %2018/08/24/05:14.55
  23166603.082          30.998  %2018/08/24/05:14.55
  22648029.586          41.924  %2018/08/24/05:14.55
 18  8 24  8 11 46.9996472  0  8G 2G 5G 6G 7G13G15G29G30
  20398556.970          37.522  %2018/08/24/05:14.55
  20780369.951          40.163  %2018/08/24/05:14.55
  22308109.309          40.367  %2018/08/24/05:14.55
  23376168.505          41.036  %2018/08/24/05:14.55
  21528442.061          31.911  %2018/08/24/05:14.55
  24730691.383          26.255  %2018/08/24/05:14.55
  23166262.227          31.865  %2018/08/24/05:14.55
  22647710.911          42.632  %2018/08/24/05:14.55
 18  8 24  8 11 47.9996472  0  7G 2G 5G 6G 7G13G29G30	
  20398480.224          36.959  %2018/08/24/05:14.56
  20780194.559          40.628  %2018/08/24/05:14.56
  22308602.173          40.971  %2018/08/24/05:14.56
  23376179.900          43.003  %2018/08/24/05:14.56
  21527879.658          29.913  %2018/08/24/05:14.56
  23165963.636          32.400  %2018/08/24/05:14.56
  22647396.423          42.528  %2018/08/24/05:14.56
 18  8 24  8 11 48.9996472  0  7G 2G 5G 6G 7G13G29G30	
  20398406.776          37.556  %2018/08/24/05:14.57
  20780006.899          41.091  %2018/08/24/05:14.57
  22309087.237          41.002  %2018/08/24/05:14.57
  23376189.498          40.179  %2018/08/24/05:14.57
  21527375.399          32.483  %2018/08/24/05:14.57
  23165640.161          31.597  %2018/08/24/05:14.57
  22647080.137          42.044  %2018/08/24/05:14.57
 18  8 24  8 11 49.9996472  0  7G 2G 5G 6G 7G13G29G30	
  20398341.408          38.478  %2018/08/24/05:14.58
  20779825.521          40.297  %2018/08/24/05:14.58
  22309573.190          41.728  %2018/08/24/05:14.58
  23376197.280          38.399  %2018/08/24/05:14.58
  21526829.486          32.395  %2018/08/24/05:14.58
  23165319.967          30.958  %2018/08/24/05:14.58
  22646762.666          40.528  %2018/08/24/05:14.58
 18  8 24  8 11 50.9996472  0  7G 2G 5G 6G 7G13G29G30
  20398257.176          36.881  %2018/08/24/05:14.59
  20779645.644          40.635  %2018/08/24/05:14.59
  22310060.662          39.320  %2018/08/24/05:14.59
  23376200.893          38.598  %2018/08/24/05:14.59
  21526289.559          35.494  %2018/08/24/05:14.59
  23164989.303          31.406  %2018/08/24/05:14.59
  22646453.884          40.261  %2018/08/24/05:14.59
 18  8 24  8 11 51.9996472  0  7G 2G 5G 6G 7G13G29G30
  20398183.728          38.642  %2018/08/24/05:15.00
  20779463.970          40.913  %2018/08/24/05:15.00
  22310545.132          40.020  %2018/08/24/05:15.00
  23376207.785          38.773  %2018/08/24/05:15.00
  21525755.914          34.874  %2018/08/24/05:15.00
  23164688.322          30.869  %2018/08/24/05:15.00
  22646133.097          39.607  %2018/08/24/05:15.00
 18  8 24  8 11 52.9996472  0  7G 2G 5G 6G 7G13G29G30
  20398110.873          38.315  %2018/08/24/05:15.01
  20779292.784          41.425  %2018/08/24/05:15.01
  22311034.384          40.615  %2018/08/24/05:15.01
  23376210.473          36.703  %2018/08/24/05:15.01
  21525210.298          34.015  %2018/08/24/05:15.01
  23164354.639          31.660  %2018/08/24/05:15.01
  22645815.922          39.380  %2018/08/24/05:15.01
 18  8 24  8 11 53.9996472  0  7G 2G 5G 6G 7G13G29G30
  20398031.125          38.359  %2018/08/24/05:15.02
  20779104.217          39.380  %2018/08/24/05:15.02
  22311517.651          41.957  %2018/08/24/05:15.02
  23376217.680          36.335  %2018/08/24/05:15.02
  21524680.265          33.621  %2018/08/24/05:15.02
  23164034.759          32.356  %2018/08/24/05:15.02
  22645505.028          38.552  %2018/08/24/05:15.02
 18  8 24  8 11 54.9996472  0  7G 2G 5G 6G 7G13G29G30
  20397963.070          37.348  %2018/08/24/05:15.03
  20778926.748          39.509  %2018/08/24/05:15.03
  22312005.716          40.999  %2018/08/24/05:15.03
  23376231.465          38.605  %2018/08/24/05:15.03
  21524142.135          35.281  %2018/08/24/05:15.03
  23163721.789          31.871  %2018/08/24/05:15.03
  22645189.947          38.487  %2018/08/24/05:15.03
 18  8 24  8 11 55.9996472  0  7G 2G 5G 6G 7G13G29G30
  20397886.934          36.546  %2018/08/24/05:15.04
  20778748.668          39.335  %2018/08/24/05:15.04
  22312488.685          41.311  %2018/08/24/05:15.04
  23376234.467          35.014  %2018/08/24/05:15.04
  21523600.411          36.633  %2018/08/24/05:15.04
  23163407.894          31.954  %2018/08/24/05:15.04
  22644871.568          39.368  %2018/08/24/05:15.04
 18  8 24  8 11 56.9996472  0  7G 2G 5G 6G 7G13G29G30
  20397816.174          37.151  %2018/08/24/05:15.05
  20778567.587          39.690  %2018/08/24/05:15.05
  22312975.250          40.888  %2018/08/24/05:15.05
  23376234.764          36.073  %2018/08/24/05:15.05
  21523060.484          34.298  %2018/08/24/05:15.05
  23163076.637          32.225  %2018/08/24/05:15.05
  22644554.393          37.374  %2018/08/24/05:15.05
 18  8 24  8 11 57.9996472  0  7G 2G 5G 6G 7G13G29G30
  20397740.632          36.728  %2018/08/24/05:15.06
  20778383.523          40.525  %2018/08/24/05:15.06
  22313467.206          39.177  %2018/08/24/05:15.06
  23376250.050          37.372  %2018/08/24/05:15.06
  21522537.047          38.612  %2018/08/24/05:15.06
  23162754.349          32.572  %2018/08/24/05:15.06
  22644246.815          39.687  %2018/08/24/05:15.06
 18  8 24  8 11 58.9996472  0  7G 2G 5G 6G 7G13G29G30
  20397663.589          37.224  %2018/08/24/05:15.07
  20778209.631          39.680  %2018/08/24/05:15.07
  22313954.067          39.907  %2018/08/24/05:15.07
  23376262.335          36.526  %2018/08/24/05:15.07
  21522001.325          37.924  %2018/08/24/05:15.07
  23162436.580          31.083  %2018/08/24/05:15.07
  22643927.232          39.579  %2018/08/24/05:15.07
 18  8 24  8 11 59.9996472  0  7G 2G 5G 6G 7G13G29G30
  20397589.530          37.287  %2018/08/24/05:15.08
  20778028.864          39.924  %2018/08/24/05:15.08
  22314436.723          39.812  %2018/08/24/05:15.08
  23376272.229          35.900  %2018/08/24/05:15.08
  21521460.491          37.605  %2018/08/24/05:15.08
  23162117.887          33.679  %2018/08/24/05:15.08
  22643614.542          40.303  %2018/08/24/05:15.08
 18  8 24  8 12  0.9996472  0  7G 2G 5G 6G 7G13G29G30
  20397521.178          38.338  %2018/08/24/05:15.09
  20777845.096          39.587  %2018/08/24/05:15.09
  22314925.992          41.565  %2018/08/24/05:15.09
  23376274.934          34.070  %2018/08/24/05:15.09
  21520930.458          36.562  %2018/08/24/05:15.09
  23161804.917          32.488  %2018/08/24/05:15.09
  22643299.164          39.377  %2018/08/24/05:15.09
 18  8 24  8 12  1.9996472  0  7G 2G 5G 6G 7G13G29G30
  20397448.637          38.569  %2018/08/24/05:15.10
  20777670.315          39.750  %2018/08/24/05:15.10
  22315413.150          42.855  %2018/08/24/05:15.10
  23376283.327          34.262  %2018/08/24/05:15.10
  21520396.830          35.734  %2018/08/24/05:15.10
  23161482.926          32.430  %2018/08/24/05:15.10
  22642988.882          38.991  %2018/08/24/05:15.10
 18  8 24  8 12  2.9996472  0  7G 2G 5G 6G 7G13G29G30
  20397371.595          39.845  %2018/08/24/05:15.11
  20777488.030          39.911  %2018/08/24/05:15.11
  22315900.011          44.333  %2018/08/24/05:15.11
  23376292.628          36.264  %2018/08/24/05:15.11
  21519860.812          35.765  %2018/08/24/05:15.11
  23161171.440          31.234  %2018/08/24/05:15.11
  22642671.096          42.279  %2018/08/24/05:15.11
 18  8 24  8 12  3.9996472  0  7G 2G 5G 6G 7G13G29G30
  20397304.429          40.247  %2018/08/24/05:15.12
  20777309.357          40.020  %2018/08/24/05:15.12
  22316383.888          44.439  %2018/08/24/05:15.12
  23376303.116          36.907  %2018/08/24/05:15.12
  21519312.177          34.254  %2018/08/24/05:15.12
  23160850.670          32.243  %2018/08/24/05:15.12
  22642355.125          42.656  %2018/08/24/05:15.12
 18  8 24  8 12  4.9996472  0  7G 2G 5G 6G 7G13G29G30
  20397223.198          40.520  %2018/08/24/05:15.13
  20777130.684          39.934  %2018/08/24/05:15.13
  22316876.735          43.875  %2018/08/24/05:15.13
  23376308.805          38.843  %2018/08/24/05:15.13
  21518789.351          35.378  %2018/08/24/05:15.13
  23160530.196          31.626  %2018/08/24/05:15.13
  22642043.935          42.602  %2018/08/24/05:15.13
 18  8 24  8 12  5.9996472  0  7G 2G 5G 6G 7G13G29G30
  20397155.439          40.134  %2018/08/24/05:15.14
  20776947.806          40.270  %2018/08/24/05:15.14
  22317366.004          42.780  %2018/08/24/05:15.14
  23376310.602          37.944  %2018/08/24/05:15.14
  21518243.421          35.693  %2018/08/24/05:15.14
  23160223.212          30.510  %2018/08/24/05:15.14
  22641728.557          40.816  %2018/08/24/05:15.14
 18  8 24  8 12  6.9996472  0  7G 2G 5G 6G 7G13G29G30
  20397083.491          39.306  %2018/08/24/05:15.16
  20776767.632          39.393  %2018/08/24/05:15.16
  22317851.661          41.268  %2018/08/24/05:15.16
  23376327.407          39.924  %2018/08/24/05:15.16
  21517709.200          36.969  %2018/08/24/05:15.16
  23159892.827          30.568  %2018/08/24/05:15.16
  22641418.571          40.041  %2018/08/24/05:15.16
 18  8 24  8 12  7.9996472  0  7G 2G 5G 6G 7G13G29G30
  20397005.245          39.085  %2018/08/24/05:15.16
  20776586.255          40.250  %2018/08/24/05:15.16
  22318336.428          43.217  %2018/08/24/05:15.16
  23376332.188          37.860  %2018/08/24/05:15.16
  21517179.167          35.923  %2018/08/24/05:15.16
  23159581.952          30.760  %2018/08/24/05:15.16
  22641098.691          39.862  %2018/08/24/05:15.16
 18  8 24  8 12  8.9996472  0  7G 2G 5G 6G 7G13G29G30
  20396935.095          39.679  %2018/08/24/05:15.17
  20776408.193          39.872  %2018/08/24/05:15.17
  22318821.788          43.940  %2018/08/24/05:15.17
  23376345.677          35.834  %2018/08/24/05:15.17
  21516638.036          35.378  %2018/08/24/05:15.17
  23159262.665          32.696  %2018/08/24/05:15.17
  22640789.596          39.495  %2018/08/24/05:15.17
 18  8 24  8 12  9.9996472  0  7G 2G 5G 6G 7G13G29G30
  20396861.943          39.545  %2018/08/24/05:15.19
  20776234.005          39.609  %2018/08/24/05:15.19
  22319310.150          42.714  %2018/08/24/05:15.19
  23376360.981          35.804  %2018/08/24/05:15.19
  21516102.000          35.396  %2018/08/24/05:15.19
  23158948.491          31.855  %2018/08/24/05:15.19
  22640472.717          41.963  %2018/08/24/05:15.19
 18  8 24  8 12 10.9996472  0  7G 2G 5G 6G 7G13G29G30
  20396794.184          39.865  %2018/08/24/05:15.19
  20776053.238          39.899  %2018/08/24/05:15.19
  22319798.215          43.838  %2018/08/24/05:15.19
  23376366.966          37.193  %2018/08/24/05:15.19
  21515561.776          34.697  %2018/08/24/05:15.19
  23158616.012          31.350  %2018/08/24/05:15.19
  22640163.936          43.400  %2018/08/24/05:15.19
 18  8 24  8 12 11.9996472  0  7G 2G 5G 6G 7G13G29G30
  20396721.033          39.510  %2018/08/24/05:15.20
  20775870.656          39.815  %2018/08/24/05:15.20
  22320289.282          44.971  %2018/08/24/05:15.20
  23376369.671          36.483  %2018/08/24/05:15.20
  21515036.839          35.932  %2018/08/24/05:15.20
  23158326.426          32.397  %2018/08/24/05:15.20
  22639849.744          42.751  %2018/08/24/05:15.20
 18  8 24  8 12 12.9996472  0  7G 2G 5G 6G 7G13G29G30
  20396651.476          36.599  %2018/08/24/05:15.21
  20775690.483          40.144  %2018/08/24/05:15.21
  22320767.749          41.286  %2018/08/24/05:15.21
  23376381.659          33.666  %2018/08/24/05:15.21
  21514492.427          36.665  %2018/08/24/05:15.21
  23157989.148          33.028  %2018/08/24/05:15.21
  22639531.679          38.753  %2018/08/24/05:15.21
 18  8 24  8 12 13.9996472  0  7G 2G 5G 6G 7G13G29G30
  20396575.934          36.359  %2018/08/24/05:15.22
  20775516.906          38.998  %2018/08/24/05:15.22
  22321264.801          38.687  %2018/08/24/05:15.22
  23376393.054          35.592  %2018/08/24/05:15.22
  21513962.987          38.430  %2018/08/24/05:15.22
  23157669.268          35.331  %2018/08/24/05:15.22
  22639218.692          40.964  %2018/08/24/05:15.22
 18  8 24  8 12 14.9996472  0  7G 2G 5G 6G 7G13G29G30
  20396496.798          36.223  %2018/08/24/05:15.23
  20775332.230          40.253  %2018/08/24/05:15.23
  22321744.769          40.793  %2018/08/24/05:15.23
  23376404.153          35.179  %2018/08/24/05:15.23
  21513426.655          37.228  %2018/08/24/05:15.23
  23157365.285          34.361  %2018/08/24/05:15.23
  22638906.613          36.746  %2018/08/24/05:15.23
 18  8 24  8 12 15.9996472  0  7G 2G 5G 6G 7G13G29G30
  20396429.946          37.975  %2018/08/24/05:15.24
  20775152.056          39.706  %2018/08/24/05:15.24
  22322236.726          41.229  %2018/08/24/05:15.24
  23376406.543          35.688  %2018/08/24/05:15.24
  21512886.431          37.815  %2018/08/24/05:15.24
  23157040.013          33.497  %2018/08/24/05:15.24
  22638592.421          37.376  %2018/08/24/05:15.24
 18  8 24  8 12 16.9996472  0  7G 2G 5G 6G 7G13G29G30
  20396355.590          38.803  %2018/08/24/05:15.25
  20774972.180          40.243  %2018/08/24/05:15.25
  22322723.587          41.241  %2018/08/24/05:15.25
  23376423.034          36.613  %2018/08/24/05:15.25
  21512360.289          35.906  %2018/08/24/05:15.25
  23156724.618          32.409  %2018/08/24/05:15.25
  22638277.340          37.628  %2018/08/24/05:15.25
 18  8 24  8 12 17.9996472  0  7G 2G 5G 6G 7G13G29G30
  20396287.238          39.270  %2018/08/24/05:15.26
  20774799.196          40.271  %2018/08/24/05:15.26
  22323213.153          43.024  %2018/08/24/05:15.26
  23376435.616          37.202  %2018/08/24/05:15.26
  21511825.772          34.471  %2018/08/24/05:15.26
  23156410.444          30.712  %2018/08/24/05:15.26
  22637971.246          39.974  %2018/08/24/05:15.26
 18  8 24  8 12 18.9996472  0  7G 2G 5G 6G 7G13G29G30
  20396208.084          38.639  %2018/08/24/05:15.27
  20774620.819          39.812  %2018/08/24/05:15.27
  22323697.013          41.477  %2018/08/24/05:15.27
  23376441.025          40.851  %2018/08/24/05:15.27
  21511282.547          34.630  %2018/08/24/05:15.27
  23156110.650          30.627  %2018/08/24/05:15.27
  22637655.868          38.991  %2018/08/24/05:15.27
 18  8 24  8 12 19.9996472  0  7G 2G 5G 6G 7G13G29G30
  20396142.436          40.042  %2018/08/24/05:15.28
  20774432.846          40.005  %2018/08/24/05:15.28
  22324188.672          43.015  %2018/08/24/05:15.28
  23376446.714          37.061  %2018/08/24/05:15.28
  21510752.514          35.844  %2018/08/24/05:15.28
  23155785.081          28.486  %2018/08/24/05:15.28
  22637344.993          40.172  %2018/08/24/05:15.28
 18  8 24  8 12 20.9996472  0  7G 2G 5G 6G 7G13G29G30
  20396068.691          40.843  %2018/08/24/05:15.29
  20774259.879          40.000  %2018/08/24/05:15.29
  22324677.645          45.234  %2018/08/24/05:15.29
  23376457.516          33.839  %2018/08/24/05:15.29
  21510220.369          36.223  %2018/08/24/05:15.29
  23155458.901          28.530  %2018/08/24/05:15.29
  22637027.800          42.127  %2018/08/24/05:15.29
 18  8 24  8 12 21.9996472  0  7G 2G 5G 6G 7G13G29G30
  20396001.840          41.632  %2018/08/24/05:15.30
  20774076.704          39.437  %2018/08/24/05:15.30
  22325163.895          45.219  %2018/08/24/05:15.30
  23376468.893          34.823  %2018/08/24/05:15.30
  21509672.659          33.509  %2018/08/24/05:15.30
  23155155.512          28.022  %2018/08/24/05:15.30
  22636716.017          42.969  %2018/08/24/05:15.30
 18  8 24  8 12 22.9996472  0  7G 2G 5G 6G 7G13G29G30
  20395924.483          40.161  %2018/08/24/05:15.31
  20773899.829          38.905  %2018/08/24/05:15.31
  22325651.070          44.469  %2018/08/24/05:15.31
  23376488.088          34.209  %2018/08/24/05:15.31
  21509146.814          35.472  %2018/08/24/05:15.31
  23154835.632          28.373  %2018/08/24/05:15.31
  22636406.328          42.644  %2018/08/24/05:15.31
 18  8 24  8 12 23.9996472  0  7G 2G 5G 6G 7G13G29G30
  20395854.036          39.742  %2018/08/24/05:15.32
  20773715.153          38.483  %2018/08/24/05:15.32
  22326137.635          44.670  %2018/08/24/05:15.32
  23376492.887          36.072  %2018/08/24/05:15.32
  21508607.498          34.417  %2018/08/24/05:15.32
  23154509.767          27.337  %2018/08/24/05:15.32
  22636088.856          40.656  %2018/08/24/05:15.32
 18  8 24  8 12 24.9996472  0  7G 2G 5G 6G 7G13G29G30
  20395782.089          40.101  %2018/08/24/05:15.33
  20773539.464          40.018  %2018/08/24/05:15.33
  22326628.387          43.357  %2018/08/24/05:15.33
  23376504.282          34.647  %2018/08/24/05:15.33
  21508079.559          36.333  %2018/08/24/05:15.33
  23154200.671          28.391  %2018/08/24/05:15.33
  22635777.666          41.262  %2018/08/24/05:15.33
 18  8 24  8 12 25.9996472  0  7G 2G 5G 6G 7G13G29G30
  20395711.032          39.920  %2018/08/24/05:15.34
  20773361.402          39.344  %2018/08/24/05:15.34
  22327118.843          44.129  %2018/08/24/05:15.34
  23376508.767          36.448  %2018/08/24/05:15.34
  21507539.929          36.609  %2018/08/24/05:15.34
  23153885.590          29.294  %2018/08/24/05:15.34
  22635467.087          40.869  %2018/08/24/05:15.34
 18  8 24  8 12 26.9996472  0  7G 2G 5G 6G 7G13G29G30
  20395639.085          38.579  %2018/08/24/05:15.35
  20773185.713          40.044  %2018/08/24/05:15.35
  22327606.612          42.886  %2018/08/24/05:15.35
  23376524.071          37.190  %2018/08/24/05:15.35
  21507009.302          37.003  %2018/08/24/05:15.35
  23153587.592          29.418  %2018/08/24/05:15.35
  22635153.804          40.159  %2018/08/24/05:15.35
 18  8 24  8 12 27.9996472  0  7G 2G 5G 6G 7G13G29G30
  20395568.027          39.890  %2018/08/24/05:15.36
  20773002.242          39.253  %2018/08/24/05:15.36
  22328090.471          43.521  %2018/08/24/05:15.36
  23376527.962          34.956  %2018/08/24/05:15.36
  21506472.377          36.954  %2018/08/24/05:15.36
  23153255.131          29.345  %2018/08/24/05:15.36
  22634841.410          40.880  %2018/08/24/05:15.36
 18  8 24  8 12 28.9996472  0  7G 2G 5G 6G 7G13G29G30
  20395494.283          39.069  %2018/08/24/05:15.37
  20772828.368          39.780  %2018/08/24/05:15.37
  22328583.929          42.291  %2018/08/24/05:15.37
  23376543.842          33.895  %2018/08/24/05:15.37
  21505937.841          37.308  %2018/08/24/05:15.37
  23152952.631          28.310  %2018/08/24/05:15.37
  22634528.144          40.870  %2018/08/24/05:15.37
 18  8 24  8 12 29.9996472  0  7G 2G 5G 6G 7G13G29G30
  20395426.541          37.342  %2018/08/24/05:15.38
  20772642.488          39.166  %2018/08/24/05:15.38
  22329068.102          40.699  %2018/08/24/05:15.38
  23376558.832          34.600  %2018/08/24/05:15.38
  21505409.013          38.227  %2018/08/24/05:15.38
  23152618.076          28.429  %2018/08/24/05:15.38
  22634215.156          38.539  %2018/08/24/05:15.38
 18  8 24  8 12 30.9996472  0  6G 2G 5G 6G 7G13G30
  20395359.672          37.035  %2018/08/24/05:15.39
  20772463.222          39.100  %2018/08/24/05:15.39
  22329555.871          41.766  %2018/08/24/05:15.39
  23376556.144          34.888  %2018/08/24/05:15.39
  21504869.085          37.711  %2018/08/24/05:15.39
  22633899.779          38.099  %2018/08/24/05:15.39
 18  8 24  8 12 31.9996472  0  6G 2G 5G 6G 7G13G30
  20395281.128          36.442  %2018/08/24/05:15.40
  20772288.737          38.962  %2018/08/24/05:15.40
  22330047.531          41.478  %2018/08/24/05:15.40
  23376575.619          36.130  %2018/08/24/05:15.40
  21504338.756          36.842  %2018/08/24/05:15.40
  22633593.091          38.297  %2018/08/24/05:15.40
 18  8 24  8 12 32.9996472  0  6G 2G 5G 6G 7G13G30
  20395213.980          37.843  %2018/08/24/05:15.41
  20772111.565          39.176  %2018/08/24/05:15.41
  22330533.781          43.477  %2018/08/24/05:15.41
  23376591.516          33.237  %2018/08/24/05:15.41
  21503801.516          37.604  %2018/08/24/05:15.41
  22633278.900          41.936  %2018/08/24/05:15.41
 18  8 24  8 12 33.9996472  0  6G 2G 5G 6G 7G13G30
  20395143.533          39.357  %2018/08/24/05:15.43
  20771931.078          39.548  %2018/08/24/05:15.43
  22331022.439          43.511  %2018/08/24/05:15.43
  23376592.720          38.498  %2018/08/24/05:15.43
  21503260.996          37.662  %2018/08/24/05:15.43
  22632965.616          43.202  %2018/08/24/05:15.43
 18  8 24  8 12 34.9996472  0  6G 2G 5G 6G 7G13G30
  20395075.181          38.150  %2018/08/24/05:15.43
  20771750.014          39.685  %2018/08/24/05:15.43
  22331512.005          41.039  %2018/08/24/05:15.43
  23376608.006          39.288  %2018/08/24/05:15.43
  21502730.666          36.258  %2018/08/24/05:15.43
  22632656.224          41.980  %2018/08/24/05:15.43
 18  8 24  8 12 35.9996472  0  6G 2G 5G 6G 7G13G30
  20394999.935          38.325  %2018/08/24/05:15.44
  20771575.233          40.159  %2018/08/24/05:15.44
  22332004.869          43.290  %2018/08/24/05:15.44
  23376615.492          38.445  %2018/08/24/05:15.44
  21502200.336          38.057  %2018/08/24/05:15.44
  22632345.051          42.840  %2018/08/24/05:15.44
 18  8 24  8 12 36.9996472  0  6G 2G 5G 6G 7G13G30
  20394934.270          40.601  %2018/08/24/05:15.45
  20771392.651          39.422  %2018/08/24/05:15.45
  22332492.638          44.989  %2018/08/24/05:15.45
  23376641.580          34.041  %2018/08/24/05:15.45
  21501668.506          35.119  %2018/08/24/05:15.45
  22632033.565          43.747  %2018/08/24/05:15.45
 18  8 24  8 12 37.9996472  0  6G 2G 5G 6G 7G13G30
  20394861.416          40.992  %2018/08/24/05:15.46
  20771210.384          36.899  %2018/08/24/05:15.46
  22332975.904          44.914  %2018/08/24/05:15.46
  23376642.174          39.612  %2018/08/24/05:15.46
  21501128.579          37.152  %2018/08/24/05:15.46
  22631720.578          40.429  %2018/08/24/05:15.46
 18  8 24  8 12 38.9996472  0  6G 2G 5G 6G 7G13G30
  20394787.671          40.501  %2018/08/24/05:15.47
  20771035.899          35.988  %2018/08/24/05:15.47
  22333469.361          45.738  %2018/08/24/05:15.47
  23376655.366          38.437  %2018/08/24/05:15.47
  21500606.032          35.954  %2018/08/24/05:15.47
  22631406.404          39.558  %2018/08/24/05:15.47
 18  8 24  8 12 39.9996472  0  6G 2G 5G 6G 7G13G30	2018/08/24/05:15.48
  20394718.725          40.591  %2018/08/24/05:15.48
  20770857.226          39.325  %2018/08/24/05:15.48
  22333958.613          45.442  %2018/08/24/05:15.48
  23376671.560          37.732  %2018/08/24/05:15.48
  21500068.810          34.730  %2018/08/24/05:15.48
  22631100.310          43.113  %2018/08/24/05:15.48
 18  8 24  8 12 40.9996472  0  6G 2G 5G 6G 7G13G30	2018/08/24/05:15.49
  20394653.374          38.568  %2018/08/24/05:15.49
  20770679.147          39.074  %2018/08/24/05:15.49
  22334444.288          46.013  %2018/08/24/05:15.49
  23376681.158          37.120  %2018/08/24/05:15.49
  21499536.369          35.086  %2018/08/24/05:15.49
  22630790.621          43.126  %2018/08/24/05:15.49
 18  8 24  8 12 41.9996472  0  6G 2G 5G 6G 7G13G30	2018/08/24/05:15.50
  20394579.315          38.530  %2018/08/24/05:15.50
  20770495.675          39.358  %2018/08/24/05:15.50
  22334938.041          44.618  %2018/08/24/05:15.50
  23376691.052          38.683  %2018/08/24/05:15.50
  21499000.647          36.748  %2018/08/24/05:15.50
  22630471.945          43.832  %2018/08/24/05:15.50
 18  8 24  8 12 42.9996472  0  6G 2G 5G 6G 7G13G30	2018/08/24/05:15.51
  20394510.370          39.669  %2018/08/24/05:15.51
  20770321.801          39.754  %2018/08/24/05:15.51
  22335421.604          44.838  %2018/08/24/05:15.51
  23376701.539          39.863  %2018/08/24/05:15.51
  21498467.316          38.165  %2018/08/24/05:15.51
  22630164.664          43.651  %2018/08/24/05:15.51
 18  8 24  8 12 43.9996472  0  6G 2G 5G 6G 7G13G30	2018/08/24/05:15.52
  20394439.609          39.731  %2018/08/24/05:15.52
  20770144.018          39.968  %2018/08/24/05:15.52
  22335909.373          44.709  %2018/08/24/05:15.52
  23376717.733          40.374  %2018/08/24/05:15.52
  21497932.484          36.570  %2018/08/24/05:15.52
  22629854.068          44.461  %2018/08/24/05:15.52
 18  8 24  8 12 44.9996472  0  6G 2G 5G 6G 7G13G30	2018/08/24/05:15.53
  20394370.366          39.327  %2018/08/24/05:15.53
  20769965.049          40.451  %2018/08/24/05:15.53
  22336403.720          43.890  %2018/08/24/05:15.53
  23376721.328          37.049  %2018/08/24/05:15.53
  21497406.639          36.687  %2018/08/24/05:15.53
  22629540.487          42.399  %2018/08/24/05:15.53
 18  8 24  8 12 45.9996472  0  6G 2G 5G 6G 7G13G30	2018/08/24/05:15.54
  20394297.215          37.941  %2018/08/24/05:15.54
  20769784.579          39.973  %2018/08/24/05:15.54
  22336892.379          43.317  %2018/08/24/05:15.54
  23376738.708          38.202  %2018/08/24/05:15.54
  21496861.617          36.785  %2018/08/24/05:15.54
  22629232.299          40.404  %2018/08/24/05:15.54
 18  8 24  8 12 46.9996472  0  6G 2G 5G 6G 7G13G30	2018/08/24/05:15.55
  20394232.457          38.498  %2018/08/24/05:15.55
  20769602.905          39.975  %2018/08/24/05:15.55
  22337380.147          43.820  %2018/08/24/05:15.55
  23376751.901          38.776  %2018/08/24/05:15.55
  21496332.788          36.904  %2018/08/24/05:15.55
  22628919.923          40.292  %2018/08/24/05:15.55
 18  8 24  8 12 47.9996472  0  6G 2G 5G 6G 7G13G30	2018/08/24/05:15.57
  20394159.917          37.488  %2018/08/24/05:15.57
  20769429.921          39.439  %2018/08/24/05:15.57
  22337872.104          43.812  %2018/08/24/05:15.57
  23376761.202          38.401  %2018/08/24/05:15.57
  21495796.456          35.888  %2018/08/24/05:15.57
  22628608.140          42.797  %2018/08/24/05:15.57
 18  8 24  8 12 48.9996472  0  8G 2G 5G 6G 7G13G15G29G30	2018/08/24/05:15.57
  20394097.846          37.280  %2018/08/24/05:15.57
  20769250.340          38.625  %2018/08/24/05:15.57
  22338358.075          44.304  %2018/08/24/05:15.57
  23376783.084          36.043  %2018/08/24/05:15.57
  21495269.127          36.712  %2018/08/24/05:15.57
  24686073.584          39.843  %2018/08/24/05:15.57
  23146642.301          34.754  %2018/08/24/05:15.57
  22628296.653          44.559  %2018/08/24/05:15.57
 18  8 24  8 12 49.9996472  0  8G 2G 5G 6G 7G13G15G29G30	2018/08/24/05:15.59
  20394021.711          38.046  %2018/08/24/05:15.59
  20769074.058          40.189  %2018/08/24/05:15.59
  22338850.328          44.499  %2018/08/24/05:15.59
  23376791.478          38.348  %2018/08/24/05:15.59
  21494726.810          36.152  %2018/08/24/05:15.59
  24685338.791          37.027  %2018/08/24/05:15.59
  23146315.232          34.911  %2018/08/24/05:15.59
  22627990.559          43.555  %2018/08/24/05:15.59
 18  8 24  8 12 50.9996472  0  8G 2G 5G 6G 7G13G15G29G30	2018/08/24/05:15.59
  20393957.843          37.096  %2018/08/24/05:15.59
  20768893.588          40.338  %2018/08/24/05:15.59
  22339335.985          44.402  %2018/08/24/05:15.59
  23376801.669          37.296  %2018/08/24/05:15.59
  21494203.059          36.012  %2018/08/24/05:15.59
  24684623.785          37.665  %2018/08/24/05:15.59
  23146011.842          34.761  %2018/08/24/05:15.59
  22627672.773          40.952  %2018/08/24/05:15.59
 18  8 24  8 12 51.9996472  0  8G 2G 5G 6G 7G13G15G29G30	2018/08/24/05:16.01
  20393885.599          38.470  %2018/08/24/05:16.01
  20768714.008          41.151  %2018/08/24/05:16.01
  22339829.146          42.016  %2018/08/24/05:16.01
  23376813.360          36.773  %2018/08/24/05:16.01
  21493672.729          36.898  %2018/08/24/05:16.01
  24683907.873          37.588  %2018/08/24/05:16.01
  23145695.260          34.969  %2018/08/24/05:16.01
  22627363.695          37.850  %2018/08/24/05:16.01
 18  8 24  8 12 52.9996472  0  8G 2G 5G 6G 7G13G15G29G30	2018/08/24/05:16.01
  20393812.448          40.169  %2018/08/24/05:16.01
  20768540.134          39.482  %2018/08/24/05:16.01
  22340317.821          43.102  %2018/08/24/05:16.01
  23376833.149          39.720  %2018/08/24/05:16.01
  21493135.507          36.177  %2018/08/24/05:16.01
  24683186.271          38.978  %2018/08/24/05:16.01
  23145391.278          34.806  %2018/08/24/05:16.01
  22627057.007          37.371  %2018/08/24/05:16.01
 18  8 24  8 12 53.9996472  0  8G 2G 5G 6G 7G13G15G29G30	2018/08/24/05:16.02
  20393751.285          39.195  %2018/08/24/05:16.02
  20768348.565          34.723  %2018/08/24/05:16.02
  22340809.464          37.780  %2018/08/24/05:16.02
  23376843.340          43.339  %2018/08/24/05:16.02
  21492603.973          38.033  %2018/08/24/05:16.02
  24682474.268          37.493  %2018/08/24/05:16.02
  23145075.289          33.414  %2018/08/24/05:16.02
  22626746.725          42.806  %2018/08/24/05:16.02
 18  8 24  8 12 54.9996472  0  8G 2G 5G 6G 7G13G15G29G30	2018/08/24/05:16.03
  20393673.352          36.677  %2018/08/24/05:16.03
  20768223.255          30.351  %2018/08/24/05:16.03
  22341294.231          43.221  %2018/08/24/05:16.03
  23376854.438          38.044  %2018/08/24/05:16.03
  21492073.033          36.470  %2018/08/24/05:16.03
  24681735.286          32.692  %2018/08/24/05:16.03
  23144769.805          32.366  %2018/08/24/05:16.03
  22626438.240          40.840  %2018/08/24/05:16.03
 18  8 24  8 12 55.9996472  0  8G 2G 5G 6G 7G13G15G29G30	2018/08/24/05:16.04
  20393614.283          32.818  %2018/08/24/05:16.04
  20767987.608          28.479  %2018/08/24/05:16.04
  22341778.108          35.585  %2018/08/24/05:16.04
  23376868.521          33.990  %2018/08/24/05:16.04
  21491556.192          32.245  %2018/08/24/05:16.04
  24681043.367          29.124  %2018/08/24/05:16.04
  23144480.795          27.812  %2018/08/24/05:16.04
  22626129.755          35.065  %2018/08/24/05:16.04
 18  8 24  8 12 56.9996472  0  8G 2G 5G 6G 7G13G15G29G30	2018/08/24/05:16.05
  20393545.931          34.867  %2018/08/24/05:16.05
  20767815.531          28.775  %2018/08/24/05:16.05
  22342271.565          32.651  %2018/08/24/05:16.05
  23376885.604          31.765  %2018/08/24/05:16.05
  21490994.679          34.945  %2018/08/24/05:16.05
  24680300.180          30.786  %2018/08/24/05:16.05
  23144112.351          25.527  %2018/08/24/05:16.05
  22625811.969          32.463  %2018/08/24/05:16.05
 18  8 24  8 12 57.9996472  0  8G 2G 5G 6G 7G13G15G29G30	2018/08/24/05:16.06
  20393454.806          31.639  %2018/08/24/05:16.06
  20767639.249          26.489  %2018/08/24/05:16.06
  22342771.915          27.750  %2018/08/24/05:16.06
  23376888.902          27.249  %2018/08/24/05:16.06
  21490469.759          31.097  %2018/08/24/05:16.06
  24679575.874          27.916  %2018/08/24/05:16.06
  23143797.881          21.889  %2018/08/24/05:16.06
  22625505.578          28.014  %2018/08/24/05:16.06
 18  8 24  8 12 58.9996472  0  8G 2G 5G 6G 7G13G15G29G30	2018/08/24/05:16.07
  20393407.132          26.317  %2018/08/24/05:16.07
  20767476.770          21.681  %2018/08/24/05:16.07
  22343265.966          22.604  %2018/08/24/05:16.07
  23376905.096          22.206  %2018/08/24/05:16.07
  21489934.020          25.900  %2018/08/24/05:16.07
  24678867.761          22.682  %2018/08/24/05:16.07
  23143516.374          16.557  %2018/08/24/05:16.07
  22625250.753          23.104  %2018/08/24/05:16.07
 18  8 24  8 12 59.9996472  0  8G 2G 5G 6G 7G13G15G29G30	2018/08/24/05:16.08
  20393338.483          21.882  %2018/08/24/05:16.08
  20767298.691          16.401  %2018/08/24/05:16.08
  22343755.235          18.144  %2018/08/24/05:16.08
  23376918.585          16.874  %2018/08/24/05:16.08
  21489401.282          20.803  %2018/08/24/05:16.08
  24678147.975          18.026  %2018/08/24/05:16.08
  23143186.303          11.225  %2018/08/24/05:16.08
  22624894.908          18.699  %2018/08/24/05:16.08
 18  8 24  8 13  0.9996472  0  8G 2G 5G 6G 7G13G15G29G30	2018/08/24/05:16.09
  20393270.130          17.043  %2018/08/24/05:16.09
  20767119.721          11.203  %2018/08/24/05:16.09
  22344245.394          15.119  %2018/08/24/05:16.09
  23376932.685          11.542  %2018/08/24/05:16.09
  21488867.951          15.848  %2018/08/24/05:16.09
  24677427.857          13.977  %2018/08/24/05:16.09
  23142872.112          10.004  %2018/08/24/05:16.09
  22624584.922          14.956  %2018/08/24/05:16.09
 18  8 24  8 13  1.9996472  0  8G 2G 5G 6G 7G13G15G29G30	2018/08/24/05:16.10
  20393201.778          11.711  %2018/08/24/05:16.10
  20766941.938           7.000  %2018/08/24/05:16.10
  22344734.664          12.546  %2018/08/24/05:16.10
  23376945.267          11.410  %2018/08/24/05:16.10
  21488336.732          14.562  %2018/08/24/05:16.10
  24676707.163           8.645  %2018/08/24/05:16.10
  23142553.139          12.727  %2018/08/24/05:16.10
  22624274.326          10.280  %2018/08/24/05:16.10
 18  8 24  8 13  2.9996472  0  8G 2G 5G 6G 7G13G15G29G30	2018/08/24/05:16.11
  20393135.223           9.550  %2018/08/24/05:16.11
  20766765.953          12.817  %2018/08/24/05:16.11
  22345223.619          13.274  %2018/08/24/05:16.11
  23376959.960          10.048  %2018/08/24/05:16.11
  21487801.289          13.587  %2018/08/24/05:16.11
  24675989.156           7.000  %2018/08/24/05:16.11
  23142241.949          13.574  %2018/08/24/05:16.11
  22623964.654           9.054  %2018/08/24/05:16.11
 18  8 24  8 13  3.9996472  0  8G 2G 5G 6G 7G13G15G29G30	2018/08/24/05:16.12
  20393065.073           9.840  %2018/08/24/05:16.12
  20766583.389          12.123  %2018/08/24/05:16.12
  22345716.483          12.916  %2018/08/24/05:16.12
  23376975.246          11.102  %2018/08/24/05:16.12
  21487266.772          10.755  %2018/08/24/05:16.12
  24675274.447          10.671  %2018/08/24/05:16.12
  23141932.260          13.300  %2018/08/24/05:16.12
  22623656.169           8.509  %2018/08/24/05:16.12
 18  8 24  8 13  4.9996472  0  8G 2G 5G 6G 7G13G15G29G30	2018/08/24/05:16.13
  20393002.706           7.000  %2018/08/24/05:16.13
  20766405.606          11.929  %2018/08/24/05:16.13
  22346208.142          11.606  %2018/08/24/05:16.13
  23376863.128          10.697  %2018/08/24/05:16.13
  21486733.441           7.000  %2018/08/24/05:16.13
  24674549.565           9.823  %2018/08/24/05:16.13
  23141618.087          12.509  %2018/08/24/05:16.13
  22623347.667           7.165  %2018/08/24/05:16.13
 18  8 24  8 13  5.9996472  0  8G 2G 5G 6G 7G13G15G29G30	2018/08/24/05:16.14
  20392934.353           8.226  %2018/08/24/05:16.14
  20766227.841          12.163  %2018/08/24/05:16.14
  22346705.491          10.873  %2018/08/24/05:16.14
  23376991.737          12.115  %2018/08/24/05:16.14
  21486201.314           7.000  %2018/08/24/05:16.14
  24673830.058           9.056  %2018/08/24/05:16.14
  23141303.302          12.583  %2018/08/24/05:16.14
  22623035.587           8.353  %2018/08/24/05:16.14
 18  8 24  8 13  6.9996472  0  8G 2G 5G 6G 7G13G15G29G30	2018/08/24/05:16.15
  20392866.908           7.767  %2018/08/24/05:16.15
  20766051.262          11.667  %2018/08/24/05:16.15
  22347195.057          10.607  %2018/08/24/05:16.15
  23377004.336          11.524  %2018/08/24/05:16.15
  21485668.279           7.111  %2018/08/24/05:16.15
  24673109.346          10.433  %2018/08/24/05:16.15
  23140989.111          12.149  %2018/08/24/05:16.15
  22622725.305           7.720  %2018/08/24/05:16.15
 18  8 24  8 13  7.9996472  0  8G 2G 5G 6G 7G13G15G29G30
  20392914.268           9.387  %2018/08/24/05:16.16
  20765873.182          10.807  %2018/08/24/05:16.16
  22347684.919          10.226  %2018/08/24/05:16.16
  23377017.825          11.150  %2018/08/24/05:16.16
  21485134.041           7.000  %2018/08/24/05:16.16
  24672388.949          10.396  %2018/08/24/05:16.16
  23140679.143          11.930  %2018/08/24/05:16.16
  22622415.023           8.741  %2018/08/24/05:16.16
 18  8 24  8 13  8.9996472  0  8G 2G 5G 6G 7G13G15G29G30
  20392805.152          10.887  %2018/08/24/05:16.17
  20765695.696          10.526  %2018/08/24/05:16.17
  22348174.171           9.394  %2018/08/24/05:16.17
  23377030.406          11.748  %2018/08/24/05:16.17
  21484601.617           7.000  %2018/08/24/05:16.17
  24671667.348          10.469  %2018/08/24/05:16.17
  23140361.357          12.005  %2018/08/24/05:16.17
  22622105.630          10.081  %2018/08/24/05:16.17
 18  8 24  8 13  9.9996472  0  4G 2G 7G29G30	
  20392663.351          10.585  %2018/08/24/05:16.18
  23377041.505          11.298  %2018/08/24/05:16.18
  23140047.777          11.448  %2018/08/24/05:16.18
  22621793.847          10.131  %2018/08/24/05:16.18
 18  8 24  8 13 10.9996472  0  3G 2G 7G29	
  20392593.498           9.725  %2018/08/24/05:16.19
  23377053.493          11.301  %2018/08/24/05:16.19
  23139734.493          10.588  %2018/08/24/05:16.19
 18  8 24  8 13 11.9996472  0  2G 2G29	
  20392526.943           9.653  %2018/08/24/05:16.20
  23139423.303          10.167  %2018/08/24/05:16.20
 18  8 24  8 13 12.9996472  0  1G 2	
  20392455.589           8.896  %2018/08/24/05:16.21
 18  8 24  8 13 42.9996472  0  5G 2G 5G 6G 7G30	
  20390427.193          35.534  %2018/08/24/05:16.51
  20759608.415          38.370  %2018/08/24/05:16.51
  22364819.550          42.668  %2018/08/24/05:16.51
  23377549.952          42.596  %2018/08/24/05:16.51
  22611595.818          41.321  %2018/08/24/05:16.51
 18  8 24  8 13 43.9996472  0  6G 2G 5G 6G 7G13G30	
  20390356.136          34.580  %2018/08/24/05:16.52
  20759434.837          38.946  %2018/08/24/05:16.52
  22365310.302          39.418  %2018/08/24/05:16.52
  23377564.941          38.382  %2018/08/24/05:16.52
  21466031.567          34.216  %2018/08/24/05:16.52
  22611281.330          39.351  %2018/08/24/05:16.52
 18  8 24  8 13 44.9996472  0  6G 2G 5G 6G 7G13G30	2018/08/24/05:16.53
  20390297.678          35.104  %2018/08/24/05:16.53
  20759263.057          40.379  %2018/08/24/05:16.53
  22365803.777          39.283  %2018/08/24/05:16.53
  23377583.526          38.118  %2018/08/24/05:16.53
  21465498.829          33.137  %2018/08/24/05:16.53
  22610973.438          39.220  %2018/08/24/05:16.53
 18  8 24  8 13 45.9996472  0  6G 2G 5G 6G 7G13G30	2018/08/24/05:16.54
  20390234.124          36.160  %2018/08/24/05:16.54
  20759084.070          40.455  %2018/08/24/05:16.54
  22366294.826          39.077  %2018/08/24/05:16.54
  23377600.610          36.514  %2018/08/24/05:16.54
  21464965.812          34.050  %2018/08/24/05:16.54
  22610674.848          39.390  %2018/08/24/05:16.54
 18  8 24  8 13 46.9996472  0  6G 2G 5G 6G 7G13G30	2018/08/24/05:16.55
  20390163.084          36.258  %2018/08/24/05:16.55
  20758901.210          39.907  %2018/08/24/05:16.55
  22366786.190          38.706  %2018/08/24/05:16.55
  23377621.899          37.959  %2018/08/24/05:16.55
  21464440.875          34.347  %2018/08/24/05:16.55
  22610360.360          38.914  %2018/08/24/05:16.55
 18  8 24  8 13 47.9996472  0  6G 2G 5G 6G 7G13G30	2018/08/24/05:16.56
  20390096.826          37.652  %2018/08/24/05:16.56
  20758725.835          39.937  %2018/08/24/05:16.56
  22367280.240          39.109  %2018/08/24/05:16.56
  23377636.592          39.516  %2018/08/24/05:16.56
  21463905.432          36.368  %2018/08/24/05:16.56
  22610060.879          40.473  %2018/08/24/05:16.56
 18  8 24  8 13 48.9996472  0  6G 2G 5G 6G 7G13G30	2018/08/24/05:16.57
  20390033.569          38.882  %2018/08/24/05:16.57
  20758551.053          39.845  %2018/08/24/05:16.57
  22367772.214          39.844  %2018/08/24/05:16.57
  23377656.677          35.418  %2018/08/24/05:16.57
  21463389.796          36.348  %2018/08/24/05:16.57
  22609753.877          39.850  %2018/08/24/05:16.57
 18  8 24  8 13 49.9996472  0  6G 2G 5G 6G 7G13G30	2018/08/24/05:16.59
  20389961.621          38.394  %2018/08/24/05:16.58
  20758371.473          39.661  %2018/08/24/05:16.59
  22368264.171          39.370  %2018/08/24/05:16.59
  23377670.777          37.563  %2018/08/24/05:16.59
  21462855.261          33.717  %2018/08/24/05:16.59
  22609444.206          40.133  %2018/08/24/05:16.59
 18  8 24  8 13 50.9996472  0  6G 2G 5G 6G 7G13G30	2018/08/24/05:16.59
  20389901.366          37.932  %2018/08/24/05:16.59
  20758192.801          40.280  %2018/08/24/05:16.59
  22368750.421          38.211  %2018/08/24/05:16.59
  23377687.564          41.401  %2018/08/24/05:16.59
  21462325.228          36.576  %2018/08/24/05:16.59
  22609141.706          38.393  %2018/08/24/05:16.59
 18  8 24  8 13 51.9996472  0  6G 2G 5G 6G 7G13G30	2018/08/24/05:17.01
  20389836.608          38.628  %2018/08/24/05:17.01
  20758016.222          40.089  %2018/08/24/05:17.01
  22369241.191          38.277  %2018/08/24/05:17.01
  23377705.241          39.884  %2018/08/24/05:17.01
  21461796.102          36.901  %2018/08/24/05:17.01
  22608835.019          38.685  %2018/08/24/05:17.01
 18  8 24  8 13 52.9996472  0  6G 2G 5G 6G 7G13G30	2018/08/24/05:17.01
  20389776.038          37.542  %2018/08/24/05:17.01
  20757843.238          39.761  %2018/08/24/05:17.01
  22369732.554          39.142  %2018/08/24/05:17.01
  23377727.124          40.624  %2018/08/24/05:17.01
  21461262.771          36.473  %2018/08/24/05:17.01
  22608521.438          38.941  %2018/08/24/05:17.01
 18  8 24  8 13 53.9996472  0  6G 2G 5G 6G 7G13G30	2018/08/24/05:17.02
  20389707.389          35.350  %2018/08/24/05:17.02
  20757665.752          39.345  %2018/08/24/05:17.02
  22370230.496          40.449  %2018/08/24/05:17.02
  23377743.021          41.832  %2018/08/24/05:17.02
  21460738.130          35.629  %2018/08/24/05:17.02
  22608212.360          39.011  %2018/08/24/05:17.02
 18  8 24  8 13 54.9996472  0  6G 2G 5G 6G 7G13G30	2018/08/24/05:17.03
  20389644.429          37.859  %2018/08/24/05:17.03
  20757484.077          41.235  %2018/08/24/05:17.03
  22370720.969          39.214  %2018/08/24/05:17.03
  23377764.310          37.313  %2018/08/24/05:17.03
  21460198.203          35.067  %2018/08/24/05:17.03
  22607920.348          38.942  %2018/08/24/05:17.03
 18  8 24  8 13 55.9996472  0  6G 2G 5G 6G 7G13G30	2018/08/24/05:17.04
  20389582.376          37.759  %2018/08/24/05:17.04
  20757308.406          41.308  %2018/08/24/05:17.04
  22371214.427          38.214  %2018/08/24/05:17.04
  23377779.893          34.806  %2018/08/24/05:17.04
  21459675.377          35.428  %2018/08/24/05:17.04
  22607608.879          39.159  %2018/08/24/05:17.04
 18  8 24  8 13 56.9996472  0  6G 2G 5G 6G 7G13G30	2018/08/24/05:17.05
  20389510.725          36.344  %2018/08/24/05:17.05
  20757135.422          40.498  %2018/08/24/05:17.05
  22371701.881          38.786  %2018/08/24/05:17.05
  23377796.977          39.447  %2018/08/24/05:17.05
  21459156.129          36.420  %2018/08/24/05:17.05
  22607293.187          37.447  %2018/08/24/05:17.05
 18  8 24  8 13 57.9996472  0  6G 2G 5G 6G 7G13G30	2018/08/24/05:17.07
  20389451.377          37.169  %2018/08/24/05:17.07
  20756955.545          41.261  %2018/08/24/05:17.07
  22372199.840          39.352  %2018/08/24/05:17.07
  23377812.874          37.757  %2018/08/24/05:17.07
  21458630.895          34.018  %2018/08/24/05:17.07
  22606997.895          40.995  %2018/08/24/05:17.07
 18  8 24  8 13 58.9996472  0  6G 2G 5G 6G 7G13G30	2018/08/24/05:17.07
  20389380.320          36.573  %2018/08/24/05:17.07
  20756780.467          40.210  %2018/08/24/05:17.07
  22372687.609          39.204  %2018/08/24/05:17.07
  23377830.551          38.126  %2018/08/24/05:17.07
  21458091.561          35.100  %2018/08/24/05:17.07
  22606681.313          39.113  %2018/08/24/05:17.07
 18  8 24  8 13 59.9996472  0  6G 2G 5G 6G 7G13G30	2018/08/24/05:17.08
  20389325.160          38.956  %2018/08/24/05:17.08
  20756597.903          41.090  %2018/08/24/05:17.08
  22373177.471          38.248  %2018/08/24/05:17.08
  23377858.140          35.738  %2018/08/24/05:17.08
  21457564.232          34.097  %2018/08/24/05:17.08
  22606381.518          39.391  %2018/08/24/05:17.08
 18  8 24  8 14  0.9996472  0  6G 2G 5G 6G 7G13G30	2018/08/24/05:17.09
  20389259.494          39.386  %2018/08/24/05:17.09
  20756424.012          41.275  %2018/08/24/05:17.09
  22373667.334          39.998  %2018/08/24/05:17.09
  23377871.036          36.028  %2018/08/24/05:17.09
  21457028.197          34.451  %2018/08/24/05:17.09
  22606075.424          40.130  %2018/08/24/05:17.09
 18  8 24  8 14  1.9996472  0  6G 2G 5G 6G 7G13G30	2018/08/24/05:17.10
  20389191.753          39.066  %2018/08/24/05:17.10
  20756243.541          40.985  %2018/08/24/05:17.10
  22374165.887          40.751  %2018/08/24/05:17.10
  23377886.322          34.293  %2018/08/24/05:17.10
  21456506.854          35.385  %2018/08/24/05:17.10
  22605771.144          40.606  %2018/08/24/05:17.10
 18  8 24  8 14  2.9996472  0  6G 2G 5G 6G 7G13G30	2018/08/24/05:17.11
  20389129.700          37.004  %2018/08/24/05:17.11
  20756063.071          41.104  %2018/08/24/05:17.11
  22374657.843          41.789  %2018/08/24/05:17.11
  23377900.701          37.992  %2018/08/24/05:17.11
  21455980.119          34.920  %2018/08/24/05:17.11
  22605462.049          42.185  %2018/08/24/05:17.11
