     2.11           OBSERVATION DATA    G (GPS)             RINEX VERSION / TYPE
AndroidGNSSReceiver RITSUMEIKAN KUBOLAB 1524039302497       PGM / RUN BY / DATE
flounder                                                    MARKER NAME
GRitzLogger         KUBOLAB                                 OBSERVER / AGENCY
0                   Android Receiver                        REC # / TYPE / VERS
0                   Android Anttena                         ANT # / TYPE
        0.0000        0.0000        0.0000                  APPROX POSITION XYZ
        0.0000        0.0000        0.0000                  ANTENNA: DELTA H/E/N
1     0                                                     WAVELENGTH FACT L1/2
2         C1    S1                                          # / TYPES OF OBSERV
1.000                                                       INTERVAL
  2018     4    18     8    13   24.0004206     GPS         TIME OF FIRST OBS
                                                            END OF HEADER
 18  4 18  8 13 24.0004209  0  9G 1G 7G 8G10G11G16G18G27G30
  21421287.551          35.709  
  21395639.413          41.828  
  20766883.498          41.296  
  24026179.134          33.614  
  21030884.020          43.943  
  23472047.836          29.546  
  20179464.444          40.762  
  22311393.545          35.402  
  22603889.051          45.132  
 18  4 18  8 13 25.0004209  0  9G 1G 7G 8G10G11G16G18G27G30
  21420753.033          39.740  
  21395607.025          44.544  
  20766963.838          39.710  
  24026237.889          32.674  
  21030497.899          43.213  
  23472534.715          28.020  
  20179167.057          37.859  
  22311815.351          34.579  
  22603558.684          45.758  
 18  4 18  8 13 26.0004209  0  9G 1G 7G 8G10G11G16G18G27G30
  21420210.401          39.207  
  21395572.857          45.060  
  20767044.476          39.372  
  24026263.663          36.636  
  21030109.370          42.162  
  23473037.752          26.162  
  20178878.954          33.939  
  22312209.290          34.599  
  22603231.911          39.751  
 18  4 18  8 13 27.0004209  0  9G 1G 7G 8G10G11G16G18G27G30
  21419659.690          38.362  
  21395542.285          44.757  
  20767119.128          43.911  
  24026293.346          36.392  
  21029721.138          41.339  
  23473542.605          28.888  
  20178582.754          35.268  
  22312611.308          36.405  
  22602905.435          34.862  
 18  4 18  8 13 28.0004209  0  9G 1G 7G 8G10G11G16G18G27G30
  21419120.652          38.257  
  21395510.508          43.078  
  20767194.373          43.570  
  24026340.409          33.500  
  21029337.093          39.260  
  23474039.657          28.944  
  20178277.881          34.928  
  22313020.219          32.523  
  22602600.545          29.498  
 18  4 18  8 13 29.0004209  0  8G 1G 7G 8G10G11G16G18G27
  21418574.426          39.060  
  21395481.715          44.781  
  20767279.216          43.583  
  24026364.403          31.692  
  21028946.173          40.782  
  23474543.322          29.094  
  20177990.075          34.406  
  22313414.140          34.572  
 18  4 18  8 13 30.0004209  0  8G 1G 7G 8G10G11G16G18G27
  21418026.105          37.624  
  21395450.235          43.427  
  20767359.260          42.804  
  24026391.085          37.087  
  21028562.129          40.083  
  23475055.364          29.397  
  20177696.876          33.247  
  22313831.462          35.791  
 18  4 18  8 13 31.0004209  0  8G 1G 7G 8G10G11G16G18G27
  21417484.380          38.876  
  21395416.067          43.358  
  20767430.614          42.594  
  24026461.235          32.406  
  21028179.899          41.044  
  23475553.917          30.350  
  20177397.081          34.353  
  22314246.079          37.508  
 18  4 18  8 13 32.0004209  0  8G 1G 7G 8G10G11G16G18G27
  21416938.764          38.506  
  21395387.589          44.434  
  20767513.049          41.207  
  24026508.298          34.687  
  21027792.260          40.408  
  23476071.961          29.721  
  20177114.370          33.354  
  22314653.193          34.519  
 18  4 18  8 13 33.0004209  0  8G 1G 7G 8G10G11G16G18G27
  21416402.729          38.433  
  21395358.813          39.252  
  20767594.594          41.460  
  24026543.966          35.135  
  21027403.435          40.427  
  23476577.704          27.003  
  20176820.578          33.364  
  22315063.605          34.204  
 18  4 18  8 13 34.0004209  0  8G 1G 7G 8G10G11G16G18G27
  21415847.515          34.961  
  21395347.418          33.958  
  20767675.545          41.417  
  24026600.941          33.300  
  21027017.000          38.991  
  23477044.776          25.170  
  20176522.581          32.364  
  22315456.636          34.620  
 18  4 18  8 13 35.0004209  0  8G 1G 7G 8G10G11G16G18G27
  21415310.293          43.013  
  21395328.834          29.779  
  20767752.292          39.529  
  24026616.524          31.299  
  21026635.660          35.803  
  23477567.916          27.949  
  20176232.087          38.894  
  22315863.156          33.722  
 18  4 18  8 13 36.0004209  0  8G 1G 7G 8G10G11G16G18G27
  21414761.379          40.209  
  21395330.317          25.864  
  20767849.419          34.435  
  24026663.884          28.561  
  21026242.332          31.351  
  23478073.676          30.217  
  20175937.685          40.786  
  22316274.772          33.705  
 18  4 18  8 13 37.0004209  0  8G 1G 7G 8G10G11G16G18G27
  21414228.048          34.993  
  21395362.111          22.615  
  20768041.895          29.250  
  24026673.778          26.616  
  21025863.697          26.287  
  23478574.619          30.573  
  20175649.896          37.697  
  22316713.959          29.816  
 18  4 18  8 13 38.0004209  0  8G 1G 7G 8G10G11G16G18G27
  21413682.728          29.652  
  21395329.130          21.305  
  20768043.379          25.536  
  24026722.342          24.226  
  21025594.196          21.904  
  23479082.176          31.272  
  20175375.875          32.189  
  22317167.246          25.189  
 18  4 18  8 13 39.0004209  0  8G 1G 7G 8G10G11G16G18G27
  21413152.085          24.739  
  21395294.352          21.710  
  20768151.308          22.465  
  24026804.498          21.186  
  21025202.351          18.205  
  23479578.932          32.083  
  20175153.140          27.149  
  22317540.785          20.950  
 18  4 18  8 13 40.0004209  0  8G 1G 7G 8G10G11G16G18G27
  21412608.266          20.657  
  21395307.248          20.005  
  20768231.056          20.100  
  24026843.761          19.428  
  21024802.741          16.263  
  23480077.188          33.882  
  20174773.301          22.984  
  22317972.486          18.634  
 18  4 18  8 13 41.0004209  0  8G 1G 7G 8G10G11G16G18G27
  21412064.448          17.713  
  21395268.561          18.787  
  20768302.410          18.619  
  24026883.338          17.522  
  21024383.029          16.520  
  23480591.323          31.713  
  20174536.764          20.278  
  22318381.414          18.461  
 18  4 18  8 13 42.0004209  0  8G 1G 7G 8G10G11G16G18G27
  21411534.711          16.015  
  21395222.108          17.460  
  20768365.963          16.124  
  24026923.212          17.739  
  21024001.986          14.165  
  23481085.391          29.315  
  20174197.706          18.812  
  22318773.835          16.970  
 18  4 18  8 13 43.0004209  0  9G 1G 7G 8G10G11G16G18G22G27
  21411018.167          16.125  
  21395196.317          15.662  
  20768454.994          14.967  
  24026955.285          17.012  
  21023638.044          12.669  
  23481602.825          29.279  
  20173893.409          17.852  
  24260805.391          29.505  
  22319162.661          15.903  
 18  4 18  8 13 44.0004209  0  9G 1G 7G 8G10G11G16G18G22G27
  21410467.438          14.620  
  21395137.562          13.144  
  20768523.661          15.151  
  24026984.671          17.234  
  21023186.258          12.002  
  23482108.882          25.165  
  20173616.108          14.033  
  24260237.596          26.070  
  22319532.309          12.835  
 18  4 18  8 13 45.0004209  0  9G 1G 7G 8G10G11G16G18G22G27
  21409937.720          12.719  
  21395112.974          13.304  
  20768609.097          11.963  
  24027032.939          14.470  
  21022800.416          12.261  
  23482597.243          23.398  
  20173316.610          13.989  
  24259660.482          25.736  
  22319978.406          15.770  
 18  4 18  8 13 46.0004209  0  9G 1G 7G 8G10G11G16G18G22G27
  21409406.779          15.267  
  21395075.195          12.886  
  20768678.043          11.533  
  24027069.514          13.771  
  21022398.695          12.705  
  23483150.049          20.390  
  20173050.092          12.906  
  24259075.900          24.397  
  22320301.584          14.639  
 18  4 18  8 13 47.0004209  0  9G 1G 7G 8G10G11G16G18G22G27
  21408863.851          14.518  
  21394925.297          12.196  
  20768699.332          11.579  
  24027068.310          14.004  
  21021999.085          12.672  
  23483633.926          21.244  
  20172788.374          14.325  
  24258515.591          22.951  
  22320753.074          14.323  
 18  4 18  8 13 48.0004209  0  9G 1G 7G 8G10G11G16G18G22G27
  21408357.498          13.826  
  21394896.522          12.137  
  20768778.486          11.777  
  24027052.727          14.688  
  21021608.444          12.906  
  23484123.492          20.588  
  20172474.497          14.357  
  24257935.179          24.964  
  22321224.945          14.092  
 18  4 18  8 13 49.0004209  0  9G 1G 7G 8G10G11G16G18G22G27
  21407751.330          13.523  
  21394884.830          12.261  
  20768858.531          12.526  
  24027136.663          20.070  
  21021262.494          12.908  
  23484613.040          19.159  
  20172174.702          13.649  
  24257341.593          25.673  
  22321642.546          14.230  
 18  4 18  8 13 50.0004209  0  9G 1G 7G 8G10G11G16G18G22G27
  21407143.643          12.941  
  21394856.352          12.191  
  20768961.051          13.008  
  24027197.215          18.409  
  21020967.794          13.441  
  23485100.512          17.094  
  20171916.579          13.559  
  24256774.391          25.283  
  22322041.284          14.806  
 18  4 18  8 13 51.0004209  0  9G 1G 7G 8G10G11G16G18G22G27
  21406600.121          13.237  
  21394829.077          11.331  
  20769017.415          12.693  
  24027255.987          19.987  
  21020458.440          13.497  
  23485618.853          17.770  
  20171602.702          13.240  
  24256193.997          23.466  
  22322401.631          15.587  
 18  4 18  8 13 52.0004209  0  9G 1G 7G 8G10G11G16G18G22G27
  21406056.896          12.889  
  21394920.516          11.529  
  20769142.132          13.689  
  24027273.368          21.989  
  21020074.710          13.648  
  23486144.681          18.393  
  20171361.958          13.301  
  24255627.074          21.472  
  22322831.237          18.924  
 18  4 18  8 13 53.0004209  0  9G 1G 7G 8G10G11G16G18G22G27
  21405513.967          12.297  
  21394780.199          10.733  
  20769214.672          14.220  
  24027333.920          21.311  
  21019692.777          14.149  
  23486658.834          19.106  
  20170967.741          13.159  
  24255043.992          19.601  
  22323231.144          17.713  
 18  4 18  8 13 54.0004209  0  9G 1G 7G 8G10G11G16G18G22G27
  21404973.150          12.703  
  21394754.721          10.144  
  20769274.334          14.586  
  24027344.425          21.695  
  21019387.293          14.465  
  23487169.672          19.326  
  20170670.947          13.476  
  24254447.998          19.531  
  22323610.093          18.919  
 18  4 18  8 13 55.0004209  0  8G 1G 7G 8G10G11G18G22G27
  21404434.724          13.245  
  21394741.826          11.599  
  20769360.067          14.763  
  24027379.203          24.385  
  21019006.250          14.497  
  20170380.733          13.488  
  24253859.210          17.742  
  22324043.591          20.717  
 18  4 18  8 13 56.0004209  0  8G 1G 7G 8G10G11G18G22G27
  21403956.553          13.021  
  21394710.346          11.535  
  20769415.245          14.950  
  24027443.054          22.641  
  21018624.021          14.319  
  20170048.271          13.427  
  24253320.487          18.997  
  22324438.123          20.355  
 18  4 18  8 13 57.0004209  0  8G 1G 7G 8G10G11G18G22G27
  21403398.338          13.181  
  21394692.372          11.254  
  20769504.573          15.070  
  24027485.318          22.574  
  21018226.784          14.390  
  20169851.014          13.162  
  24252727.790          15.796  
  22324850.036          19.957  
 18  4 18  8 13 58.0004209  0  7G 1G 8G10G11G18G22G27
  21402806.845          12.321  
  20769618.802          15.204  
  24027527.600          23.370  
  21017875.424          14.245  
  20169590.779          13.063  
  24252153.992          16.900  
  22325262.541          17.370  
 18  4 18  8 13 59.0004209  0  7G 1G 8G10G11G18G22G27
  21402262.730          12.868  
  20769691.046          15.158  
  24027553.967          21.519  
  21017515.984          13.894  
  20169284.702          13.067  
  24251568.188          16.266  
  22325676.862          17.659  
 18  4 18  8 14  0.0004209  0  7G 1G 8G10G11G18G22G27
  21401715.596          12.682  
  20769787.284          15.154  
  24027607.033          19.537  
  21017013.837          13.284  
  20168931.841          12.365  
  24250974.898          16.753  
  22326068.392          17.226  
 18  4 18  8 14  1.0004209  0  7G 1G 8G10G11G18G22G27
  21401176.279          12.770  
  20769883.207          15.515  
  24027624.431          22.050  
  21016634.888          13.272  
  20168648.833          11.600  
  24250374.419          17.148  
  22326479.101          15.755  
 18  4 18  8 14  2.0004209  0  7G 1G 8G10G11G18G22G27
  21400648.637          12.871  
  20769953.357          15.188  
  24027682.889          21.892  
  21016217.287          13.020  
  20168351.150          11.747  
  24249859.672          17.236  
  22326865.536          17.708  
 18  4 18  8 14  3.0004209  0  7G 1G 8G10G11G18G22G27
  21400200.149          12.708  
  20770062.491          15.396  
  24027716.760          22.189  
  21015836.837          12.665  
  20168078.630          11.261  
  24249263.084          15.820  
  22327270.852          17.709  
 18  4 18  8 14  4.0004209  0  6G 1G 8G10G11G22G27
  21399666.225          12.434  
  20770166.215          15.448  
  24027765.028          21.353  
  21015447.418          12.051  
  24248763.328          16.740  
  22327683.375          17.116  
 18  4 18  8 14  5.0004209  0  6G 1G 8G10G11G22G27
  21399035.155          12.230  
  20770249.261          15.751  
  24027787.818          20.639  
  21015075.065          11.708  
  24248187.732          13.659  
  22328112.965          17.720  
 18  4 18  8 14  6.0004209  0  5G 1G 8G10G22G27
  21398503.325          11.890  
  20770297.825          16.274  
  24027804.308          18.183  
  24247611.840          13.129  
  22328519.799          16.565  
 18  4 18  8 14  7.0004209  0  5G 1G 8G10G22G27
  21397967.307          11.552  
  20770357.190          16.154  
  24027847.776          16.335  
  24247028.427          13.173  
  22328907.421          17.324  
 18  4 18  8 14  8.0004209  0  5G 1G 8G10G22G27
  21397420.172          11.452  
  20770431.232          15.679  
  24027899.935          16.771  
  24246370.397          13.396  
  22329329.227          14.141  
 18  4 18  8 14  9.0004209  0  4G 8G10G22G27
  20770514.574          15.741  
  24027936.511          17.498  
  24245785.500          13.391  
  22329717.756          14.021  
 18  4 18  8 14 10.0004209  0  4G 8G10G22G27
  20770579.035          15.418  
  24027993.765          16.317  
  24245192.804          13.305  
  22330156.350          13.965  
 18  4 18  8 14 11.0004209  0  4G 8G10G22G27
  20770674.662          15.750  
  24028039.642          15.364  
  24244607.907          13.756  
  22330570.671          14.819  
 18  4 18  8 14 12.0004209  0  4G 8G10G22G27
  20770735.232          15.291  
  24028066.323          14.686  
  24244004.426          13.943  
  22330971.502          14.753  
 18  4 18  8 14 13.0004209  0  4G 8G10G22G27
  20770811.070          15.487  
  24028141.272          14.896  
  24243439.912          14.127  
  22331380.117          14.377  
 18  4 18  8 14 14.0004209  0  4G 8G10G22G27
  20770896.803          15.746  
  24028188.928          15.078  
  24242902.689          15.042  
  22331792.622          14.207  
 18  4 18  8 14 15.0004209  0  4G 8G10G22G27
  20770974.753          15.692  
  24028232.100          14.978  
  24242321.998          15.020  
  22332224.620          14.675  
 18  4 18  8 14 16.0004209  0  4G 8G10G22G27
  20771056.002          15.873  
  24028280.071          15.170  
  24241762.876          15.179  
  22332630.843          14.708  
 18  4 18  8 14 17.0004209  0  4G 8G10G22G27
  20771165.432          16.025  
  24028304.047          16.357  
  24241165.695          16.326  
  22333050.259          15.034  
 18  4 18  8 14 18.0004209  0  4G 8G10G22G27
  20771244.272          15.718  
  24028357.410          15.987  
  24240602.978          16.160  
  22333428.598          15.127  
 18  4 18  8 14 19.0004209  0  4G 8G10G22G27
  20771331.209          15.386  
  24028402.083          16.789  
  24240019.582          15.670  
  22333829.115          15.658  
 18  4 18  8 14 20.0004209  0  4G 8G10G22G27
  20771426.243          15.904  
  24028446.459          14.708  
  24239431.387          14.352  
  22334225.444          15.787  
 18  4 18  8 14 21.0004209  0  4G 8G10G22G27
  20771493.705          16.181  
  24028489.020          14.027  
  24238833.316          14.317  
  22334625.072          15.432  
 18  4 18  8 14 22.0004209  0  4G 8G10G22G27
  20771562.058          16.730  
  24028517.202          15.156  
  24238267.894          14.037  
  22335037.281          15.622  
 18  4 18  8 14 23.0004209  0  4G 8G10G22G27
  20771639.101          15.250  
  24028599.043          14.904  
  24237688.407          13.982  
  22335459.088          15.247  
 18  4 18  8 14 24.0004209  0  4G 8G10G22G27
  20771702.951          15.453  
  24028640.121          14.601  
  24237058.542          14.580  
  22335862.903          15.316  
 18  4 18  8 14 25.0004209  0  4G 8G10G22G27
  20771843.251          19.701  
  24028660.206          14.808  
  24236435.272          13.990  
  22336264.921          15.507  
 18  4 18  8 14 26.0004209  0  5G 8G10G22G27G28
  20771934.393          16.859  
  24028754.350          14.761  
  24235907.630          14.446  
  22336690.043          15.441  
  24860735.676          34.859  
 18  4 18  8 14 27.0004209  0  5G 8G10G22G27G28
  20771960.167          18.387  
  24028833.190          15.027  
  24235347.321          14.059  
  22337097.750          14.941  
  24860192.154          41.697  
 18  4 18  8 14 28.0004209  0  5G 8G10G22G27G28
  20772062.408          17.128  
  24028875.455          15.499  
  24234778.915          14.238  
  22337546.849          15.196  
  24859633.939          44.119  
 18  4 18  8 14 29.0004209  0  5G 8G10G22G27G28
  20772113.363          18.081  
  24028925.519          15.072  
  24234265.966          13.377  
  22337968.952          14.926  
  24859085.025          41.845  
 18  4 18  8 14 30.0004209  0  5G 8G10G22G27G28
  20772230.297          22.521  
  24028970.785          15.309  
  24233631.912          12.909  
  22338325.408          14.066  
  24858533.406          41.925  
 18  4 18  8 14 31.0004209  0  5G 7G 8G10G27G28
  21393835.863          44.525  
  20772310.637          29.643  
  24029007.675          15.498  
  22338741.822          13.661  
  24857976.081          43.063  
 18  4 18  8 14 32.0004209  0  5G 7G 8G10G27G28
  21393810.682          44.328  
  20772367.595          35.793  
  24029076.028          15.633  
  22339147.732          15.174  
  24857422.368          41.809  
 18  4 18  8 14 33.0004209  0  5G 7G 8G10G27G28
  21393786.095          44.866  
  20772450.030          43.168  
  24029140.175          15.680  
  22339606.114          16.750  
  24856875.844          41.028  
 18  4 18  8 14 34.0004209  0  5G 7G 8G10G27G28
  21393769.604          45.281  
  20772533.075          43.637  
  24029160.870          15.291  
  22340037.222          16.952  
  24856319.723          38.392  
 18  4 18  8 14 35.0004209  0  5G 7G 8G10G27G28
  21393743.516          45.068  
  20772614.027          41.691  
  24029184.847          15.743  
  22340398.162          18.931  
  24855766.918          41.855  
 18  4 18  8 14 36.0004209  0  5G 7G 8G10G27G28
  21393724.338          45.347  
  20772698.870          39.955  
  24029245.103          15.562  
  22340759.120          22.552  
  24855219.801          41.070  
 18  4 18  8 14 37.0004209  0  8G 1G 7G 8G11G18G27G28G30
  21381793.188          43.959  
  21393695.249          44.899  
  20772781.305          41.479  
  21002898.408          43.216  
  20158326.681          38.490  
  22341191.711          24.036  
  24854658.288          43.733  
  22580242.034          41.314  
 18  4 18  8 14 38.0004209  0  8G 1G 7G 8G11G18G27G28G30
  21381256.873          42.555  
  21393679.963          47.035  
  20772864.350          41.442  
  21002513.159          41.797  
  20158036.484          37.643  
  22341603.327          23.225  
  24854109.967          43.257  
  22579920.043          44.760  
 18  4 18  8 14 39.0004209  0  8G 1G 7G 8G11G18G27G28G30
  21380715.149          41.766  
  21393654.485          43.423  
  20772935.408          39.377  
  21002137.823          44.297  
  20157761.573          39.014  
  22342037.436          24.115  
  24853562.240          43.471  
  22579604.072          46.854  
