     2.11           OBSERVATION DATA    G (GPS)             RINEX VERSION / TYPE
AndroidGNSSReceiver RITSUMEIKAN KUBOLAB 1530089010682       PGM / RUN BY / DATE
flounder                                                    MARKER NAME
GRitzLogger         KUBOLAB                                 OBSERVER / AGENCY
0                   Android Receiver                        REC # / TYPE / VERS
0                   Android Anttena                         ANT # / TYPE
        0.0000        0.0000        0.0000                  APPROX POSITION XYZ
        0.0000        0.0000        0.0000                  ANTENNA: DELTA H/E/N
1     0                                                     WAVELENGTH FACT L1/2
2         C1    S1                                          # / TYPES OF OBSERV
1.000                                                       INTERVAL
  2018     6    27     8    41    2.9999475     GPS         TIME OF FIRST OBS
                                                            END OF HEADER
 18  6 27  8 41  2.9999475  0  8G 3G 6G 9G17G19G22G23G28
  23143770.309          21.622  %2018/06/27/05:43.30
  21139961.405          44.181  %2018/06/27/05:43.30
  21764073.555          30.437  %2018/06/27/05:43.30
  20389226.531          39.731  %2018/06/27/05:43.30
  20380408.744          40.913  %2018/06/27/05:43.30
  25584898.440          35.024  %2018/06/27/05:43.30
  22501436.781          36.497  %2018/06/27/05:43.30
  23797116.408          31.643  %2018/06/27/05:43.30
 18  6 27  8 41  3.9999475  0  8G 3G 6G 9G17G19G22G23G28
  23144297.934          19.732  %2018/06/27/05:43.31
  21139705.393          41.523  %2018/06/27/05:43.31
  21763621.158          26.560  %2018/06/27/05:43.31
  20389245.429          37.619  %2018/06/27/05:43.31
  20380212.080          38.268  %2018/06/27/05:43.31
  25585468.957          33.018  %2018/06/27/05:43.31
  22501391.812          39.394  %2018/06/27/05:43.31
  23797716.591          30.742  %2018/06/27/05:43.31
 18  6 27  8 41  4.9999475  0  8G 3G 6G 9G17G19G22G23G28
  23144871.139          22.696  %2018/06/27/05:43.32
  21139443.064          43.517  %2018/06/27/05:43.32
  21763184.659          28.002  %2018/06/27/05:43.32
  20389259.808          35.815  %2018/06/27/05:43.32
  20380006.115          42.013  %2018/06/27/05:43.32
  25586053.854          33.958  %2018/06/27/05:43.32
  22501363.630          39.889  %2018/06/27/05:43.32
  23798246.920          26.852  %2018/06/27/05:43.32
 18  6 27  8 41  5.9999475  0  8G 3G 6G 9G17G19G22G23G28
  23145469.821          21.075  %2018/06/27/05:43.33
  21139187.645          44.196  %2018/06/27/05:43.33
  21762744.268          31.355  %2018/06/27/05:43.33
  20389274.798          33.230  %2018/06/27/05:43.33
  20379804.652          42.533  %2018/06/27/05:43.33
  25586636.045          35.043  %2018/06/27/05:43.33
  22501326.758          38.714  %2018/06/27/05:43.33
  23798893.573          31.260  %2018/06/27/05:43.33
 18  6 27  8 41  6.9999475  0  8G 3G 6G 9G17G19G22G23G28
  23146043.026          20.290  %2018/06/27/05:43.34
  21138923.832          45.699  %2018/06/27/05:43.34
  21762301.172          31.320  %2018/06/27/05:43.34
  20389289.788          32.721  %2018/06/27/05:43.34
  20379596.907          40.569  %2018/06/27/05:43.34
  25587214.049          35.013  %2018/06/27/05:43.34
  22501292.590          35.554  %2018/06/27/05:43.34
  23799475.765          31.630  %2018/06/27/05:43.34
 18  6 27  8 41  7.9999475  0  8G 3G 6G 9G17G19G22G23G28
  23146623.123          18.763  %2018/06/27/05:43.35
  21138664.505          45.749  %2018/06/27/05:43.35
  21761859.576          31.133  %2018/06/27/05:43.35
  20389305.074          34.218  %2018/06/27/05:43.35
  20379392.147          39.736  %2018/06/27/05:43.35
  25587803.430          36.381  %2018/06/27/05:43.35
  22501271.004          35.469  %2018/06/27/05:43.35
  23800069.962          31.401  %2018/06/27/05:43.35
 18  6 27  8 41  8.9999475  0  8G 3G 6G 9G17G19G22G23G28
  23147217.914          18.563  %2018/06/27/05:43.36
  21138408.196          45.268  %2018/06/27/05:43.36
  21761420.983          31.012  %2018/06/27/05:43.36
  20389326.364          36.539  %2018/06/27/05:43.36
  20379189.183          39.523  %2018/06/27/05:43.36
  25588378.136          37.299  %2018/06/27/05:43.36
  22501222.440          37.951  %2018/06/27/05:43.36
  23800638.368          29.035  %2018/06/27/05:43.36
 18  6 27  8 41  9.9999475  0  8G 3G 6G 9G17G19G22G23G28
  23147778.537          18.970  %2018/06/27/05:43.37
  21138149.462          44.025  %2018/06/27/05:43.37
  21760987.188          34.243  %2018/06/27/05:43.37
  20389338.963          37.991  %2018/06/27/05:43.37
  20378988.017          39.729  %2018/06/27/05:43.37
  25588960.327          38.703  %2018/06/27/05:43.37
  22501193.351          37.212  %2018/06/27/05:43.37
  23801203.773          27.370  %2018/06/27/05:43.37
 18  6 27  8 41 10.9999475  0  8G 3G 6G 9G17G19G22G23G28
  23148353.836          17.718  %2018/06/27/05:43.38
  21137882.351          46.348  %2018/06/27/05:43.38
  21760556.080          34.395  %2018/06/27/05:43.38
  20389355.750          36.860  %2018/06/27/05:43.38
  20378780.865          40.637  %2018/06/27/05:43.38
  25589532.345          38.250  %2018/06/27/05:43.38
  22501150.790          35.504  %2018/06/27/05:43.38
  23801821.039          26.013  %2018/06/27/05:43.38
 18  6 27  8 41 11.9999475  0  8G 3G 6G 9G17G19G22G23G28
  23148906.048          17.474  %2018/06/27/05:43.39
  21137630.230          45.972  %2018/06/27/05:43.39
  21760124.676          33.304  %2018/06/27/05:43.39
  20389375.538          36.308  %2018/06/27/05:43.39
  20378576.401          41.091  %2018/06/27/05:43.39
  25590114.834          38.715  %2018/06/27/05:43.39
  22501111.806          32.740  %2018/06/27/05:43.39
  23802413.143          28.331  %2018/06/27/05:43.39
 18  6 27  8 41 12.9999475  0  9G 3G 6G 9G12G17G19G22G23G28
  23149471.453          18.658  %2018/06/27/05:43.40
  21137371.513          44.746  %2018/06/27/05:43.40
  21759680.690          32.026  %2018/06/27/05:43.40
  24044329.158          40.770  %2018/06/27/05:43.40
  20389386.026          35.878  %2018/06/27/05:43.40
  20378380.051          41.059  %2018/06/27/05:43.40
  25590686.538          38.885  %2018/06/27/05:43.40
  22501110.305          29.193  %2018/06/27/05:43.40
  23803004.635          27.662  %2018/06/27/05:43.40
 18  6 27  8 41 13.9999475  0  9G 3G 6G 9G12G17G19G22G23G28
  23150057.553          15.967  %2018/06/27/05:43.41
  21137105.293          45.053  %2018/06/27/05:43.41
  21759241.799          32.972  %2018/06/27/05:43.41
  24043996.400          38.271  %2018/06/27/05:43.41
  20389406.408          37.333  %2018/06/27/05:43.41
  20378168.398          40.879  %2018/06/27/05:43.41
  25591269.933          39.431  %2018/06/27/05:43.41
  22501079.436          27.120  %2018/06/27/05:43.41
  23803576.339          26.900  %2018/06/27/05:43.41
 18  6 27  8 41 14.9999475  0  9G 3G 6G 9G12G17G19G22G23G28
  23150581.897          18.520  %2018/06/27/05:43.42
  21136850.764          45.413  %2018/06/27/05:43.42
  21758808.894          33.272  %2018/06/27/05:43.42
  24043681.301          42.696  %2018/06/27/05:43.42
  20389423.491          38.788  %2018/06/27/05:43.42
  20377966.935          41.407  %2018/06/27/05:43.42
  25591840.433          37.867  %2018/06/27/05:43.42
  22501079.139          24.790  %2018/06/27/05:43.42
  23804187.899          26.978  %2018/06/27/05:43.42
 18  6 27  8 41 15.9999475  0  9G 3G 6G 9G12G17G19G22G23G28
  23151161.384          19.032  %2018/06/27/05:43.43
  21136586.655          45.490  %2018/06/27/05:43.43
  21758377.490          34.330  %2018/06/27/05:43.43
  24043356.029          44.271  %2018/06/27/05:43.43
  20389438.185          39.174  %2018/06/27/05:43.43
  20377766.676          41.003  %2018/06/27/05:43.43
  25592420.845          35.867  %2018/06/27/05:43.43
  22501043.750          21.694  %2018/06/27/05:43.43
  23804775.797          25.628  %2018/06/27/05:43.43
 18  6 27  8 41 16.9999475  0  9G 3G 6G 9G12G17G19G22G23G28
  23151765.179          18.130  %2018/06/27/05:43.44
  21136330.922          47.618  %2018/06/27/05:43.44
  21757943.399          34.447  %2018/06/27/05:43.44
  24043042.152          44.074  %2018/06/27/05:43.44
  20389457.380          39.157  %2018/06/27/05:43.44
  20377559.211          42.800  %2018/06/27/05:43.44
  25593011.430          35.830  %2018/06/27/05:43.44
  22501035.653          20.110  %2018/06/27/05:43.44
  23805353.504          26.188  %2018/06/27/05:43.44
 18  6 27  8 41 17.9999475  0  9G 3G 6G 9G12G17G19G22G23G28
  23152264.028          21.244  %2018/06/27/05:43.45
  21136072.205          46.999  %2018/06/27/05:43.45
  21757500.896          32.897  %2018/06/27/05:43.45
  24042720.178          43.343  %2018/06/27/05:43.45
  20389472.073          39.840  %2018/06/27/05:43.45
  20377356.561          42.522  %2018/06/27/05:43.45
  25593569.942          34.587  %2018/06/27/05:43.45
  22501004.487          17.423  %2018/06/27/05:43.45
  23805964.785          24.458  %2018/06/27/05:43.45
 18  6 27  8 41 18.9999475  0  9G 3G 6G 9G12G17G19G22G23G28
  23152890.596          20.959  %2018/06/27/05:43.46
  21135810.487          46.655  %2018/06/27/05:43.46
  21757074.901          32.498  %2018/06/27/05:43.46
  24042397.000          43.552  %2018/06/27/05:43.46
  20389490.657          40.384  %2018/06/27/05:43.46
  20377150.003          42.124  %2018/06/27/05:43.46
  25594172.829          32.149  %2018/06/27/05:43.46
  22500970.005          16.639  %2018/06/27/05:43.46
  23806530.190          23.829  %2018/06/27/05:43.46
 18  6 27  8 41 19.9999475  0  9G 3G 6G 9G12G17G19G22G23G28
  23153484.776          19.647  %2018/06/27/05:43.47
  21135555.068          47.153  %2018/06/27/05:43.47
  21756630.601          31.995  %2018/06/27/05:43.47
  24042077.120          42.372  %2018/06/27/05:43.47
  20389511.336          40.080  %2018/06/27/05:43.47
  20376955.433          42.420  %2018/06/27/05:43.47
  25594725.041          31.386  %2018/06/27/05:43.47
  22500885.162          16.065  %2018/06/27/05:43.47
  23807115.086          24.918  %2018/06/27/05:43.47
 18  6 27  8 41 20.9999475  0  9G 3G 6G 9G12G17G19G22G23G28
  23154066.077          18.302  %2018/06/27/05:43.48
  21135293.350          47.471  %2018/06/27/05:43.48
  21756197.103          31.589  %2018/06/27/05:43.48
  24041760.538          39.729  %2018/06/27/05:43.48
  20389528.734          39.168  %2018/06/27/05:43.48
  20376749.782          41.978  %2018/06/27/05:43.48
  25595321.036          30.576  %2018/06/27/05:43.48
  22500850.995          13.708  %2018/06/27/05:43.48
  23807724.256          25.477  %2018/06/27/05:43.48
 18  6 27  8 41 21.9999475  0  9G 3G 6G 9G12G17G19G22G23G28
  23154537.355          23.620  %2018/06/27/05:43.49
  21135037.320          45.517  %2018/06/27/05:43.49
  21755775.000          26.793  %2018/06/27/05:43.49
  24041445.161          37.751  %2018/06/27/05:43.49
  20389540.425          39.169  %2018/06/27/05:43.49
  20376548.319          39.348  %2018/06/27/05:43.49
  25595901.430          28.703  %2018/06/27/05:43.49
  22500813.512          13.419  %2018/06/27/05:43.49
  23808295.960          24.678  %2018/06/27/05:43.49
 18  6 27  8 41 22.9999475  0  9G 3G 6G 9G12G17G19G22G23G28
  23155127.941          23.046  %2018/06/27/05:43.50
  21134800.486          40.007  %2018/06/27/05:43.50
  21755422.732          22.118  %2018/06/27/05:43.50
  24041130.080          42.202  %2018/06/27/05:43.50
  20389606.666          33.775  %2018/06/27/05:43.50
  20376385.526          33.907  %2018/06/27/05:43.50
  25596453.049          27.534  %2018/06/27/05:43.50
  22500785.033          13.294  %2018/06/27/05:43.50
  23808912.930          24.476  %2018/06/27/05:43.50
 18  6 27  8 41 23.9999475  0  9G 3G 6G 9G12G17G19G22G23G28
  23155681.653          21.511  %2018/06/27/05:43.51
  21134539.675          34.451  %2018/06/27/05:43.51
  21754959.551          18.194  %2018/06/27/05:43.51
  24040814.091          37.153  %2018/06/27/05:43.51
  20389631.254          28.386  %2018/06/27/05:43.51
  20376151.083          28.686  %2018/06/27/05:43.51
  25597055.029          30.135  %2018/06/27/05:43.51
  22500776.343          13.615  %2018/06/27/05:43.51
  23809504.422          22.315  %2018/06/27/05:43.51
 18  6 27  8 41 24.9999475  0  9G 3G 6G 9G12G17G19G22G23G28
  23156285.745          23.192  %2018/06/27/05:43.52
  21134261.762          29.308  %2018/06/27/05:43.52
  21754522.161          16.420  %2018/06/27/05:43.52
  24040506.199          31.522  %2018/06/27/05:43.52
  20389603.682          23.576  %2018/06/27/05:43.52
  20376052.454          23.664  %2018/06/27/05:43.52
  25597630.032          34.999  %2018/06/27/05:43.52
  22500683.403          13.136  %2018/06/27/05:43.52
  23810107.013          22.759  %2018/06/27/05:43.52
 18  6 27  8 41 25.9999475  0  9G 3G 6G 9G12G17G19G22G23G28
  23156835.252          26.059  %2018/06/27/05:43.53
  21133974.253          24.594  %2018/06/27/05:43.53
  21754033.206          12.882  %2018/06/27/05:43.53
  24040180.631          26.510  %2018/06/27/05:43.53
  20389653.433          19.265  %2018/06/27/05:43.53
  20375750.269          19.192  %2018/06/27/05:43.53
  25598202.940          33.329  %2018/06/27/05:43.53
  22500667.523          13.155  %2018/06/27/05:43.53
  23810659.819          22.411  %2018/06/27/05:43.53
 18  6 27  8 41 26.9999475  0  9G 3G 6G 9G12G17G19G22G23G28
  23157415.961          23.636  %2018/06/27/05:43.54
  21133720.928          19.576  %2018/06/27/05:43.54
  21753637.470          15.808  %2018/06/27/05:43.54
  24039863.752          21.799  %2018/06/27/05:43.54
  20389720.599          18.072  %2018/06/27/05:43.54
  20375549.696          15.872  %2018/06/27/05:43.54
  25598780.036          35.437  %2018/06/27/05:43.54
  22500636.636          13.137  %2018/06/27/05:43.54
  23811262.706          21.580  %2018/06/27/05:43.54
 18  6 27  8 41 27.9999475  0  9G 3G 6G 9G12G17G19G22G23G28
  23157978.975          23.660  %2018/06/27/05:43.55
  21133532.361          17.011  %2018/06/27/05:43.55
  21753157.502          11.225  %2018/06/27/05:43.55
  24039546.874          17.583  %2018/06/27/05:43.55
  20389747.280          15.266  %2018/06/27/05:43.55
  20375350.048          12.473  %2018/06/27/05:43.55
  25599366.136          35.362  %2018/06/27/05:43.55
  22500589.870          13.168  %2018/06/27/05:43.55
  23811861.388          25.247  %2018/06/27/05:43.55
 18  6 27  8 41 28.9999475  0  9G 3G 6G 9G12G17G19G22G23G28
  23158536.282          28.763  %2018/06/27/05:43.56
  21133312.017          14.159  %2018/06/27/05:43.56
  21752725.801          11.643  %2018/06/27/05:43.56
  24039229.698          13.598  %2018/06/27/05:43.56
  20389779.057          12.207  %2018/06/27/05:43.56
  20375150.086          11.491  %2018/06/27/05:43.56
  25599942.028          34.960  %2018/06/27/05:43.56
  22500558.686          13.282  %2018/06/27/05:43.56
  23812439.392          26.551  %2018/06/27/05:43.56
 18  6 27  8 41 29.9999475  0  9G 3G 6G 9G12G17G19G22G23G28
  23159101.687          30.098  %2018/06/27/05:43.57
  21133066.178          12.533  %2018/06/27/05:43.57
  21752265.028          11.019  %2018/06/27/05:43.57
  24038914.914          13.267  %2018/06/27/05:43.57
  20389794.344          10.776  %2018/06/27/05:43.57
  20374949.827          11.893  %2018/06/27/05:43.57
  25600515.530          34.051  %2018/06/27/05:43.57
  22500615.050          12.686  %2018/06/27/05:43.57
  23813000.905          22.627  %2018/06/27/05:43.57
 18  6 27  8 41 30.9999475  0  9G 3G 6G 9G12G17G19G22G23G28
  23159683.896          30.706  %2018/06/27/05:43.58
  21132805.961          12.987  %2018/06/27/05:43.58
  21751830.919          11.850  %2018/06/27/05:43.58
  24038585.436          13.585  %2018/06/27/05:43.58
  20389820.432          14.070  %2018/06/27/05:43.58
  20374721.072          12.598  %2018/06/27/05:43.58
  25601101.334          32.129  %2018/06/27/05:43.58
  22500538.304          13.439  %2018/06/27/05:43.58
  23813582.503          19.270  %2018/06/27/05:43.58
 18  6 27  8 41 31.9999475  0  9G 3G 6G 9G12G17G19G22G23G28
  23160249.004          34.710  %2018/06/27/05:43.59
  21132560.436          13.638  %2018/06/27/05:43.59
  21751381.837          12.995  %2018/06/27/05:43.59
  24038442.432          11.015  %2018/06/27/05:43.59
  20389821.322          15.413  %2018/06/27/05:43.59
  20374574.176          13.753  %2018/06/27/05:43.59
  25601676.929          34.117  %2018/06/27/05:43.59
  22500435.174          13.615  %2018/06/27/05:43.59
  23814254.040          18.125  %2018/06/27/05:43.59
 18  6 27  8 41 32.9999475  0  9G 3G 6G 9G12G17G19G22G23G28
  23160815.001          33.672  %2018/06/27/05:44.00
  21132302.609          13.860  %2018/06/27/05:44.00
  21750960.921          13.258  %2018/06/27/05:44.00
  24037947.474          12.667  %2018/06/27/05:44.00
  20389778.760          12.913  %2018/06/27/05:44.00
  20374365.821          12.893  %2018/06/27/05:44.00
  25602246.539          35.220  %2018/06/27/05:44.00
  22500429.485          13.960  %2018/06/27/05:44.00
  23814872.214          17.300  %2018/06/27/05:44.00
 18  6 27  8 41 33.9999475  0  9G 3G 6G 9G12G17G19G22G23G28
  23161384.018          36.923  %2018/06/27/05:44.01
  21132036.092          16.012  %2018/06/27/05:44.01
  21750525.625          13.386  %2018/06/27/05:44.01
  24037800.875          16.220  %2018/06/27/05:44.01
  20389801.830          13.494  %2018/06/27/05:44.01
  20374171.862          12.599  %2018/06/27/05:44.01
  25602830.825          37.063  %2018/06/27/05:44.01
  22500414.495          15.143  %2018/06/27/05:44.01
  23815434.024          17.105  %2018/06/27/05:44.01
 18  6 27  8 41 34.9999475  0  9G 3G 6G 9G12G17G19G22G23G28
  23161963.505          37.358  %2018/06/27/05:44.02
  21131794.773          13.665  %2018/06/27/05:44.02
  21750083.437          13.277  %2018/06/27/05:44.02
  24037466.912          18.391  %2018/06/27/05:44.02
  20389775.148          12.939  %2018/06/27/05:44.02
  20374003.676          12.453  %2018/06/27/05:44.02
  25603405.827          38.323  %2018/06/27/05:44.02
  22500389.000          14.943  %2018/06/27/05:44.02
  23816034.800          15.249  %2018/06/27/05:44.02
 18  6 27  8 41 35.9999475  0  9G 3G 6G 9G12G17G19G22G23G28
  23162524.721          33.997  %2018/06/27/05:44.03
  21131492.273          13.902  %2018/06/27/05:44.03
  21749675.416          13.170  %2018/06/27/05:44.03
  24037142.530          18.433  %2018/06/27/05:44.03
  20389794.937          12.987  %2018/06/27/05:44.03
  20373819.001          12.545  %2018/06/27/05:44.03
  25603987.128          39.349  %2018/06/27/05:44.03
  22500375.215          14.852  %2018/06/27/05:44.03
  23816609.802          12.694  %2018/06/27/05:44.03
 18  6 27  8 41 36.9999475  0  9G 3G 6G 9G12G17G19G22G23G28
  23163097.019          34.941  %2018/06/27/05:44.04
  21131196.981          14.534  %2018/06/27/05:44.04
  21749280.290          13.688  %2018/06/27/05:44.04
  24036846.644          17.294  %2018/06/27/05:44.04
  20389800.643          13.021  %2018/06/27/05:44.04
  20373596.563          12.628  %2018/06/27/05:44.04
  25604564.539          38.264  %2018/06/27/05:44.04
  22500374.621          14.877  %2018/06/27/05:44.04
  23817194.698          13.081  %2018/06/27/05:44.04
 18  6 27  8 41 37.9999475  0  9G 3G 6G 9G12G17G19G22G23G28
  23163671.428          34.171  %2018/06/27/05:44.05
  21130979.324          15.050  %2018/06/27/05:44.05
  21748855.186          13.473  %2018/06/27/05:44.05
  24036536.659          15.556  %2018/06/27/05:44.05
  20389833.624          13.942  %2018/06/27/05:44.05
  20373303.958          12.805  %2018/06/27/05:44.05
  25605141.338          38.685  %2018/06/27/05:44.05
  22500331.153          15.845  %2018/06/27/05:44.05
  23817711.853          12.988  %2018/06/27/05:44.05
 18  6 27  8 41 38.9999475  0  9G 3G 6G 9G12G17G19G22G23G28
  23164238.629          34.005  %2018/06/27/05:44.06
  21130721.515          15.240  %2018/06/27/05:44.06
  21748331.452          13.464  %2018/06/27/05:44.06
  24036207.792          16.629  %2018/06/27/05:44.06
  20389989.803          13.994  %2018/06/27/05:44.06
  20373212.222          13.254  %2018/06/27/05:44.06
  25605719.935          38.116  %2018/06/27/05:44.06
  22500300.877          18.221  %2018/06/27/05:44.06
  23818284.150          12.841  %2018/06/27/05:44.06
 18  6 27  8 41 39.9999475  0  9G 3G 6G 9G12G17G19G22G23G28
  23164814.539          33.095  %2018/06/27/05:44.07
  21130460.686          15.885  %2018/06/27/05:44.07
  21747953.411          13.338  %2018/06/27/05:44.07
  24035846.241          17.753  %2018/06/27/05:44.07
  20389979.019          14.770  %2018/06/27/05:44.07
  20373003.866          14.047  %2018/06/27/05:44.07
  25606293.436          37.296  %2018/06/27/05:44.07
  22500268.192          16.865  %2018/06/27/05:44.07
  23818887.335          12.822  %2018/06/27/05:44.07
 18  6 27  8 41 40.9999475  0  9G 3G 6G 9G12G17G19G22G23G28
  23165384.149          37.048  %2018/06/27/05:44.08
  21130194.483          17.189  %2018/06/27/05:44.08
  21747550.485          12.762  %2018/06/27/05:44.08
  24035554.229          21.695  %2018/06/27/05:44.08
  20389995.806          15.816  %2018/06/27/05:44.08
  20372800.606          15.899  %2018/06/27/05:44.08
  25606867.845          33.000  %2018/06/27/05:44.08
  22500214.236          20.045  %2018/06/27/05:44.08
  23819472.231          13.306  %2018/06/27/05:44.08
 18  6 27  8 41 41.9999475  0  9G 3G 6G 9G12G17G19G22G23G28
  23165949.257          37.013  %2018/06/27/05:44.09
  21129921.056          12.928  %2018/06/27/05:44.09
  21747123.583          13.005  %2018/06/27/05:44.09
  24035261.938          22.298  %2018/06/27/05:44.09
  20390012.890          15.293  %2018/06/27/05:44.09
  20372578.465          18.436  %2018/06/27/05:44.09
  25607456.022          33.124  %2018/06/27/05:44.09
  22500167.470          20.431  %2018/06/27/05:44.09
  23820065.521          13.127  %2018/06/27/05:44.09
 18  6 27  8 41 42.9999475  0  9G 3G 6G 9G12G17G19G22G23G28
  23166526.056          36.945  %2018/06/27/05:44.10
  21129675.828          15.209  %2018/06/27/05:44.10
  21746596.255          13.007  %2018/06/27/05:44.10
  24034966.052          19.736  %2018/06/27/05:44.10
  20390035.383          15.953  %2018/06/27/05:44.10
  20372377.892          15.538  %2018/06/27/05:44.10
  25608016.645          35.612  %2018/06/27/05:44.10
  22500150.369          21.337  %2018/06/27/05:44.10
  23820643.507          12.447  %2018/06/27/05:44.10
 18  6 27  8 41 43.9999475  0  9G 3G 6G 9G12G17G19G22G23G28
  23167096.853          35.931  %2018/06/27/05:44.11
  21129413.516          16.569  %2018/06/27/05:44.11
  21746275.171          13.579  %2018/06/27/05:44.11
  24034588.307          22.405  %2018/06/27/05:44.11
  20390046.761          18.132  %2018/06/27/05:44.11
  20372171.037          13.398  %2018/06/27/05:44.11
  25608601.839          35.808  %2018/06/27/05:44.11
  22500116.794          24.625  %2018/06/27/05:44.11
  23821223.308          12.315  %2018/06/27/05:44.11
 18  6 27  8 41 44.9999475  0  9G 3G 6G 9G12G17G19G22G23G28
  23167662.868          37.683  %2018/06/27/05:44.12
  21129102.326          16.906  %2018/06/27/05:44.12
  21745847.675          13.719  %2018/06/27/05:44.12
  24034243.543          22.625  %2018/06/27/05:44.12
  20390054.858          16.833  %2018/06/27/05:44.12
  20371962.681          13.215  %2018/06/27/05:44.12
  25609169.948          32.365  %2018/06/27/05:44.12
  22500070.324          24.690  %2018/06/27/05:44.12
  23821823.805          12.233  %2018/06/27/05:44.12
 18  6 27  8 41 45.9999475  0  9G 3G 6G 9G12G17G19G22G23G28
  23168232.478          36.967  %2018/06/27/05:44.13
  21128861.601          17.903  %2018/06/27/05:44.13
  21745407.878          13.298  %2018/06/27/05:44.13
  24033989.014          22.369  %2018/06/27/05:44.13
  20390069.551          16.748  %2018/06/27/05:44.13
  20371793.013          13.863  %2018/06/27/05:44.13
  25609760.533          33.851  %2018/06/27/05:44.13
  22500050.536          28.373  %2018/06/27/05:44.13
  23822420.986          11.630  %2018/06/27/05:44.13
 18  6 27  8 41 46.9999475  0  9G 3G 6G 9G12G17G19G22G23G28
  23168806.573          39.031  %2018/06/27/05:44.14
  21128654.746          21.421  %2018/06/27/05:44.14
  21744960.576          15.390  %2018/06/27/05:44.14
  24033620.570          24.107  %2018/06/27/05:44.14
  20390061.751          16.432  %2018/06/27/05:44.14
  20371618.232          13.367  %2018/06/27/05:44.14
  25610340.037          34.137  %2018/06/27/05:44.14
  22500003.769          28.009  %2018/06/27/05:44.14
  23823010.385          11.644  %2018/06/27/05:44.14
 18  6 27  8 41 47.9999475  0  8G 3G 6G 9G12G17G19G22G23
  23169370.791          40.884  %2018/06/27/05:44.15
  21128414.003          20.444  %2018/06/27/05:44.15
  21744547.460          15.286  %2018/06/27/05:44.15
  24033308.787          24.854  %2018/06/27/05:44.15
  20390066.846          16.857  %2018/06/27/05:44.15
  20371418.566          14.290  %2018/06/27/05:44.15
  25610915.929          35.307  %2018/06/27/05:44.15
  22499986.686          30.226  %2018/06/27/05:44.15
 18  6 27  8 41 48.9999475  0  9G 2G 3G 6G 9G12G17G19G22G23
  24439581.528          29.074  %2018/06/27/05:44.16
  23169942.495          43.422  %2018/06/27/05:44.16
  21128112.410          22.248  %2018/06/27/05:44.16
  21744066.898          20.200  %2018/06/27/05:44.16
  24033008.103          22.185  %2018/06/27/05:44.16
  20390144.203          20.033  %2018/06/27/05:44.16
  20371216.196          15.087  %2018/06/27/05:44.16
  25611494.230          34.603  %2018/06/27/05:44.16
  22499957.910          30.363  %2018/06/27/05:44.16
 18  6 27  8 41 49.9999475  0  9G 2G 3G 6G 9G12G17G19G22G23
  24439119.255          26.482  %2018/06/27/05:44.17
  23170516.293          45.378  %2018/06/27/05:44.17
  21127847.097          21.402  %2018/06/27/05:44.17
  21743620.207          21.502  %2018/06/27/05:44.17
  24032628.857          23.657  %2018/06/27/05:44.17
  20390124.711          21.833  %2018/06/27/05:44.17
  20371009.341          15.515  %2018/06/27/05:44.17
  25612071.029          35.624  %2018/06/27/05:44.17
  22499924.039          32.271  %2018/06/27/05:44.17
 18  6 27  8 41 50.9999475  0  9G 2G 3G 6G 9G12G17G19G22G23
  24438682.755          25.184  %2018/06/27/05:44.18
  23171079.603          43.099  %2018/06/27/05:44.18
  21127544.615          22.553  %2018/06/27/05:44.18
  21743185.802          24.605  %2018/06/27/05:44.18
  24032318.871          24.448  %2018/06/27/05:44.18
  20390146.594          21.558  %2018/06/27/05:44.18
  20370776.416          16.055  %2018/06/27/05:44.18
  25612643.640          34.235  %2018/06/27/05:44.18
  22499885.055          37.108  %2018/06/27/05:44.18
 18  6 27  8 41 51.9999475  0  9G 2G 3G 6G 9G12G17G19G22G23
  24438235.471          28.121  %2018/06/27/05:44.19
  23171651.604          42.401  %2018/06/27/05:44.19
  21127329.663          22.619  %2018/06/27/05:44.19
  21742746.318          32.951  %2018/06/27/05:44.19
  24032006.495          25.593  %2018/06/27/05:44.19
  20390170.588          23.591  %2018/06/27/05:44.19
  20370589.035          19.287  %2018/06/27/05:44.19
  25613223.145          35.023  %2018/06/27/05:44.19
  22499855.373          38.864  %2018/06/27/05:44.19
 18  6 27  8 41 52.9999475  0  9G 2G 3G 6G 9G12G17G19G22G23
  24437803.770          30.253  %2018/06/27/05:44.20
  23172224.216          44.144  %2018/06/27/05:44.20
  21127025.070          24.826  %2018/06/27/05:44.20
  21742310.708          35.902  %2018/06/27/05:44.20
  24031740.571          24.936  %2018/06/27/05:44.20
  20390148.705          27.483  %2018/06/27/05:44.20
  20370334.210          23.490  %2018/06/27/05:44.20
  25613800.834          35.101  %2018/06/27/05:44.20
  22499829.599          40.171  %2018/06/27/05:44.20
 18  6 27  8 41 53.9999475  0  9G 2G 3G 6G 9G12G17G19G22G23
  24437337.884          27.229  %2018/06/27/05:44.21
  23172796.216          43.973  %2018/06/27/05:44.21
  21126744.156          33.505  %2018/06/27/05:44.21
  21741867.926          36.327  %2018/06/27/05:44.21
  24031345.742          26.176  %2018/06/27/05:44.21
  20390159.193          36.417  %2018/06/27/05:44.21
  20370109.364          37.752  %2018/06/27/05:44.21
  25614377.337          34.519  %2018/06/27/05:44.21
  22499795.117          38.722  %2018/06/27/05:44.21
 18  6 27  8 41 54.9999475  0  9G 2G 3G 6G 9G12G17G19G22G23
  24436902.588          26.582  %2018/06/27/05:44.22
  23173367.920          43.048  %2018/06/27/05:44.22
  21126493.240          46.135  %2018/06/27/05:44.22
  21741435.021          34.320  %2018/06/27/05:44.22
  24030989.898          29.912  %2018/06/27/05:44.22
  20390180.779          36.347  %2018/06/27/05:44.22
  20369915.404          42.609  %2018/06/27/05:44.22
  25614953.543          34.714  %2018/06/27/05:44.22
  22499764.248          38.679  %2018/06/27/05:44.22
 18  6 27  8 41 55.9999475  0  9G 2G 3G 6G 9G12G17G19G22G23
  24436445.410          25.052  %2018/06/27/05:44.23
  23173940.218          42.595  %2018/06/27/05:44.23
  21126228.223          47.669  %2018/06/27/05:44.23
  21741006.619          34.494  %2018/06/27/05:44.23
  24030687.712          39.507  %2018/06/27/05:44.23
  20390213.149          35.602  %2018/06/27/05:44.23
  20369714.238          42.257  %2018/06/27/05:44.23
  25615528.249          34.591  %2018/06/27/05:44.23
  22499744.756          39.055  %2018/06/27/05:44.23
 18  6 27  8 41 56.9999475  0  9G 2G 3G 6G 9G12G17G19G22G23
  24435995.125          25.605  %2018/06/27/05:44.24
  23174504.732          42.982  %2018/06/27/05:44.24
  21125973.398          47.742  %2018/06/27/05:44.24
  21740567.414          35.363  %2018/06/27/05:44.24
  24030356.437          43.749  %2018/06/27/05:44.24
  20390231.140          35.635  %2018/06/27/05:44.24
  20369516.981          41.890  %2018/06/27/05:44.24
  25616113.442          33.823  %2018/06/27/05:44.24
  22499709.681          40.806  %2018/06/27/05:44.24
 18  6 27  8 41 57.9999475  0  9G 2G 3G 6G 9G12G17G19G22G23
  24435549.621          27.530  %2018/06/27/05:44.25
  23175081.235          43.348  %2018/06/27/05:44.25
  21125712.883          47.616  %2018/06/27/05:44.25
  21740137.214          35.936  %2018/06/27/05:44.25
  24030040.152          44.819  %2018/06/27/05:44.25
  20390253.319          33.795  %2018/06/27/05:44.25
  20369319.113          42.164  %2018/06/27/05:44.25
  25616678.846          33.687  %2018/06/27/05:44.25
  22499680.905          39.762  %2018/06/27/05:44.25
 18  6 27  8 41 58.9999475  0  9G 2G 3G 6G 9G12G17G19G22G23
  24435077.156          27.186  %2018/06/27/05:44.26
  23175647.529          43.186  %2018/06/27/05:44.26
  21125449.368          46.850  %2018/06/27/05:44.26
  21739707.921          35.543  %2018/06/27/05:44.26
  24029729.276          44.085  %2018/06/27/05:44.26
  20390264.417          33.404  %2018/06/27/05:44.26
  20369119.151          41.548  %2018/06/27/05:44.26
  25617266.133          34.842  %2018/06/27/05:44.26
  22499655.725          37.906  %2018/06/27/05:44.26
 18  6 27  8 41 59.9999475  0  9G 2G 3G 6G 9G12G17G19G22G23
  24434627.464          28.308  %2018/06/27/05:44.27
  23176218.047          42.463  %2018/06/27/05:44.27
  21125190.040          45.706  %2018/06/27/05:44.27
  21739276.220          35.489  %2018/06/27/05:44.27
  24029413.288          40.372  %2018/06/27/05:44.27
  20390289.301          33.780  %2018/06/27/05:44.27
  20368923.394          42.917  %2018/06/27/05:44.27
  25617852.827          34.029  %2018/06/27/05:44.27
  22499618.538          37.887  %2018/06/27/05:44.27
 18  6 27  8 42  0.9999475  0  9G 2G 3G 6G 9G12G17G19G22G23
  24434177.475          27.175  %2018/06/27/05:44.28
  23176796.347          39.834  %2018/06/27/05:44.28
  21124936.122          46.629  %2018/06/27/05:44.28
  21738838.220          34.230  %2018/06/27/05:44.28
  24029105.100          37.635  %2018/06/27/05:44.28
  20390313.278          35.863  %2018/06/27/05:44.28
  20368724.637          42.126  %2018/06/27/05:44.28
  25618424.531          33.004  %2018/06/27/05:44.28
  22499594.858          38.940  %2018/06/27/05:44.28
 18  6 27  8 42  1.9999475  0  9G 2G 3G 6G 9G12G17G19G22G23
  24433647.739          36.885  %2018/06/27/05:44.29
  23177359.047          41.542  %2018/06/27/05:44.29
  21124673.199          47.300  %2018/06/27/05:44.29
  21738408.613          35.355  %2018/06/27/05:44.29
  24028803.211          35.011  %2018/06/27/05:44.29
  20390338.162          34.832  %2018/06/27/05:44.29
  20368521.970          41.947  %2018/06/27/05:44.29
  25618991.454          33.620  %2018/06/27/05:44.29
  22499567.584          38.178  %2018/06/27/05:44.29
 18  6 27  8 42  2.9999475  0  9G 2G 3G 6G 9G12G17G19G22G23
  24433228.340          42.266  %2018/06/27/05:44.30
  23177930.751          42.566  %2018/06/27/05:44.30
  21124420.468          46.211  %2018/06/27/05:44.30
  21737980.210          34.716  %2018/06/27/05:44.30
  24028468.934          35.096  %2018/06/27/05:44.30
  20390354.059          35.579  %2018/06/27/05:44.30
  20368322.304          41.474  %2018/06/27/05:44.30
  25619586.227          31.936  %2018/06/27/05:44.30
  22499533.695          37.422  %2018/06/27/05:44.30
 18  6 27  8 42  3.9999475  0  9G 2G 3G 6G 9G12G17G19G22G23
  24432790.637          38.808  %2018/06/27/05:44.31
  23178504.566          44.468  %2018/06/27/05:44.31
  21124158.453          47.572  %2018/06/27/05:44.31
  21737547.305          34.668  %2018/06/27/05:44.31
  24028157.151          37.545  %2018/06/27/05:44.31
  20390381.334          34.256  %2018/06/27/05:44.31
  20368128.938          42.303  %2018/06/27/05:44.31
  25620150.445          30.210  %2018/06/27/05:44.31
  22499509.422          34.643  %2018/06/27/05:44.31
 18  6 27  8 42  4.9999475  0  9G 2G 3G 6G 9G12G17G19G22G23
  24432338.240          36.533  %2018/06/27/05:44.32
  23179076.270          44.518  %2018/06/27/05:44.32
  21123902.737          47.639  %2018/06/27/05:44.32
  21737116.808          34.929  %2018/06/27/05:44.32
  24027837.882          36.701  %2018/06/27/05:44.32
  20390401.419          36.670  %2018/06/27/05:44.32
  20367928.680          41.878  %2018/06/27/05:44.32
  25620729.042          30.365  %2018/06/27/05:44.32
  22499476.145          34.159  %2018/06/27/05:44.32
 18  6 27  8 42  5.9999475  0  9G 2G 3G 6G 9G12G17G19G22G23
  24431891.252          39.011  %2018/06/27/05:44.33
  23179643.176          44.174  %2018/06/27/05:44.33
  21123644.910          47.019  %2018/06/27/05:44.33
  21736686.904          34.319  %2018/06/27/05:44.33
  24027530.584          33.244  %2018/06/27/05:44.33
  20390418.503          35.430  %2018/06/27/05:44.33
  20367727.828          41.917  %2018/06/27/05:44.33
  25621304.951          30.900  %2018/06/27/05:44.33
  22499462.359          35.320  %2018/06/27/05:44.33
 18  6 27  8 42  6.9999475  0  9G 2G 3G 6G 9G12G17G19G22G23
  24431456.253          37.815  %2018/06/27/05:44.34
  23180213.379          43.846  %2018/06/27/05:44.34
  21123382.285          46.933  %2018/06/27/05:44.34
  21736256.111          34.764  %2018/06/27/05:44.34
  24027228.102          31.323  %2018/06/27/05:44.34
  20390436.197          36.964  %2018/06/27/05:44.34
  20367529.349          41.878  %2018/06/27/05:44.34
  25621883.252          31.331  %2018/06/27/05:44.34
  22499418.873          37.909  %2018/06/27/05:44.34
 18  6 27  8 42  7.9999475  0  9G 2G 3G 6G 9G12G17G19G22G23
  24431006.265          37.862  %2018/06/27/05:44.35
  23180790.178          43.821  %2018/06/27/05:44.35
  21123123.864          47.549  %2018/06/27/05:44.35
  21735813.015          34.682  %2018/06/27/05:44.35
  24026896.530          30.870  %2018/06/27/05:44.35
  20390464.973          35.878  %2018/06/27/05:44.35
  20367333.592          41.727  %2018/06/27/05:44.35
  25622460.348          31.713  %2018/06/27/05:44.35
  22499392.802          37.483  %2018/06/27/05:44.35
 18  6 27  8 42  8.9999475  0  9G 2G 3G 6G 9G12G17G19G22G23
  24430570.079          39.646  %2018/06/27/05:44.36
  23181362.179          42.954  %2018/06/27/05:44.36
  21122869.946          47.317  %2018/06/27/05:44.36
  21735385.816          35.449  %2018/06/27/05:44.36
  24026612.319          29.456  %2018/06/27/05:44.36
  20390491.358          36.425  %2018/06/27/05:44.36
  20367134.538          41.638  %2018/06/27/05:44.36
  25623046.134          31.857  %2018/06/27/05:44.36
  22499366.714          37.774  %2018/06/27/05:44.36
 18  6 27  8 42  9.9999475  0  9G 2G 3G 6G 9G12G17G19G22G23
  24430108.695          40.144  %2018/06/27/05:44.37
  23181926.990          43.836  %2018/06/27/05:44.37
  21122605.226          47.046  %2018/06/27/05:44.37
  21734961.305          35.201  %2018/06/27/05:44.37
  24026273.261          31.598  %2018/06/27/05:44.37
  20390512.647          37.493  %2018/06/27/05:44.37
  20366938.764          41.415  %2018/06/27/05:44.37
  25623625.045          31.840  %2018/06/27/05:44.37
  22499337.031          38.714  %2018/06/27/05:44.37
 18  6 27  8 42 10.9999475  0  9G 2G 3G 6G 9G12G17G19G22G23
  24429666.192          40.604  %2018/06/27/05:44.38
  23182501.085          43.897  %2018/06/27/05:44.38
  21122351.902          46.782  %2018/06/27/05:44.38
  21734524.508          35.059  %2018/06/27/05:44.38
  24025959.680          32.341  %2018/06/27/05:44.38
  20390534.529          37.666  %2018/06/27/05:44.38
  20366739.395          40.751  %2018/06/27/05:44.38
  25624197.046          32.114  %2018/06/27/05:44.38
  22499310.647          38.788  %2018/06/27/05:44.38
 18  6 27  8 42 11.9999475  0  9G 2G 3G 6G 9G12G17G19G22G23
  24429218.315          39.389  %2018/06/27/05:44.39
  23183071.602          43.749  %2018/06/27/05:44.39
  21122094.685          46.988  %2018/06/27/05:44.39
  21734098.199          35.003  %2018/06/27/05:44.39
  24025659.886          31.823  %2018/06/27/05:44.39
  20390554.318          37.730  %2018/06/27/05:44.39
  20366537.636          41.261  %2018/06/27/05:44.39
  25624774.735          32.364  %2018/06/27/05:44.39
  22499277.683          39.245  %2018/06/27/05:44.39
 18  6 27  8 42 12.9999475  0  9G 2G 3G 6G 9G12G17G19G22G23
  24428773.422          40.886  %2018/06/27/05:44.40
  23183639.101          42.384  %2018/06/27/05:44.40
  21121833.264          44.820  %2018/06/27/05:44.40
  21733661.700          33.394  %2018/06/27/05:44.40
  24025330.408          32.156  %2018/06/27/05:44.40
  20390583.093          36.075  %2018/06/27/05:44.40
  20366338.284          39.841  %2018/06/27/05:44.40
  25625334.748          31.374  %2018/06/27/05:44.40
  22499256.987          37.581  %2018/06/27/05:44.40
 18  6 27  8 42 13.9999475  0  9G 2G 3G 6G 9G12G17G19G22G23
  24428329.419          42.228  %2018/06/27/05:44.41
  23184212.899          43.370  %2018/06/27/05:44.41
  21121574.250          46.214  %2018/06/27/05:44.41
  21733229.999          34.323  %2018/06/27/05:44.41
  24025018.328          32.676  %2018/06/27/05:44.41
  20390602.882          36.694  %2018/06/27/05:44.41
  20366144.011          41.339  %2018/06/27/05:44.41
  25625934.040          30.486  %2018/06/27/05:44.41
  22499233.604          37.211  %2018/06/27/05:44.41
 18  6 27  8 42 14.9999475  0  9G 2G 3G 6G 9G12G17G19G22G23
  24427892.622          38.914  %2018/06/27/05:44.42
  23184781.916          44.598  %2018/06/27/05:44.42
  21121320.018          47.377  %2018/06/27/05:44.42
  21732800.095          33.329  %2018/06/27/05:44.42
  24024725.426          32.581  %2018/06/27/05:44.42
  20390619.076          36.740  %2018/06/27/05:44.42
  20365947.347          42.008  %2018/06/27/05:44.42
  25626516.529          31.201  %2018/06/27/05:44.42
  22499197.028          38.736  %2018/06/27/05:44.42
 18  6 27  8 42 15.9999475  0  9G 2G 3G 6G 9G12G17G19G22G23
  24427442.633          39.929  %2018/06/27/05:44.43
  23185353.323          43.983  %2018/06/27/05:44.43
  21121058.003          47.446  %2018/06/27/05:44.43
  21732367.208          34.660  %2018/06/27/05:44.43
  24024408.251          33.203  %2018/06/27/05:44.43
  20390651.446          37.219  %2018/06/27/05:44.43
  20365747.088          41.433  %2018/06/27/05:44.43
  25627074.744          32.577  %2018/06/27/05:44.43
  22499166.752          38.161  %2018/06/27/05:44.43
 18  6 27  8 42 16.9999475  0  9G 2G 3G 6G 9G12G17G19G22G23
  24427008.838          37.936  %2018/06/27/05:44.44
  23185926.825          43.089  %2018/06/27/05:44.44
  21120797.489          47.371  %2018/06/27/05:44.44
  21731938.787          35.039  %2018/06/27/05:44.44
  24024106.363          34.437  %2018/06/27/05:44.44
  20390670.641          35.149  %2018/06/27/05:44.44
  20365555.520          42.082  %2018/06/27/05:44.44
  25627668.941          34.261  %2018/06/27/05:44.44
  22499146.370          37.321  %2018/06/27/05:44.44
 18  6 27  8 42 17.9999475  0  9G 2G 3G 6G 9G12G17G19G22G23
  24426563.352          36.777  %2018/06/27/05:44.45
  23186496.120          43.745  %2018/06/27/05:44.45
  21120543.850          47.141  %2018/06/27/05:44.45
  21731502.305          34.624  %2018/06/27/05:44.45
  24023781.684          35.314  %2018/06/27/05:44.45
  20390699.417          34.755  %2018/06/27/05:44.45
  20365352.556          42.380  %2018/06/27/05:44.45
  25628219.356          32.611  %2018/06/27/05:44.45
  22499116.984          36.577  %2018/06/27/05:44.45
 18  6 27  8 42 18.9999475  0  9G 2G 3G 6G 9G12G17G19G22G23
  24426115.754          35.822  %2018/06/27/05:44.46
  23187066.027          43.299  %2018/06/27/05:44.46
  21120286.337          46.666  %2018/06/27/05:44.46
  21731071.791          32.780  %2018/06/27/05:44.46
  24023451.613          37.141  %2018/06/27/05:44.46
  20390715.907          35.819  %2018/06/27/05:44.46
  20365159.801          41.698  %2018/06/27/05:44.46
  25628817.445          33.416  %2018/06/27/05:44.46
  22499092.711          37.477  %2018/06/27/05:44.46
 18  6 27  8 42 19.9999475  0  9G 2G 3G 6G 9G12G17G19G22G23
  24425715.236          35.865  %2018/06/27/05:44.47
  23187633.543          42.448  %2018/06/27/05:44.47
  21120027.009          47.055  %2018/06/27/05:44.47
  21730642.795          34.313  %2018/06/27/05:44.47
  24023141.034          37.840  %2018/06/27/05:44.47
  20390743.478          35.137  %2018/06/27/05:44.47
  20364959.229          41.832  %2018/06/27/05:44.47
  25629400.247          32.429  %2018/06/27/05:44.47
  22499059.433          37.179  %2018/06/27/05:44.47
 18  6 27  8 42 20.9999475  0  9G 2G 3G 6G 9G12G17G19G22G23
  24425233.767          34.341  %2018/06/27/05:44.48
  23188210.046          40.550  %2018/06/27/05:44.48
  21119770.997          47.237  %2018/06/27/05:44.48
  21730213.798          35.033  %2018/06/27/05:44.48
  24022824.452          39.824  %2018/06/27/05:44.48
  20390762.080          36.830  %2018/06/27/05:44.48
  20364765.863          42.240  %2018/06/27/05:44.48
  25629947.364          32.193  %2018/06/27/05:44.48
  22499036.940          39.181  %2018/06/27/05:44.48
 18  6 27  8 42 21.9999475  0  9G 2G 3G 6G 9G12G17G19G22G23
  24424779.276          32.430  %2018/06/27/05:44.49
  23188782.937          38.792  %2018/06/27/05:44.49
  21119509.575          47.485  %2018/06/27/05:44.49
  21729782.691          34.372  %2018/06/27/05:44.49
  24022515.967          43.143  %2018/06/27/05:44.49
  20390789.355          37.295  %2018/06/27/05:44.49
  20364569.513          41.208  %2018/06/27/05:44.49
  25630545.749          32.421  %2018/06/27/05:44.49
  22499004.273          38.465  %2018/06/27/05:44.49
 18  6 27  8 42 22.9999475  0  9G 2G 3G 6G 9G12G17G19G22G23
  24424323.599          38.501  %2018/06/27/05:44.50
  23189350.156          39.692  %2018/06/27/05:44.50
  21119250.858          47.725  %2018/06/27/05:44.50
  21729339.595          33.902  %2018/06/27/05:44.50
  24022201.479          44.877  %2018/06/27/05:44.50
  20390810.941          37.353  %2018/06/27/05:44.50
  20364371.051          41.147  %2018/06/27/05:44.50
  25631113.562          32.277  %2018/06/27/05:44.50
  22498982.687          37.209  %2018/06/27/05:44.50
 18  6 27  8 42 23.9999475  0  9G 2G 3G 6G 9G12G17G19G22G23
  24423882.894          41.283  %2018/06/27/05:44.51
  23189927.845          39.715  %2018/06/27/05:44.51
  21118991.827          47.899  %2018/06/27/05:44.51
  21728924.681          35.132  %2018/06/27/05:44.51
  24021892.087          45.805  %2018/06/27/05:44.51
  20390832.823          37.177  %2018/06/27/05:44.51
  20364174.073          41.661  %2018/06/27/05:44.51
  25631699.941          32.005  %2018/06/27/05:44.51
  22498953.598          37.265  %2018/06/27/05:44.51
 18  6 27  8 42 24.9999475  0  9G 2G 3G 6G 9G12G17G19G22G23
  24423435.016          41.948  %2018/06/27/05:44.52
  23190495.658          39.555  %2018/06/27/05:44.52
  21118738.502          47.857  %2018/06/27/05:44.52
  21728484.883          33.590  %2018/06/27/05:44.52
  24021580.007          45.821  %2018/06/27/05:44.52
  20390858.912          37.166  %2018/06/27/05:44.52
  20363977.724          41.207  %2018/06/27/05:44.52
  25632283.651          30.799  %2018/06/27/05:44.52
  22498932.012          36.268  %2018/06/27/05:44.52
 18  6 27  8 42 25.9999475  0  9G 2G 3G 6G 9G12G17G19G22G23
  24422989.826          41.601  %2018/06/27/05:44.53
  23191064.657          40.107  %2018/06/27/05:44.53
  21118476.191          47.933  %2018/06/27/05:44.53
  21728060.075          33.513  %2018/06/27/05:44.53
  24021267.928          43.974  %2018/06/27/05:44.53
  20390887.687          36.380  %2018/06/27/05:44.53
  20363779.245          41.727  %2018/06/27/05:44.53
  25632885.631          28.207  %2018/06/27/05:44.53
  22498889.451          32.564  %2018/06/27/05:44.53
 18  6 27  8 42 26.9999475  0  9G 2G 3G 6G 9G12G17G19G22G23
  24422545.526          39.443  %2018/06/27/05:44.54
  23191633.377          42.600  %2018/06/27/05:44.54
  21118224.663          43.402  %2018/06/27/05:44.54
  21727626.873          37.938  %2018/06/27/05:44.54
  24020952.550          40.066  %2018/06/27/05:44.54
  20390898.174          36.394  %2018/06/27/05:44.54
  20363592.178          37.282  %2018/06/27/05:44.54
  25633552.963          23.636  %2018/06/27/05:44.54
  22498887.043          31.133  %2018/06/27/05:44.54
 18  6 27  8 42 27.9999475  0  9G 2G 3G 6G 9G12G17G19G22G23
  24422107.229          39.964  %2018/06/27/05:44.55
  23192207.769          40.392  %2018/06/27/05:44.55
  21117964.742          46.845  %2018/06/27/05:44.55
  21727194.876          36.352  %2018/06/27/05:44.55
  24020643.157          43.350  %2018/06/27/05:44.55
  20390931.749          34.887  %2018/06/27/05:44.55
  20363388.325          40.971  %2018/06/27/05:44.55
  25634141.157          19.328  %2018/06/27/05:44.55
  22498858.564          30.799  %2018/06/27/05:44.55
 18  6 27  8 42 28.9999475  0  9G 2G 3G 6G 9G12G17G19G22G23
  24421665.337          38.755  %2018/06/27/05:44.57
  23192775.581          38.413  %2018/06/27/05:44.57
  21117707.526          45.496  %2018/06/27/05:44.57
  21726766.770          33.114  %2018/06/27/05:44.57
  24020334.079          42.881  %2018/06/27/05:44.57
  20390950.037          35.460  %2018/06/27/05:44.57
  20363194.366          39.875  %2018/06/27/05:44.57
  25634734.744          15.061  %2018/06/27/05:44.57
  22498822.285          27.714  %2018/06/27/05:44.57
 18  6 27  8 42 29.9999475  0  9G 2G 3G 6G 9G12G17G19G22G23
  24421215.942          36.947  %2018/06/27/05:44.58
  23193352.381          38.842  %2018/06/27/05:44.58
  21117446.401          44.711  %2018/06/27/05:44.58
  21726332.381          32.793  %2018/06/27/05:44.58
  24020022.593          43.348  %2018/06/27/05:44.58
  20390975.531          34.371  %2018/06/27/05:44.58
  20362999.796          40.143  %2018/06/27/05:44.58
  25635290.254          17.931  %2018/06/27/05:44.58
  22498791.415          26.522  %2018/06/27/05:44.58
 18  6 27  8 42 30.9999475  0  9G 2G 3G 6G 9G12G17G19G22G23
  24420781.850          37.072  %2018/06/27/05:44.58
  23193921.083          40.855  %2018/06/27/05:44.58
  21117187.981          45.156  %2018/06/27/05:44.58
  21725907.573          32.224  %2018/06/27/05:44.58
  24019710.496          43.744  %2018/06/27/05:44.58
  20391000.415          34.669  %2018/06/27/05:44.58
  20362800.131          39.642  %2018/06/27/05:44.58
  25635787.917          19.182  %2018/06/27/05:44.58
  22498780.928          24.451  %2018/06/27/05:44.58
 18  6 27  8 42 31.9999475  0  9G 2G 3G 6G 9G12G17G19G22G23
  24420347.445          36.277  %2018/06/27/05:45.00
  23194488.599          42.512  %2018/06/27/05:45.00
  21116929.857          44.476  %2018/06/27/05:45.00
  21725470.777          30.653  %2018/06/27/05:45.00
  24019396.915          42.895  %2018/06/27/05:45.00
  20391022.891          35.103  %2018/06/27/05:45.00
  20362599.872          38.339  %2018/06/27/05:45.00
  25636332.643          21.405  %2018/06/27/05:45.00
  22498730.549          25.766  %2018/06/27/05:45.00
 18  6 27  8 42 32.9999475  0  9G 2G 3G 6G 9G12G17G19G22G23
  24419885.171          34.779  %2018/06/27/05:45.01
  23195062.694          41.774  %2018/06/27/05:45.01
  21116672.938          44.686  %2018/06/27/05:45.01
  21725036.371          29.687  %2018/06/27/05:45.01
  24019082.742          42.019  %2018/06/27/05:45.01
  20391042.680          34.516  %2018/06/27/05:45.01
  20362403.505          38.925  %2018/06/27/05:45.01
  25636905.847          19.662  %2018/06/27/05:45.01
  22498760.232          23.862  %2018/06/27/05:45.01
 18  6 27  8 42 33.9999475  0  9G 2G 3G 6G 9G12G17G19G22G23
  24419434.589          35.061  %2018/06/27/05:45.01
  23195628.099          41.776  %2018/06/27/05:45.01
  21116411.219          44.655  %2018/06/27/05:45.01
  21724614.565          30.507  %2018/06/27/05:45.01
  24018771.255          42.082  %2018/06/27/05:45.01
  20391064.562          33.985  %2018/06/27/05:45.01
  20362208.045          39.552  %2018/06/27/05:45.01
  25637488.946          19.404  %2018/06/27/05:45.01
  22498690.082          23.859  %2018/06/27/05:45.01
 18  6 27  8 42 34.9999475  0  9G 2G 3G 6G 9G12G17G19G22G23
  24418990.882          34.510  %2018/06/27/05:45.03
  23196194.707          40.789  %2018/06/27/05:45.03
  21116151.298          44.837  %2018/06/27/05:45.03
  21724169.078          32.240  %2018/06/27/05:45.03
  24018456.471          42.260  %2018/06/27/05:45.03
  20391078.662          34.009  %2018/06/27/05:45.03
  20362010.177          39.710  %2018/06/27/05:45.03
  25638033.062          17.413  %2018/06/27/05:45.03
  22498673.888          24.438  %2018/06/27/05:45.03
 18  6 27  8 42 35.9999475  0  9G 2G 3G 6G 9G12G17G19G22G23
  24418566.981          35.203  %2018/06/27/05:45.04
  23196765.521          41.213  %2018/06/27/05:45.04
  21115894.082          43.664  %2018/06/27/05:45.04
  21723744.863          29.457  %2018/06/27/05:45.04
  24018143.798          41.762  %2018/06/27/05:45.04
  20391105.640          34.867  %2018/06/27/05:45.04
  20361812.012          37.965  %2018/06/27/05:45.04
  25638606.266          15.812  %2018/06/27/05:45.04
  22498622.637          23.171  %2018/06/27/05:45.04
 18  6 27  8 42 36.9999475  0  9G 2G 3G 6G 9G12G17G19G22G23
  24418087.607          34.414  %2018/06/27/05:45.04
  23197336.929          41.688  %2018/06/27/05:45.04
  21115629.362          45.081  %2018/06/27/05:45.04
  21723340.454          25.545  %2018/06/27/05:45.04
  24017831.107          43.062  %2018/06/27/05:45.04
  20391135.620          35.178  %2018/06/27/05:45.04
  20361607.251          39.258  %2018/06/27/05:45.04
  25639309.580          17.819  %2018/06/27/05:45.04
  22498585.154          24.132  %2018/06/27/05:45.04
 18  6 27  8 42 37.9999475  0  9G 2G 3G 6G 9G12G17G19G22G23
  24417647.512          35.586  %2018/06/27/05:45.05
  23197901.722          39.528  %2018/06/27/05:45.05
  21115367.941          45.503  %2018/06/27/05:45.05
  21722898.248          22.308  %2018/06/27/05:45.05
  24017515.415          42.906  %2018/06/27/05:45.05
  20391159.300          33.651  %2018/06/27/05:45.05
  20361417.183          39.497  %2018/06/27/05:45.05
  25639889.974          17.153  %2018/06/27/05:45.05
  22498582.152          25.611  %2018/06/27/05:45.05
 18  6 27  8 42 38.9999475  0  9G 2G 3G 6G 9G12G17G19G22G23
  24417206.824          35.994  %2018/06/27/05:45.06
  23198475.241          37.972  %2018/06/27/05:45.06
  21115107.426          45.170  %2018/06/27/05:45.06
  21722465.657          19.781  %2018/06/27/05:45.06
  24017206.337          41.746  %2018/06/27/05:45.06
  20391172.492          34.349  %2018/06/27/05:45.06
  20361217.518          39.657  %2018/06/27/05:45.06
  25640482.968          15.630  %2018/06/27/05:45.06
  22498534.199          27.826  %2018/06/27/05:45.06
 18  6 27  8 42 39.9999475  0  9G 2G 3G 6G 9G12G17G19G22G23
  24416743.940          35.222  %2018/06/27/05:45.08
  23199035.550          34.202  %2018/06/27/05:45.08
  21114847.191          44.761  %2018/06/27/05:45.08
  21722056.729          19.111  %2018/06/27/05:45.08
  24016891.849          40.822  %2018/06/27/05:45.08
  20391196.469          34.565  %2018/06/27/05:45.08
  20361019.371          39.399  %2018/06/27/05:45.08
  25641054.672          14.859  %2018/06/27/05:45.08
  22498517.098          28.036  %2018/06/27/05:45.08
 18  6 27  8 42 40.9999475  0  9G 2G 3G 6G 9G12G17G19G22G23
  24416297.860          34.895  %2018/06/27/05:45.08
  23199608.755          32.228  %2018/06/27/05:45.08
  21114589.975          44.326  %2018/06/27/05:45.08
  21721641.222          18.404  %2018/06/27/05:45.08
  24016576.471          41.209  %2018/06/27/05:45.08
  20391227.355          34.567  %2018/06/27/05:45.08
  20360818.205          38.486  %2018/06/27/05:45.08
  25641547.239          14.946  %2018/06/27/05:45.08
  22498482.634          32.986  %2018/06/27/05:45.08
 18  6 27  8 42 41.9999475  0  9G 2G 3G 6G 9G12G17G19G22G23
  24415861.360          35.884  %2018/06/27/05:45.09
  23200186.148          31.525  %2018/06/27/05:45.09
  21114329.461          44.394  %2018/06/27/05:45.09
  21721210.428          16.771  %2018/06/27/05:45.09
  24016269.191          41.980  %2018/06/27/05:45.09
  20391241.141          34.495  %2018/06/27/05:45.09
  20360623.931          39.133  %2018/06/27/05:45.09
  25642015.812          15.847  %2018/06/27/05:45.09
  22498455.342          33.376  %2018/06/27/05:45.09
 18  6 27  8 42 42.9999475  0  9G 2G 3G 6G 9G12G17G19G22G23
  24415404.164          37.169  %2018/06/27/05:45.11
  23200753.664          32.676  %2018/06/27/05:45.11
  21114065.648          44.359  %2018/06/27/05:45.11
  21720775.726          15.930  %2018/06/27/05:45.11
  24015952.312          39.932  %2018/06/27/05:45.11
  20391262.134          35.766  %2018/06/27/05:45.11
  20360423.376          39.445  %2018/06/27/05:45.11
  25642634.283          21.217  %2018/06/27/05:45.11
  22498427.474          33.901  %2018/06/27/05:45.11
 18  6 27  8 42 43.9999475  0  8G 2G 3G 6G12G17G19G22G23
  24414964.070          36.002  %2018/06/27/05:45.13
  23201313.065          38.658  %2018/06/27/05:45.13
  21113806.024          43.239  %2018/06/27/05:45.13
  24015647.125          38.453  %2018/06/27/05:45.13
  20391281.608          34.992  %2018/06/27/05:45.13
  20360229.417          39.385  %2018/06/27/05:45.13
  25643175.100          20.632  %2018/06/27/05:45.13
  22498397.180          35.510  %2018/06/27/05:45.13
 18  6 27  8 42 44.9999475  0  8G 2G 3G 6G12G17G19G22G23
  24414515.582          34.109  %2018/06/27/05:45.24
  23201881.471          37.073  %2018/06/27/05:45.24
  21113547.604          41.109  %2018/06/27/05:45.24
  24015321.539          35.680  %2018/06/27/05:45.24
  20391310.698          35.272  %2018/06/27/05:45.24
  20360026.750          37.382  %2018/06/27/05:45.24
  25643845.433          20.353  %2018/06/27/05:45.24
  22498369.015          39.300  %2018/06/27/05:45.24
 18  6 27  8 42 45.9999475  0  8G 2G 3G 6G12G17G19G22G23
  24414058.700          35.160  %2018/06/27/05:45.24
  23202445.079          37.544  %2018/06/27/05:45.24
  21113285.275          40.279  %2018/06/27/05:45.24
  24015014.555          38.645  %2018/06/27/05:45.24
  20391328.985          34.563  %2018/06/27/05:45.24
  20359830.679          36.460  %2018/06/27/05:45.24
  25644445.615          18.975  %2018/06/27/05:45.24
  22498345.318          38.453  %2018/06/27/05:45.24
 18  6 27  8 42 46.9999475  0  8G 2G 3G 6G12G17G19G22G23
  24413619.199          32.682  %2018/06/27/05:45.24
  23203019.784          40.669  %2018/06/27/05:45.24
  21113023.259          38.877  %2018/06/27/05:45.24
  24014704.866          38.315  %2018/06/27/05:45.24
  20391354.759          36.215  %2018/06/27/05:45.24
  20359638.814          36.357  %2018/06/27/05:45.24
  25644980.447          20.173  %2018/06/27/05:45.24
  22498315.653          37.910  %2018/06/27/05:45.24
 18  6 27  8 42 47.9999475  0  8G 2G 3G 6G12G17G19G22G23
  24413253.757          30.656  %2018/06/27/05:45.24
  23203582.798          41.386  %2018/06/27/05:45.24
  21112765.747          38.827  %2018/06/27/05:45.24
  24014393.990          39.616  %2018/06/27/05:45.24
  20391387.740          35.622  %2018/06/27/05:45.24
  20359431.069          35.804  %2018/06/27/05:45.24
  25645533.863          20.021  %2018/06/27/05:45.24
  22498287.767          38.536  %2018/06/27/05:45.24
 18  6 27  8 42 48.9999475  0  8G 2G 3G 6G12G17G19G22G23
  24412796.875          31.240  %2018/06/27/05:45.24
  23204154.205          40.283  %2018/06/27/05:45.24
  21112508.513          36.673  %2018/06/27/05:45.24
  24014083.097          38.909  %2018/06/27/05:45.24
  20391399.729          33.892  %2018/06/27/05:45.24
  20359237.389          36.291  %2018/06/27/05:45.24
  25646069.306          22.825  %2018/06/27/05:45.24
  22498255.694          40.572  %2018/06/27/05:45.24
 18  6 27  8 42 49.9999475  0  8G 2G 3G 6G12G17G19G22G23
  24412332.804          30.102  %2018/06/27/05:45.25
  23204721.110          40.109  %2018/06/27/05:45.25
  21112240.198          38.736  %2018/06/27/05:45.25
  24013817.487          34.179  %2018/06/27/05:45.25
  20391418.924          36.815  %2018/06/27/05:45.25
  20359036.834          37.899  %2018/06/27/05:45.25
  25646665.894          19.829  %2018/06/27/05:45.25
  22498230.496          42.701  %2018/06/27/05:45.25
 18  6 27  8 42 50.9999475  0  8G 2G 3G 6G12G17G19G22G23
  24411824.357          27.951  %2018/06/27/05:45.25
  23205288.923          40.441  %2018/06/27/05:45.25
  21111986.874          42.449  %2018/06/27/05:45.25
  24013502.999          35.196  %2018/06/27/05:45.25
  20391445.902          38.485  %2018/06/27/05:45.25
  20358839.873          38.853  %2018/06/27/05:45.25
  25647256.182          16.841  %2018/06/27/05:45.25
  22498203.518          39.913  %2018/06/27/05:45.25
 18  6 27  8 42 51.9999475  0  8G 2G 3G 6G12G17G19G22G23
  24411441.220          27.698  %2018/06/27/05:45.25
  23205850.733          40.464  %2018/06/27/05:45.25
  21111724.562          42.121  %2018/06/27/05:45.25
  24013139.651          38.131  %2018/06/27/05:45.25
  20391469.879          35.683  %2018/06/27/05:45.25
  20358647.101          38.995  %2018/06/27/05:45.25
  25647792.515          17.464  %2018/06/27/05:45.25
  22498171.444          41.689  %2018/06/27/05:45.25
 18  6 27  8 42 52.9999475  0  8G 2G 3G 6G12G17G19G22G23
  24411056.879          28.783  %2018/06/27/05:45.25
  23206421.529          38.018  %2018/06/27/05:45.25
  21111460.435          42.204  %2018/06/27/05:45.25
  24012841.060          37.965  %2018/06/27/05:45.25
  20391501.655          32.363  %2018/06/27/05:45.25
  20358447.435          38.997  %2018/06/27/05:45.25
  25648480.839          15.053  %2018/06/27/05:45.25
  22498146.560          38.831  %2018/06/27/05:45.25
 18  6 27  8 42 53.9999475  0  8G 2G 3G 6G12G17G19G22G23
  24410543.336          34.853  %2018/06/27/05:45.25
  23206992.029          37.058  %2018/06/27/05:45.25
  21111199.031          41.967  %2018/06/27/05:45.25
  24012522.978          37.442  %2018/06/27/05:45.25
  20391514.551          29.493  %2018/06/27/05:45.25
  20358250.772          38.968  %2018/06/27/05:45.25
  25648944.613          14.331  %2018/06/27/05:45.25
  22498113.579          38.723  %2018/06/27/05:45.25
 18  6 27  8 42 54.9999475  0  8G 2G 3G 6G12G17G19G22G23
