     3.03           OBSERVATION DATA    M                   RINEX VERSION / TYPE
G = GPS  R = GLONASS  E = GALILEO  J = QZSS  C = BDS        COMMENT             
S = SBAS payload  M = Mixed                                 COMMENT             
GRitz Logger        MI 8                1568284783988       UTC PGM / RUN BY / DATE
                                                            MARKER NAME         
                                                            MARKER NUMBER       
                                                            OBSERVER / AGENCY   
                                                            REC # / TYPE / VERS 
                                                            ANT # / TYPE        
        0.0000        0.0000        0.0000                  APPROX POSITION XYZ
        0.0000        0.0000        0.0000                  ANTENNA: DELTA H/E/N
     0                                                      RCV CLOCK OFFS APPL 
G    6 C1C L1C S1C C5X L5X S5X                              SYS / # / OBS TYPES 
J    6 C1C L1C S1C C5X L5X S5X                              SYS / # / OBS TYPES 
E    6 C1X L1X S1X C5X L5X S5X                              SYS / # / OBS TYPES 
  2019     9    12    10    40    2.0002386     GPS         TIME OF FIRST OBS   
 24 R01  1 R02 -4 R03  5 R04  6 R05  1 R06 -4 R07  5 R08  6 GLONASS SLOT / FRQ #
    R09 -2 R10 -7 R11  0 R12 -1 R13 -2 R14 -7 R15  0 R16 -1 GLONASS SLOT / FRQ #
    R17  4 R18 -3 R19  3 R20  2 R21  4 R22 -3 R23  3 R24  2 GLONASS SLOT / FRQ #
                                                            END OF HEADER       
> 2019  9 12 10 40  2.0002386  0 19
G10  22529871.806     -168787.416          30.125  
G12  22316471.139     -177964.595          46.051  
G15  21361528.425       62304.068          38.774  
G20  20544730.080      -83520.441          33.343  
G21  23378917.612       71764.124          34.025  
G24  20078166.383       18606.564          42.261  
G25  24713479.413     -214211.649          29.001  
G32  25071329.981     -149999.481          36.440  
J01  38091491.516      -53471.712          39.578  
E27  23887952.016      -27965.552          38.884  
> 2019  9 12 10 40  3.0002386  0 19
G10  22529255.726     -172060.068          27.957  
G12  22315821.188     -181374.369          46.511  
G15  21361762.572       63527.832          39.656  
G20  20544430.896      -85134.120          31.609  
G21  23379170.047       73174.416          36.582  
G24  20078234.125       18986.181          41.823  
G25  24712679.879     -218380.569          30.539  
G32  25070774.471     -152914.629          33.350  
J01  38091293.648      -54510.564          38.462  
E27  23887560.485      -30030.756          37.362  
> 2019  9 12 10 40  4.0002386  0 19
G10  22528633.661     -175336.676          27.546  
G12  22315174.239     -184783.999          46.586  
G13  24162048.659       10405.161          31.456  
G15  21361993.700       64753.310          38.265  
G20  20544119.707      -86746.586          30.974  
G21  23379442.846       74583.925          36.785  
G24  20078305.776       19366.496          41.666  
G25  24711880.624     -222550.590          30.595  
G32  25070217.146     -155831.494          33.334  
J01  38091096.984      -55549.493          38.851  
E27  23887168.955      -32092.159          37.056  
E30  23293200.956       10215.912          39.436  
> 2019  9 12 10 40  5.0002386  0 19
G10  22528010.688     -178611.319          26.816  
G12  22314525.178     -188193.294          47.005  
G13  24162461.478       12556.794          28.267  
G15  21362234.740       65978.386          36.812  
G20  20543812.112      -88354.105          33.664  
G21  23379711.772       75992.986          35.052  
G24  20078378.334       19747.135          41.602  
G25  24711087.075     -226720.924          31.948  
G32  25069666.138     -158751.934          32.979  
J01  38090898.226      -56588.410          38.431  
E27  23886775.627      -34154.128          37.758  
E30  23293341.256       10960.115          39.304  
> 2019  9 12 10 40  6.0002386  0 19
G10  22527385.918     -181879.774          25.553  
G12  22313875.227     -191602.081          46.216  
G13  24162870.389       14701.547          28.366  
G15  21362460.179       67203.950          41.430  
G20  20543506.925      -89960.655          33.962  
G21  23379982.774       77402.415          35.698  
G24  20078454.783       20128.330          41.541  
G25  24710296.825     -230889.538          28.178  
G32  25069109.424     -161667.297          28.613  
J01  38090705.157      -57627.485          39.290  
E27  23886381.706      -36213.586          39.816  
E30  23293482.760       11704.949          39.980  
> 2019  9 12 10 40  7.0002386  0 19
G10  22526766.243     -185150.641          28.147  
G12  22313228.871     -195010.933          45.296  
G13  24163282.912       16848.586          26.757  
G15  21362695.216       68430.264          42.043  
G20  20543202.349      -91567.319          34.018  
G21  23380249.291       78811.950          34.249  
G24  20078526.137       20507.038          41.078  
G25  24709509.872     -235055.224          27.190  
G32  25068574.295     -164589.689          27.144  
J01  38090506.696      -58666.441          38.406  
E27  23885990.175      -38274.143          41.654  
> 2019  9 12 10 40  8.0002386  0 19
G10  22526135.784     -188420.810          28.955  
G12  22312580.421     -198417.527          42.850  
G15  21362929.363       69657.768          43.578  
G20  20542895.661      -93172.409          32.153  
G21  23380519.403       80221.492          33.913  
G24  20078597.788       20886.502          39.552  
G25  24708713.322     -239225.329          29.886  
G32  25067994.791     -167506.533          33.922  
J01  38090307.327      -59704.580          38.116  
E27  23885599.849      -40333.278          42.339  
> 2019  9 12 10 40  9.0002386  0 19
G10  22525511.625     -191688.969          30.607  
G12  22311932.268     -201825.448          43.320  
G15  21363162.603       70884.734          44.622  
G20  20542592.272      -94776.034          30.653  
G21  23380784.419       81631.415          32.923  
G24  20078670.921       21269.304          39.025  
G25  24707918.570     -243395.942          27.719  
G32  25067440.781     -170422.891          35.476  
J01  38090107.976      -60743.739          37.449  
E27  23885207.411      -42392.393          42.601  
> 2019  9 12 10 40 10.0002386  0 19
G10  22524888.042     -194954.397          29.607  
G12  22311282.317     -205232.613          42.772  
G15  21363393.731       72112.349          44.590  
G20  20542287.975      -96379.765          31.642  
G21  23381054.531       83041.596          33.249  
G24  20078746.777       21651.794          39.298  
G25  24707121.723     -247563.357          28.362  
G32  25066884.957     -173340.238          31.490  
J01  38089909.514      -61782.147          36.741  
E27  23884814.397      -44451.452          42.446  
> 2019  9 12 10 40 11.0002386  0 19
G10  22524269.274     -198221.767          28.513  
G12  22310632.977     -208638.654          43.221  
G15  21363629.379       73340.849          44.066  
G20  20541979.193      -97984.614          33.343  
G21  23381323.456       84451.047          36.177  
G24  20078818.725       22036.443          40.278  
G25  24706320.671     -251733.848          30.656  
G32  25066331.541     -176260.899          29.377  
J01  38089714.037      -62818.034          37.888  
E27  23884423.460      -46509.043          42.789  
> 2019  9 12 10 40 12.0002386  0 19
G10  22523646.005     -201491.923          28.527  
G12  22309989.029     -212043.601          43.624  
G15  21363862.304       74569.364          43.993  
G20  20541673.396      -99587.991          33.344  
G21  23381591.160       85861.177          36.500  
G24  20078890.375       22419.723          40.333  
G25  24705524.417     -255905.009          32.824  
G32  25065782.016     -179174.016          28.096  
J01  38089517.076      -63856.862          37.320  
E27  23884031.039      -48566.872          41.759  
> 2019  9 12 10 40 13.0002386  0 19
G10  22523028.442     -204761.137          28.273  
G12  22309338.171     -215449.664          46.375  
G15  21364095.544       75797.988          42.723  
G20  20541370.617     -101190.654          35.097  
G21  23381860.086       87271.833          33.560  
G24  20078964.731       22805.340          39.999  
G25  24704731.479     -260075.805          32.993  
G32  25065232.805     -182091.881          28.847  
J01  38089317.725      -64894.877          37.523  
E27  23883640.399      -50624.046          41.888  
> 2019  9 12 10 40 14.0002386  0 19
G10  22522399.169     -208029.723          30.252  
G12  22308689.127     -218854.875          43.257  
G15  21364332.692       77028.324          44.258  
G20  20541065.727     -102792.707          34.981  
G21  23382127.493       88682.231          38.672  
G24  20079039.976       23191.477          39.578  
G25  24703943.323     -264245.219          33.286  
G32  25064668.902     -185009.445          31.164  
J01  38089122.248      -65931.901          37.215  
E27  23883249.182      -52680.746          41.941  
> 2019  9 12 10 40 15.0002386  0 19
G10  22521780.699     -211296.523          31.033  
G12  22308043.975     -222259.966          41.543  
G15  21364566.229       78257.891          44.765  
G20  20540762.337     -104394.372          35.670  
G21  23382396.715       90098.313          39.875  
G24  20079107.124       23578.297          38.946  
G25  24703151.572     -268413.567          33.582  
G32  25064110.687     -187926.092          33.427  
J01  38088924.083      -66969.404          36.321  
E27  23882859.449      -54736.999          41.716  
> 2019  9 12 10 40 16.0002386  0 19
G10  22521160.134     -214563.160          31.274  
G12  22307394.914     -225664.210          41.225  
G15  21364798.264       79487.297          43.712  
G20  20540456.836     -105995.455          35.537  
G21  23382666.512       91510.867          41.513  
G24  20079184.481       23964.502          39.213  
G25  24702357.115     -272577.800          34.625  
G32  25063554.566     -190842.718          34.103  
J01  38088725.622      -68007.464          35.730  
E27  23882465.214      -56792.218          40.794  
> 2019  9 12 10 40 17.0002386  0 19
G10  22520538.662     -217829.306          30.986  
G12  22306744.667     -229069.471          42.636  
G15  21365035.692       80716.918          44.319  
G20  20540152.260     -107595.463          36.416  
G21  23382930.342       92923.935          40.366  
G24  20079257.022       24344.873          39.677  
G25  24701558.175     -276748.795          34.361  
G32  25062999.352     -193759.251          35.607  
J01  38088533.757      -69045.296          37.650  
E27  23882075.184      -58846.834          39.382  
> 2019  9 12 10 40 18.0002386  0 19
G10  22519914.189     -221096.180          31.995  
G12  22306099.812     -232474.517          41.687  
G13  24167771.998       10399.641          27.399  
G15  21365268.338       81946.495          44.574  
G20  20539843.164     -109195.556          35.638  
G21  23383204.346       94337.432          40.419  
G24  20079334.675       24732.656          40.301  
G25  24700768.517     -280919.769          32.142  
G32  25062445.936     -196675.270          37.101  
J01  38088331.107      -70083.185          37.736  
E27  23881684.561      -60901.384          40.895  
> 2019  9 12 10 40 19.0002386  0 19
G10  22519294.828     -224367.721          28.888  
G12  22305449.861     -235879.002          42.759  
G13  24168184.522       12552.052          26.087  
G15  21365500.374       83175.268          42.832  
G20  20539540.368     -110793.304          33.642  
G21  23383469.659       95751.968          37.311  
G24  20079404.825       25120.161          41.431  
G25  24699972.875     -285090.488          31.407  
G32  25061891.316     -199590.134          34.022  
J01  38088133.833      -71121.815          38.901  
E27  23881293.327      -62957.541          40.643  
> 2019  9 12 10 40 20.0002386  0 19
G10  22518679.952     -227634.749          28.454  
G12  22304803.505     -239282.926          42.622  
G15  21365733.613       84405.140          41.614  
G20  20539235.792     -112387.696          32.254  
G21  23383742.179       97167.085          38.468  
G24  20079480.961       25504.625          41.088  
G25  24699180.809     -289260.918          34.162  
G32  25061333.711     -202505.443          37.182  
J01  38087935.982      -72160.686          37.446  
E27  23880905.094      -65011.241          40.600  
> 2019  9 12 10 40 21.0002386  0 19
G10  22518056.072     -230901.360          27.959  
G12  22304156.852     -242686.573          40.955  
G15  21365968.354       85634.971          39.970  
G20  20538935.997     -113986.070          32.874  
G21  23384009.586       98582.674          38.412  
G24  20079556.223       25893.637          41.148  
G25  24698381.869     -293431.468          36.019  
G32  25060782.982     -205421.361          39.014  
J01  38087739.615      -73199.149          37.733  
E07  24052079.690       10139.470          38.695  
E27  23880509.969      -67065.207          39.966  
> 2019  9 12 10 40 22.0002386  0 19
G10  22517435.804     -234166.105          27.964  
G12  22303509.013     -246090.118          41.668  
G15  21366202.797       86863.131          40.790  
G20  20538634.702     -115584.064          31.982  
G21  23384278.511       99997.602          39.247  
G24  20079630.265       26281.178          40.589  
G25  24697591.025     -297602.830          34.040  
G32  25060225.675     -208338.119          38.224  
J01  38087540.246      -74235.501          37.436  
E07  24052139.352       10457.870          38.465  
E27  23880121.737      -69117.782          40.707  
> 2019  9 12 10 40 23.0002386  0 19
G10  22516817.037     -237429.391          28.384  
G12  22302856.950     -249494.562          41.698  
G15  21366435.426       88092.059          41.442  
G20  20538330.108     -117181.895          32.160  
G21  23384548.326      101412.611          38.332  
G24  20079702.823       26670.265          41.346  
G25  24696798.366     -301774.408          37.463  
G32  25059669.257     -211254.552          38.783  
J01  38087341.488      -75275.005          36.847  
E07  24052199.904       10777.711          38.404  
E27  23879730.817      -71173.487          39.468  
> 2019  9 12 10 40 24.0002386  0 19
G10  22516193.471     -240696.596          28.548  
G12  22302210.298     -252894.444          43.281  
G15  21366672.261       89321.629          41.813  
G20  20538020.733     -118777.795          33.478  
G21  23384819.328      102830.161          38.539  
G24  20079774.770       27060.160          41.442  
G25  24696003.020     -305944.251          36.960  
G32  25059113.433     -214169.189          36.678  
J01  38087141.526      -76313.314          37.314  
E07  24052259.567       11097.831          37.789  
E27  23879338.082      -73224.567          38.791  
> 2019  9 12 10 40 25.0002386  0 19
G10  22515573.203     -243957.375          28.311  
G12  22301568.147     -256296.201          42.433  
G15  21366904.296       90553.339          41.832  
G20  20537724.237     -120370.715          34.134  
G21  23385087.940      104250.254          38.285  
G24  20079851.516       27452.022          40.034  
G25  24695209.175     -310112.686          38.863  
G32  25058564.519     -217082.267          35.552  
J01  38086951.458      -77351.136          37.486  
E07  24052321.323       11419.676          38.447  
E27  23878947.756      -75275.777          39.878  
> 2019  9 12 10 40 26.0002386  0 19
G10  22514953.825     -247219.743          27.820  
G12  22300915.806     -259696.174          42.383  
G15  21367141.741       91784.986          41.089  
G20  20537419.347     -121961.862          33.706  
G21  23385360.460      105670.720          37.648  
G24  20079925.854       27845.405          41.514  
G25  24694420.407     -314280.660          37.233  
G32  25058014.697     -219994.940          33.421  
J01  38086749.088      -78387.738          36.189  
E07  24052383.079       11741.719          39.474  
E27  23878559.820      -77325.360          40.324  
> 2019  9 12 10 40 27.0002386  0 19
G12  22300271.544     -263095.752          42.128  
G15  21367376.482       93017.257          41.954  
G20  20537115.050     -123555.040          30.839  
G21  23385630.572      107090.958          35.115  
G24  20080004.711       28239.002          41.616  
G25  24693622.357     -318448.915          34.074  
G32  25057467.581     -222912.051          31.948  
J01  38086553.331      -79423.952          36.644  
E07  24052441.538       12063.003          38.852  
E27  23878170.087      -79374.903          40.634  
> 2019  9 12 10 40 28.0002386  0 19
G12  22299624.594     -266495.083          44.510  
G15  21367608.517       94249.925          39.999  
G20  20536811.067     -125145.483          31.426  
G21  23385901.887      108509.873          32.614  
G24  20080072.767       28633.430          43.458  
G25  24692827.918     -322617.555          35.141  
G32  25056918.352     -225835.957          30.975  
J01  38086357.871      -80460.271          39.308  
E07  24052503.311       12385.613          37.030  
E27  23877780.057      -81423.839          37.281  
> 2019  9 12 10 40 29.0002386  0 19
G12  22298975.847     -269894.170          44.387  
G13  24172277.592       10392.883          27.512  
G15  21367846.556       95482.466          41.468  
G20  20536516.368     -126736.204          34.743  
G21  23386176.484      109929.243          31.472  
G24  20080149.513       29027.820          41.929  
G25  24692038.854     -326785.970          34.901  
G32  25056373.941     -228753.711          30.309  
J01  38086161.208      -81497.482          38.126  
E07  24052566.254       12707.682          37.649  
E27  23877390.027      -83471.955          33.927  
> 2019  9 12 10 40 30.0002386  0 19
G12  22298328.898     -273293.302          44.370  
G13  24172686.207       12545.497          26.692  
G15  21368078.591       96715.695          41.336  
G20  20536207.883     -128326.097          36.813  
G21  23386443.612      111350.792          31.025  
G24  20080227.760       29422.999          42.895  
G25  24691245.916     -330954.961          32.481  
G32  25055817.820     -231673.780          28.520  
J01  38085961.245      -82534.341          38.311  
E07  24052628.011       13029.540          37.036  
E27  23877000.608      -85520.717          35.136  
> 2019  9 12 10 40 31.0002386  0 19
G12  22297684.636     -276692.648          46.082  
G13  24173088.225       14699.188          26.030  
G15  21368313.035       97948.048          40.366  
G20  20535907.198     -129914.963          35.491  
G21  23386708.925      112772.280          33.272  
G24  20080297.596       29818.115          42.488  
G25  24690452.053     -335123.414          31.249  
G32  25055264.700     -234589.968          26.249  
J01  38085766.379      -83570.877          37.591  
E07  24052688.877       13352.102          37.437  
E27  23876611.468      -87569.095          35.042  
> 2019  9 12 10 40 32.0002386  0 19
G12  22297038.280     -280091.276          44.502  
G13  24173498.933       16851.268          26.492  
G15  21368546.868       99180.594          41.204  
G20  20535599.010     -131503.596          35.972  
G21  23386985.633      114191.263          33.325  
G24  20080374.656       30213.861          42.353  
G25  24689654.910     -339292.244          36.514  
G32  25054713.395     -237503.992          26.567  
J01  38085567.621      -84608.336          37.123  
E07  24052750.633       13673.784          37.697  
E27  23876223.533      -89616.439          37.703  
> 2019  9 12 10 40 33.0002386  0 19
G12  22296388.643     -283490.020          43.789  
G13  24173907.251       18997.825          25.283  
G15  21368780.107      100412.448          40.198  
G20  20535297.121     -133092.486          36.069  
G21  23387256.949      115608.306          33.457  
G24  20080451.995       30609.152          43.745  
G25  24688868.254     -343461.610          35.309  
J01  38085371.254      -85645.931          37.845  
E07  24052811.185       13995.328          36.743  
E27  23875832.316      -91664.488          39.283  
> 2019  9 12 10 40 34.0002386  0 19
G12  22295744.085     -286889.154          43.651  
G13  24174319.163       21145.108          25.838  
G15  21369016.645      101643.340          41.156  
G20  20534998.827     -134681.686          35.924  
G21  23387522.262      117029.443          33.947  
G24  20080523.646       31004.310          43.237  
G25  24688070.500     -347631.438          32.394  
J01  38085172.792      -86684.281          37.851  
E07  24052872.348       14316.581          37.098  
E27  23875441.972      -93712.703          39.619  
> 2019  9 12 10 40 35.0002386  0 19
G12  22295095.931     -290287.706          44.194  
G13  24174728.091       23293.042          26.598  
G15  21369251.979      102875.769          40.063  
G20  20534696.921     -136268.038          34.723  
G21  23387795.672      118451.658          33.497  
G24  20080604.894       31400.513          43.153  
G25  24687278.155     -351801.831          34.472  
J01  38084972.830      -87722.147          37.525  
E07  24052935.012       14638.489          37.055  
> 2019  9 12 10 40 36.0002386  0 19
G10  22508748.422      -13003.993          28.576  
G12  22294449.278     -293685.357          45.043  
G13  24175128.906       25442.251          27.770  
G15  21369484.311      104109.559          40.251  
G20  20534389.046     -137854.819          35.681  
G21  23388066.378      119875.802          32.245  
G24  20080675.934       31797.829          43.413  
G25  24686482.513     -355972.503          32.483  
J01  38084774.666      -88759.427          38.265  
E07  24052995.861       14961.115          35.344  
> 2019  9 12 10 40 37.0002386  0 19
G10  22508129.655      -16265.830          27.035  
G12  22293805.627     -297081.723          45.101  
G13  24175539.335       27591.596          26.299  
G15  21369721.756      105344.712          41.077  
G20  20534092.253     -139440.091          35.257  
G21  23388332.598      121299.458          33.063  
G24  20080751.197       32195.385          43.320  
G25  24685691.355     -360141.585          29.406  
J01  38084581.893      -89795.756          37.515  
E07  24053059.415       15285.559          36.465  
> 2019  9 12 10 40 38.0002386  0 19
G10  22507513.279      -19525.538          27.549  
G12  22293158.067     -300478.313          45.336  
G13  24175956.639       29738.320          24.045  
G15  21369953.198      106579.173          40.708  
G20  20533792.458     -141025.097          34.894  
G21  23388613.512      122721.815          32.336  
G24  20080828.536       32593.909          43.064  
G25  24684903.495     -364310.560          30.583  
J01  38084384.042      -90833.522          37.872  
E07  24053121.468       15607.363          37.288  
E21  27436480.824      -12536.938          33.745  
> 2019  9 12 10 40 39.0002386  0 19
G10  22506893.604      -22783.183          27.786  
G12  22292512.025     -303874.804          44.332  
G15  21370191.533      107813.121          40.311  
G20  20533482.176     -142610.274          35.725  
G21  23388877.621      124144.344          34.587  
G24  20080904.375       32992.986          43.058  
G25  24684104.554     -368480.068          31.862  
J01  38084182.876      -91870.746          36.711  
E07  24053182.038       15934.805          35.611  
E21  27435817.680      -16012.911          31.319  
E30  23298208.087       10444.600          38.380  
> 2019  9 12 10 40 40.0002386  0 19
G10  22506269.741      -26053.669          28.546  
G12  22291866.873     -307271.139          44.014  
G15  21370423.569      109047.796          38.943  
G20  20533187.773     -144194.783          35.849  
G21  23389151.624      125568.118          33.733  
G24  20080983.826       33391.996          43.197  
G25  24683308.004     -372648.723          31.781  
J01  38083986.509      -92908.375          37.001  
E07  24053246.185       16259.786          36.572  
E21  27435156.335      -19487.238          32.309  
E27  23873105.702      -11381.051          37.769  
E30  23298352.295       11204.203          38.192  
> 2019  9 12 10 40 41.0002386  0 19
G10  22505647.362      -29308.566          30.289  
G12  22291219.610     -310667.524          45.203  
G15  21370663.405      110282.284          42.356  
G20  20532885.588     -145780.055          34.306  
G21  23389422.940      126989.506          31.621  
G24  20081054.272       33791.593          41.166  
G25  24682516.253     -376819.476          31.791  
J01  38083789.252      -93946.046          34.685  
E07  24053304.939       16583.457          38.943  
E21  27434496.804      -22962.832          34.484  
E27  23872715.969      -13424.863          34.203  
E30  23298499.488       11963.336          35.740  
> 2019  9 12 10 40 42.0002386  0 19
G10  22505023.499      -32565.417          30.320  
G12  22290571.456     -314064.343          45.121  
G15  21370890.641      111516.273          40.498  
G20  20532579.790     -147365.450          34.286  
G21  23389690.661      128410.311          30.474  
G24  20081132.519       34190.590          41.633  
G25  24681723.908     -380990.298          30.838  
J01  38083591.977      -94985.022          35.374  
E07  24053365.806       16906.256          39.368  
E21  27433836.051      -26439.407          38.930  
E27  23872329.831      -15468.578          33.774  
E30  23298644.883       12722.286          36.147  
> 2019  9 12 10 40 43.0002386  0 19
G10  22504402.638      -35824.660          30.863  
G12  22289926.915     -317460.734          44.884  
G15  21371131.978      112749.473          42.210  
G20  20532283.294     -148950.014          33.948  
G21  23389961.367      129833.049          31.325  
G24  20081208.078       34589.796          42.416  
G25  24680933.344     -385160.479          27.672  
J01  38083395.016      -96025.072          35.543  
E07  24053427.265       17229.049          38.953  
E21  27433175.019      -29915.449          40.701  
E27  23871932.611      -17502.209          35.501  
E30  23298787.294       13481.990          37.413  
> 2019  9 12 10 40 44.0002386  0 19
G10  22503781.759      -39081.356          29.181  
G12  22289278.465     -320855.626          43.314  
G15  21371366.107      113984.399          41.951  
G20  20531980.515     -150532.110          34.256  
G21  23390230.885      131258.664          32.855  
G24  20081286.622       34989.665          43.018  
G25  24680137.701     -389329.174          30.267  
J01  38083196.852      -97067.835          35.745  
E07  24053489.615       17552.981          38.998  
E21  27432516.675      -33389.659          39.144  
E27  23871545.583      -19545.663          37.252  
E30  23298932.986       14242.880          34.809  
> 2019  9 12 10 40 45.0002386  0 19
G10  22503165.993      -42336.757          31.254  
G12  22288631.812     -324248.704          44.190  
G15  21371597.550      115221.182          41.860  
G20  20531683.722     -152113.369          32.917  
G21  23390507.890      132685.150          32.607  
G24  20081361.274       35392.450          41.467  
G25  24679336.649     -393497.744          33.943  
J01  38083000.188      -98104.220          34.107  
E07  24053552.575       17878.802          39.439  
E21  27431856.533      -36862.652          40.082  
E27  23871160.352      -21587.062          36.999  
E30  23299079.586       15003.838          35.342  
> 2019  9 12 10 40 46.0002386  0 19
G10  22502543.910      -45591.814          30.804  
G12  22287988.457     -327640.409          43.601  
G13  24179217.474       10400.330          30.148  
G15  21371835.588      116458.859          42.415  
G20  20531380.629     -153692.687          34.318  
G21  23390778.909      134112.465          32.304  
G24  20081442.505       35796.734          42.871  
G25  24678550.604     -397664.744          34.526  
J01  38082808.323      -99139.746          34.117  
E07  24053612.534       18204.963          39.220  
E21  27431193.076      -40333.679          39.065  
E27  23870774.213      -23626.701          36.948  
E30  23299222.590       15766.844          36.177  
> 2019  9 12 10 40 47.0002386  0 19
G10  22501920.344      -48846.401          29.418  
G12  22287343.602     -331032.218          43.482  
G13  24179626.699       12551.467          30.563  
G15  21372070.625      117696.632          43.240  
G20  20531079.333     -155271.181          33.202  
G21  23391047.817      135539.204          32.574  
G24  20081513.562       36201.275          42.085  
G25  24677756.444     -401833.092          35.583  
J01  38082608.361     -100175.697          35.245  
E07  24053674.587       18531.706          39.414  
E21  27430533.545      -43805.967          36.056  
E27  23870383.573      -25666.849          36.798  
E30  23299365.595       16531.633          36.955  
> 2019  9 12 10 40 48.0002386  0 19
G10  22501303.671      -52097.352          26.720  
G12  22286697.246     -334423.969          43.912  
G13  24180037.111       14702.877          32.138  
G15  21372303.271      118934.658          43.112  
G20  20530784.041     -156850.198          33.798  
G21  23391320.337      136964.341          32.691  
G24  20081592.699       36605.797          41.849  
G25  24676960.208     -406002.408          32.862  
J01  38082408.695     -101211.804          34.995  
E07  24053736.640       18858.509          39.776  
E21  27429872.496      -47278.825          35.244  
E27  23869996.248      -27707.022          36.503  
E30  23299515.178       17296.472          38.406  
> 2019  9 12 10 40 49.0002386  0 19
G10  22500695.391      -55358.500          25.433  
G12  22286052.687     -337815.761          43.632  
G13  24180446.022       16853.713          30.057  
G15  21372540.996      120172.437          39.953  
G20  20530481.855     -158429.061          34.706  
G21  23391593.433      138383.359          31.439  
G24  20081669.462       37010.682          43.232  
G25  24676169.050     -410172.182          31.531  
J01  38082211.438     -102247.423          38.664  
E07  24053799.897       19185.213          37.686  
E21  27429212.058      -50751.356          32.383  
E27  23869603.217      -29746.596          36.215  
E30  23299660.591       18061.609          39.823  
> 2019  9 12 10 40 50.0002386  0 19
G10  22500076.031      -58616.386          27.633  
G12  22285406.331     -341207.261          45.303  
G13  24180859.435       19005.141          29.470  
G15  21372777.830      121411.853          41.506  
G20  20530173.667     -160006.092          35.821  
G21  23391865.046      139812.269          33.445  
G24  20081745.004       37416.441          42.517  
G25  24675376.688     -414336.304          28.241  
J01  38082015.367     -103283.243          37.639  
E07  24053861.654       19512.023          38.070  
E21  27428551.305      -54223.955          29.996  
E27  23869223.378      -31785.679          35.728  
E30  23299806.579       18827.605          38.670  
> 2019  9 12 10 40 51.0002386  0 19
G10  22499452.465      -61866.601          29.052  
G12  22284761.179     -344598.604          45.360  
G13  24181271.661       21156.128          33.932  
G15  21373013.478      122652.300          43.631  
G20  20529879.265     -161583.173          35.100  
G21  23392132.470      141241.082          33.604  
G24  20081826.549       37822.424          41.354  
J01  38081811.217     -104319.305          35.918  
E07  24053922.817       19839.262          39.477  
E21  27427889.366      -57697.826          33.786  
E27  23868833.348      -33823.789          34.526  
E30  23299950.491       19593.691          37.529  
> 2019  9 12 10 40 52.0002386  0 19
G10  22498832.790      -65119.910          28.830  
G12  22284116.027     -347989.721          44.364  
G13  24181676.978       23305.486          29.781  
G15  21373251.516      123890.475          43.724  
G20  20529582.175     -163160.220          35.527  
G21  23392406.770      142669.026          33.811  
G24  20081902.684       38228.502          42.580  
J01  38081619.649     -105355.639          34.895  
E07  24053985.777       20166.465          39.385  
E21  27427227.130      -61170.825          35.169  
E27  23868443.021      -35861.983          35.168  
E30  23300096.776       20359.621          37.323  
> 2019  9 12 10 40 53.0002386  0 19
G10  22498215.820      -68372.876          26.587  
G12  22283471.486     -351380.702          44.176  
G13  24182094.282       25456.400          28.349  
G15  21373487.146      125129.248          41.382  
G20  20529278.174     -164735.967          35.814  
G21  23392678.383      144097.014          34.951  
G24  20081979.744       38634.419          43.580  
J01  38081426.283     -106392.005          37.338  
E07  24054049.627       20493.792          37.947  
E21  27426567.285      -64643.833          37.712  
E27  23868055.993      -37900.709          36.908  
E30  23300242.486       21125.826          39.213  
> 2019  9 12 10 40 54.0002386  0 19
G10  22497595.849      -71625.457          29.569  
G12  22282821.535     -354771.426          43.494  
G13  24182504.100       27606.898          28.884  
G15  21373718.885      126368.435          42.220  
G20  20528975.396     -166311.897          34.631  
G21  23392952.997      145526.006          34.770  
G24  20082057.677       39040.483          42.638  
J01  38081227.211     -107427.945          36.531  
E07  24054110.790       20821.465          38.401  
E21  27425907.143      -68117.105          38.139  
E27  23867668.057      -39938.828          37.182  
E30  23300388.788       21892.800          38.800  
> 2019  9 12 10 40 55.0002386  0 19
G10  22496977.064      -74882.550          30.795  
G12  22282180.868     -358161.736          44.227  
G13  24182916.624       29762.536          26.636  
G15  21373950.328      127607.115          41.955  
G20  20528677.695     -167887.808          34.007  
G21  23393222.219      146954.772          32.670  
G24  20082132.032       39448.116          41.239  
J01  38081029.954     -108464.619          34.801  
E07  24054174.047       21149.107          38.347  
E21  27425246.408      -71590.418          40.257  
E27  23867278.638      -41977.697          35.681  
E30  23300533.573       22659.349          36.296  
> 2019  9 12 10 40 56.0002386  0 19
G10  22496355.906      -78140.695          30.170  
G12  22281534.512     -361551.951          44.222  
G13  24183321.643       31916.606          26.317  
G15  21374197.353      128846.275          42.961  
G20  20528380.902     -169464.046          34.897  
G21  23393495.332      148383.280          33.844  
G24  20082213.281       39856.281          42.761  
J01  38080832.993     -109500.681          35.477  
E07  24054234.896       21476.340          38.870  
E21  27424584.766      -75064.634          39.463  
E27  23866894.000      -44016.757          36.218  
E30  23300680.486       23427.862          37.531  
> 2019  9 12 10 40 57.0002386  0 19
G10  22495737.435      -81398.830          29.885  
G12  22280891.471     -364941.888          44.865  
G13  24183733.259       34066.521          25.574  
G15  21374429.999      130085.434          41.650  
G20  20528078.419     -171038.781          34.873  
G21  23393766.334      149813.393          32.973  
G24  20082290.323       40264.177          43.312  
J01  38080636.922     -110540.353          36.949  
E07  24054298.468       21803.368          38.156  
E21  27423923.123      -78537.866          37.327  
E27  23866507.269      -46053.296          36.258  
E30  23300827.975       24195.227          37.694  
> 2019  9 12 10 40 58.0002386  0 19
G10  22495118.651      -84652.325          30.988  
G12  22280244.819     -368331.447          44.179  
G15  21374666.537      131324.523          42.677  
G20  20527784.907     -172614.261          33.865  
G21  23394039.744      151242.183          32.158  
G24  20082360.473       40672.708          41.836  
J01  38080440.572     -111577.529          33.915  
E07  24054359.020       22130.805          39.493  
E21  27423261.481      -82010.338          37.560  
E27  23866115.145      -48090.172          37.604  
E30  23300970.072       24962.636          34.752  
> 2019  9 12 10 40 59.0002386  0 19
G10  22494497.789      -87908.928          29.701  
G12  22279601.761     -371721.057          44.264  
G15  21374901.574      132563.991          41.524  
G20  20527486.020     -174188.988          32.859  
G21  23394311.357      152671.161          33.205  
G24  20082444.409       41081.871          41.278  
J01  38080239.110     -112614.805          32.620  
E07  24054421.666       22458.578          39.951  
E21  27422598.634      -85482.413          32.976  
E27  23865732.305      -50127.016          37.744  
E30  23301118.783       25731.572          36.220  
> 2019  9 12 10 41  0.0002386  0 19
G10  22493878.411      -91165.942          30.872  
G12  22278957.795     -375109.796          43.472  
G15  21375126.717      133803.661          41.113  
G20  20527181.740     -175755.267          31.919  
G21  23394577.577      154101.088          33.017  
G24  20082521.766       41491.743          41.359  
J01  38080040.648     -113650.324          34.988  
E07  24054484.626       22785.986          40.371  
E21  27421938.196      -88954.998          33.950  
E27  23865340.181      -52162.567          38.505  
E30  23301268.977       26500.593          37.073  
> 2019  9 12 10 41  1.0002386  0 19
G10  22493260.848      -94420.686          30.463  
G12  22278309.956     -378498.672          42.519  
G15  21375374.335      135042.611          43.289  
G20  20526884.929     -177323.049          33.097  
G21  23394853.989      155530.219          30.865  
G24  20082599.716       41901.540          40.919  
J01  38079844.874     -114687.147          32.197  
E07  24054545.493       23113.666          40.282  
E21  27421278.351      -92427.786          35.990  
E27  23864955.840      -54198.619          37.903  
E30  23301411.074       27269.695          37.015  
> 2019  9 12 10 41  2.0002386  0 19
G10  22492650.160      -97675.136          30.002  
G12  22277665.694     -381888.199          43.495  
G13  24185773.940       10402.663          27.264  
G15  21375607.278      136281.244          41.521  
G20  20526589.043     -178895.238          33.981  
G21  23395130.086      156961.031          32.885  
G24  20082673.460       42310.588          41.827  
J01  38079647.617     -115725.458          34.457  
E07  24054608.453       23440.423          39.983  
E21  27420618.803      -95901.809          37.020  
E27  23864567.311      -56235.318          36.826  
E30  23301559.174       28038.023          36.485  
> 2019  9 12 10 41  3.0002386  0 19
G10  22492023.593     -100931.091          29.765  
G12  22277020.839     -385277.637          44.457  
G13  24186183.461       12546.172          26.985  
G15  21375843.519      137520.281          41.302  
G20  20526280.558     -180467.130          34.528  
G21  23395399.308      158391.760          31.350  
G24  20082756.803       42720.333          42.276  
J01  38079452.751     -116762.799          35.579  
J02  37237389.387       10057.082          40.216  
E07  24054672.600       23767.545          38.549  
E21  27419958.364      -99375.775          36.148  
E27  23864178.485      -58271.620          36.058  
E30  23301702.475       28807.241          36.260  
> 2019  9 12 10 41  4.0002386  0 19
G10  22491400.027     -104181.884          28.661  
G12  22276377.484     -388665.196          44.677  
G13  24186586.980       14696.690          28.874  
G15  21376077.352      138761.058          41.456  
G20  20525986.452     -182037.456          36.132  
G21  23395670.624      159819.046          32.090  
G24  20082833.845       43131.904          43.263  
G25  24664266.396      -11654.093          32.103  
J01  38079252.195     -117798.995          37.154  
J02  37237404.691       10154.068          39.351  
E07  24054734.950       24096.324          38.341  
E21  27419297.018     -102848.339          34.558  
E27  23863799.833      -60305.521          36.355  
E30  23301858.358       29577.345          35.841  
> 2019  9 12 10 41  5.0002386  0 19
G10  22490784.558     -107430.142          28.797  
G12  22275729.645     -392050.995          45.864  
G13  24186996.188       16849.020          30.557  
G15  21376314.797      140003.633          42.986  
G20  20525689.066     -183604.857          35.564  
G21  23395942.533      161248.445          31.006  
G24  20082913.889       43545.816          43.121  
G25  24663474.942      -15823.023          35.772  
J01  38079057.014     -118833.869          37.016  
J02  37237428.668       10252.874          40.141  
E07  24054798.521       24426.951          39.081  
E21  27418637.784     -106319.484          36.956  
E27  23863403.817      -62338.407          36.249  
E30  23301998.972       30350.230          36.173  
> 2019  9 12 10 41  6.0002386  0 19
G10  22490174.480     -110684.200          26.455  
G12  22275089.588     -395435.906          45.691  
G13  24187402.411       19002.398          28.429  
G15  21376549.520      141247.396          40.312  
G20  20525385.083     -185171.667          35.727  
G21  23396219.835      162681.559          33.649  
G24  20082993.044       43960.230          43.735  
G25  24662682.283      -19991.959          33.019  
J01  38078857.663     -119868.618          37.578  
J02  37237444.251       10352.041          40.812  
E07  24054859.963       24758.738          37.837  
E21  27417975.827     -109789.929          37.345  
E27  23863019.476      -64371.192          36.837  
E30  23302146.165       31123.933          36.276  
> 2019  9 12 10 41  7.0002386  0 19
G10  22489558.715     -113941.310          27.437  
G12  22274443.825     -398820.234          44.357  
G13  24187810.432       21155.343          28.673  
G15  21376787.558      142490.894          40.182  
G20  20525094.572     -186738.195          35.721  
G21  23396490.243      164115.412          32.516  
G24  20083071.290       44374.655          44.226  
G25  24661886.344      -24160.669          30.992  
J01  38078663.093     -120903.382          37.935  
J02  37237463.149       10451.524          41.177  
E07  24054922.627       25090.484          36.238  
E21  27417316.296     -113259.462          36.503  
E27  23862635.746      -66402.344          39.079  
E30  23302292.764       31897.754          36.285  
> 2019  9 12 10 41  8.0002386  0 19
G10  22488936.335     -117193.001          28.413  
G12  22273800.471     -402204.703          44.263  
G13  24188222.048       23308.843          27.188  
G15  21377030.989      143735.713          40.313  
G20  20524794.184     -188303.651          35.040  
G21  23396762.170      165549.433          32.950  
G24  20083152.835       44789.833          44.781  
G25  24661090.980      -28329.678          36.743  
J01  38078467.337     -121938.138          37.241  
J02  37237482.327       10550.734          41.539  
E07  24054985.291       25420.854          35.383  
E21  27416656.748     -116729.810          35.859  
E27  23862246.013      -68433.195          38.839  
E30  23302440.567       32672.012          36.274  
> 2019  9 12 10 41  9.0002386  0 19
G10  22488317.271     -120444.700          28.295  
G12  22273157.413     -405589.184          43.646  
G13  24188644.152       25462.584          25.821  
G15  21377263.025      144983.906          40.332  
G20  20524494.092     -189868.703          35.661  
G21  23397034.969      166983.337          32.937  
G24  20083229.581       45205.504          43.506  
G25  24660294.430      -32499.224          34.343  
J01  38078269.469     -122973.171          37.500  
J02  37237502.116       10649.764          41.123  
E07  24055050.938       25752.006          36.551  
E21  27415996.606     -120200.631          35.699  
E27  23861859.874      -70464.125          39.154  
E30  23302587.167       33446.443          38.563  
> 2019  9 12 10 41 10.0002386  0 19
G10  22487697.300     -123695.910          28.085  
G12  22272511.667     -408973.717          43.784  
G13  24189047.374       27615.300          27.825  
G15  21377497.468      146227.131          38.979  
G20  20524201.191     -191433.273          35.084  
G21  23397309.583      168415.040          32.621  
G24  20083308.125       45621.645          43.850  
G25  24659502.382      -36669.432          30.667  
J01  38078071.601     -124008.530          38.365  
J02  37237522.201       10748.574          41.719  
E07  24055113.899       26083.206          35.287  
E21  27415335.557     -123672.298          35.160  
E27  23861470.752      -72494.962          39.632  
E30  23302735.249       34221.517          39.696  
> 2019  9 12 10 41 11.0002386  0 19
G10  22487080.330     -126943.054          28.221  
G12  22271866.812     -412357.925          44.529  
G13  24189452.393       29767.932          27.920  
G15  21377736.397      147470.933          41.222  
G20  20523897.208     -192997.635          35.310  
G21  23397583.587      169843.933          33.169  
G24  20083387.558       46037.894          43.332  
G25  24658713.039      -40838.655          28.832  
J01  38077874.937     -125043.989          37.367  
J02  37237539.895       10847.366          41.337  
E07  24055176.545       26414.002          36.013  
E21  27414676.323     -127143.360          37.426  
E27  23861084.317      -74526.670          35.741  
E30  23302881.848       34996.900          36.642  
> 2019  9 12 10 41 12.0002386  0 19
G10  22486462.156     -130194.100          28.501  
G12  22271223.457     -415741.972          45.146  
G13  24189867.604       31919.810          27.576  
G15  21377968.450      148714.767          42.331  
G20  20523603.713     -194561.883          37.117  
G21  23397852.215      171278.265          31.583  
G24  20083466.712       46454.892          42.911  
G25  24657922.178      -45009.028          32.191  
J01  38077678.884     -126079.799          35.557  
J02  37237559.370       10946.046          37.835  
E07  24055241.303       26745.418          40.251  
E21  27414013.773     -130615.695          34.869  
E27  23860704.775      -76556.186          36.725  
E30  23303029.058       35772.333          35.394  
> 2019  9 12 10 41 13.0002386  0 19
G10  22485847.280     -133447.308          28.238  
G12  22270579.806     -419125.589          43.738  
G13  24190271.123       34073.470          27.010  
G15  21378208.285      149957.752          42.492  
G20  20523306.012     -196125.470          37.158  
G21  23398128.313      172712.140          31.289  
G24  20083547.961       46871.428          43.170  
G25  24657127.425      -49179.482          35.692  
J01  38077481.609     -127116.111          36.920  
J02  37237579.158       11044.642          39.032  
E07  24055303.059       27076.523          39.423  
E21  27413351.241     -134086.945          34.070  
E27  23860315.949      -78585.328          36.310  
E30  23303178.048       36547.756          37.708  
> 2019  9 12 10 41 14.0002386  0 19
G10  22485227.309     -136697.245          29.574  
G12  22269934.358     -422509.044          44.290  
G13  24190680.941       36224.296          28.595  
G15  21378440.914      151202.353          40.979  
G20  20523005.624     -197688.185          35.637  
G21  23398402.019      174146.738          35.303  
G24  20083624.707       47288.212          42.708  
G25  24656333.580      -53349.342          31.512  
J01  38077286.149     -128152.274          36.990  
J02  37237597.150       11143.403          38.836  
E07  24055366.316       27407.712          38.539  
E21  27412691.099     -137557.584          34.589  
E27  23859926.827      -80614.483          36.197  
E30  23303325.241       37323.393          38.139  
> 2019  9 12 10 41 15.0002386  0 19
G10  22484603.132     -139944.135          30.762  
G12  22269293.690     -425892.236          42.839  
G13  24191097.949       38372.192          26.844  
G15  21378681.657      152446.490          41.237  
G20  20522711.535     -199251.652          34.342  
G21  23398680.839      175578.398          33.735  
G24  20083705.047       47706.045          42.654  
G25  24655540.624      -57519.840          28.857  
J01  38077089.485     -129189.974          34.600  
J02  37237615.141       11242.216          39.644  
E07  24055429.277       27739.363          38.784  
E21  27412032.144     -141028.917          38.049  
E27  23859541.281      -82643.530          37.214  
E30  23303473.044       38100.033          37.906  
> 2019  9 12 10 41 16.0002386  0 19
G10  22483990.053     -143192.677          28.281  
G12  22268649.446     -429275.253          44.792  
G13  24191506.581       40525.052          26.905  
G15  21378918.195      153691.339          38.896  
G20  20522413.241     -200813.675          34.760  
G21  23398951.841      177014.659          31.400  
G24  20083783.591       48124.092          43.424  
G25  24654744.388      -61690.886          32.000  
J01  38076890.727     -130227.302          36.591  
J02  37237632.521       11340.835          40.596  
E07  24055491.330       28070.882          38.183  
E21  27411371.112     -144500.364          36.614  
E27  23859156.661      -84672.443          37.503  
E30  23303619.940       38876.908          38.646  
> 2019  9 12 10 41 17.0002386  0 19
G10  22483375.492     -146444.007          27.330  
G12  22268004.294     -432658.101          45.306  
G13  24191909.192       42674.923          25.457  
G15  21379158.328      154935.493          39.150  
G20  20522114.336     -202375.268          34.773  
G21  23399224.361      178448.332          31.125  
G24  20083864.228       48542.465          43.940  
G25  24653951.433      -65861.910          33.662  
J01  38076691.952     -131263.398          37.540  
J02  37237652.606       11439.325          41.961  
E07  24055554.290       28402.642          36.645  
E21  27410711.564     -147970.835          34.442  
E27  23858766.928      -86701.689          37.066  
E30  23303767.150       39653.910          38.409  
> 2019  9 12 10 41 18.0002386  0 19
G10  22482760.319     -149689.893          27.658  
G12  22267363.330     -436040.810          45.154  
G13  24192326.496       44823.598          23.888  
G15  21379394.865      156180.296          39.814  
G20  20521823.546     -203936.950          35.679  
G21  23399498.661      179887.870          30.238  
G24  20083945.477       48960.993          43.463  
G25  24653154.272      -70033.468          34.234  
J01  38076496.195     -132300.352          36.800  
J02  37237671.505       11537.674          41.966  
E07  24055617.547       28733.751          37.008  
E21  27410049.624     -151442.534          35.979  
E27  23858381.994      -88731.197          36.065  
E30  23303918.845       40431.270          38.621  
> 2019  9 12 10 41 19.0002386  0 19
G10  22482137.643     -152938.439          28.896  
G12  22266716.084     -439423.425          44.971  
G15  21379628.698      157425.592          40.440  
G20  20521522.547     -205498.181          37.009  
G21  23399763.991      181322.752          32.153  
G24  20084023.130       49380.032          42.790  
G25  24652360.723      -74205.806          31.602  
J01  38076297.140     -133337.822          35.440  
J02  37237688.292       11635.800          40.925  
E07  24055682.305       29065.726          37.835  
E21  27409388.279     -154914.514          39.407  
E27  23858003.045      -90760.830          35.162  
E30  23304065.130       41209.035          37.630  
> 2019  9 12 10 41 20.0002386  0 19
G10  22481519.766     -156184.286          29.499  
G12  22266072.729     -442805.561          45.763  
G15  21379864.329      158670.648          41.230  
G20  20521221.252     -207058.140          35.496  
G21  23400041.590      182758.585          34.278  
G24  20084104.972       49800.122          42.412  
G25  24651568.379      -78377.550          31.135  
J01  38076104.368     -134373.824          37.546  
J02  37237706.283       11734.018          40.898  
E07  24055744.358       29398.216          37.900  
E21  27408728.730     -158386.145          40.156  
E27  23857610.921      -92788.241          35.954  
E30  23304215.028       41987.705          38.229  
> 2019  9 12 10 41 21.0002386  0 19
G10  22480905.797     -159432.984          27.218  
G12  22265432.358     -446187.650          47.092  
G15  21380101.163      159915.615          40.793  
G20  20520925.662     -208617.823          34.778  
G21  23400316.500      184193.404          33.915  
G24  20084185.016       50219.913          42.257  
G25  24650774.830      -82549.016          32.443  
J01  38075901.404     -135410.491          35.613  
J02  37237725.758       11832.358          42.526  
E07  24055808.208       29730.126          36.872  
E21  27408067.088     -161857.910          38.956  
E27  23857226.283      -94815.836          37.693  
E30  23304361.330       42766.081          39.547  
> 2019  9 12 10 41 22.0002386  0 19
G10  22480281.935     -162680.228          26.907  
G12  22264786.020     -449570.184          44.907  
G15  21380341.906      161159.424          41.059  
G20  20520633.668     -210178.083          34.649  
G21  23400588.410      185628.179          31.175  
G24  20084261.762       50639.088          42.374  
G25  24649977.983      -86720.905          29.828  
J01  38075705.944     -136448.345          36.789  
J02  37237744.046       11929.789          41.694  
E07  24055870.575       30060.744          36.541  
E21  27407407.243     -165330.597          37.286  
E27  23856838.365      -96843.944          37.106  
E30  23304506.725       43543.661          37.788  
> 2019  9 12 10 41 23.0002386  0 19
G10  22479668.245     -165928.036          26.204  
G12  22264141.164     -452952.341          45.044  
G15  21380575.146      162404.072          38.972  
G20  20520334.170     -211737.679          32.734  
G21  23400866.025      187066.791          30.614  
G24  20084343.307       51058.914          43.359  
G25  24649184.435      -90893.959          36.180  
J01  38075510.485     -137485.966          38.279  
J02  37237764.445       12027.414          41.381  
E07  24055931.721       30392.778          36.535  
E21  27406746.508     -168803.082          37.144  
E27  23856451.633      -98871.958          38.004  
E30  23304659.328       44321.984          37.962  
> 2019  9 12 10 41 24.0002386  0 19
G10  22479052.479     -169174.320          26.394  
G12  22263499.607     -456332.665          44.793  
G13  24194781.498       10409.017          30.345  
G15  21380814.371      163650.045          40.271  
G20  20520042.175     -213295.169          32.394  
G21  23401134.340      188503.272          30.970  
G24  20084424.241       51480.620          43.539  
G25  24648385.773      -95065.848          36.267  
J01  38075311.709     -138522.249          38.126  
J02  37237783.326       12126.451          41.340  
E07  24055993.791       30725.262          36.597  
E21  27406084.569     -172274.073          36.608  
E27  23856070.294     -100897.931          39.093  
E30  23304805.019       45102.078          37.698  
> 2019  9 12 10 41 25.0002386  0 19
G10  22478430.414     -172420.071          26.004  
G12  22262858.940     -459711.103          44.565  
G13  24195194.614       12562.851          29.900  
G15  21381050.018      164896.926          40.982  
G20  20519742.084     -214850.710          31.445  
G21  23401409.547      189942.372          32.086  
G24  20084501.301       51904.444          43.044  
G25  24647599.135      -99236.001          35.784  
J01  38075113.859     -139556.660          37.031  
J02  37237802.207       12227.526          40.912  
E07  24056057.345       31059.937          36.529  
E21  27405424.130     -175742.616          36.779  
E27  23855683.562     -102921.377          38.427  
E30  23304953.416       45884.092          38.018  
> 2019  9 12 10 41 26.0002386  0 19
G10  22477808.942     -175661.064          31.976  
G12  22262211.101     -463088.945          44.022  
G13  24195599.337       14716.615          31.305  
G15  21381288.354      166144.627          39.075  
G20  20519444.994     -216405.208          33.926  
G21  23401676.361      191382.384          32.842  
G24  20084586.126       52329.185          43.200  
G25  24646805.272     -103405.196          34.961  
J01  38074917.491     -140590.735          38.892  
J02  37237823.793       12328.927          41.421  
E07  24056120.898       31394.706          35.457  
E21  27404764.582     -179210.742          33.157  
E27  23855297.423     -104944.277          40.918  
E30  23305105.407       46666.453          39.093  
> 2019  9 12 10 41 27.0002386  0 19
G10  22477194.974     -178902.040          30.694  
G12  22261570.137     -466466.212          43.458  
G13  24196005.264       16870.916          27.280  
G15  21381525.485      167392.736          42.118  
G20  20519150.295     -217958.588          35.304  
G21  23401951.272      192822.800          31.793  
G24  20084664.984       52754.449          43.392  
G25  24646011.427     -107574.607          35.251  
J01  38074719.623     -141624.791          38.297  
J02  37237839.690       12430.493          40.971  
E07  24056183.859       31728.621          37.260  
E21  27404106.534     -182678.910          34.184  
E27  23854915.787     -106966.745          39.537  
E30  23305252.618       47449.337          39.264  
> 2019  9 12 10 41 28.0002386  0 19
G10  22476579.784     -182146.452          30.333  
G12  22260931.284     -469843.350          44.399  
G15  21381758.113      168640.590          40.688  
G20  20518854.391     -219512.551          36.046  
G21  23402236.670      194264.171          34.245  
G24  20084745.918       53179.500          43.699  
G25  24645218.471     -111743.908          38.719  
J01  38074525.367     -142659.433          38.853  
J02  37237859.775       12531.702          40.756  
E07  24056248.303       32063.813          37.757  
E21  27403446.986     -186147.600          34.765  
E27  23854527.258     -108989.423          39.319  
E30  23305402.218       48232.571          38.403  
> 2019  9 12 10 41 29.0002386  0 19
G10  22475961.627     -185394.406          30.884  
G12  22260285.225     -473220.319          43.333  
G15  21382001.544      169889.552          39.571  
G20  20518559.099     -221065.423          35.734  
G21  23402499.592      195705.348          31.916  
G24  20084827.463       53605.372          43.836  
G25  24644424.033     -115913.937          38.598  
J01  38074325.091     -143694.173          39.261  
J02  37237881.047       12633.210          41.138  
E07  24056313.671       32399.111          37.388  
E21  27402786.251     -189616.855          35.026  
E27  23854144.418     -111011.379          38.101  
E30  23305550.301       49016.333          38.217  
> 2019  9 12 10 41 30.0002386  0 19
G10  22475341.342     -188638.367          32.022  
G12  22259644.575     -476597.035          44.222  
G15  21382239.286      171139.092          40.092  
G20  20518262.899     -222618.454          34.857  
G21  23402773.596      197149.923          31.037  
G24  20084907.210       54031.665          43.351  
G25  24643633.765     -120084.080          35.186  
J01  38074128.427     -144728.701          38.230  
J02  37237899.038       12734.505          41.159  
E07  24056379.022       32736.241          35.712  
E21  27402128.499     -193085.498          36.825  
E27  23853760.094     -113032.880          39.133  
E30  23305699.605       49800.422          39.451  
> 2019  9 12 10 41 31.0002386  0 19
