     3.03           OBSERVATION DATA    M                   RINEX VERSION / TYPE
G = GPS  R = GLONASS  E = GALILEO  J = QZSS  C = BDS        COMMENT             
S = SBAS payload  M = Mixed                                 COMMENT             
GRitz Logger        MI 8                1568112352711       UTC PGM / RUN BY / DATE
                                                            MARKER NAME         
                                                            MARKER NUMBER       
                                                            OBSERVER / AGENCY   
                                                            REC # / TYPE / VERS 
                                                            ANT # / TYPE        
        0.0000        0.0000        0.0000                  APPROX POSITION XYZ
        0.0000        0.0000        0.0000                  ANTENNA: DELTA H/E/N
     0                                                      RCV CLOCK OFFS APPL 
G    6 C1C L1C S1C C5X L5X S5X                              SYS / # / OBS TYPES 
  2019     9    10    10    46   11.0003315     GPS         TIME OF FIRST OBS   
 24 R01  1 R02 -4 R03  5 R04  6 R05  1 R06 -4 R07  5 R08  6 GLONASS SLOT / FRQ #
    R09 -2 R10 -7 R11  0 R12 -1 R13 -2 R14 -7 R15  0 R16 -1 GLONASS SLOT / FRQ #
    R17  4 R18 -3 R19  3 R20  2 R21  4 R22 -3 R23  3 R24  2 GLONASS SLOT / FRQ #
                                                            END OF HEADER       
> 2019  9 10 10 46 11.0003315  0  9
G10  22597714.833     -143968.365          27.834  
G12  22391060.393     -165038.111          42.488  
G13  24102881.924       92639.030          35.357  
G15  21319713.672       51134.778          41.506  
G20  20577340.602      -79197.541          32.960  
G21  23338070.291       63159.206          32.672  
G24  20062524.401       14016.618          40.770  
G32  25135747.286     -135892.182          31.333  
> 2019  9 10 10 46 12.0003315  0  9
G10  22597091.563     -147276.275          29.231  
G12  22390402.346     -168492.390          40.441  
G13  24103282.747       94776.460          33.595  
G15  21319942.410       52321.851          39.045  
G20  20577022.223      -80883.007          32.610  
G21  23338335.604       64528.700          31.521  
G24  20062581.062       14334.345          41.807  
G32  25135186.977     -138806.577          34.959  
> 2019  9 10 10 46 13.0003315  0  9
G10  22596455.101     -150584.034          30.835  
G12  22389746.104     -171947.510          40.200  
G13  24103698.856       96912.580          32.542  
G15  21320167.858       53509.647          37.069  
G20  20576698.452      -82567.729          32.453  
G21  23338597.628       65899.423          32.650  
G24  20062642.225       14652.104          42.926  
G32  25134636.553     -141721.777          39.057  
> 2019  9 10 10 46 14.0003315  0  9
G10  22595825.236     -153891.021          34.609  
G12  22389089.557     -175401.768          41.209  
G13  24104111.074       99047.993          28.902  
G15  21320394.196       54697.535          40.318  
G20  20576383.065      -84251.183          36.042  
G21  23338853.945       67270.518          31.539  
G24  20062706.974       14970.791          42.895  
G32  25134071.445     -144636.185          38.322  
> 2019  9 10 10 46 15.0003315  0  9
G10  22595191.775     -157197.688          34.330  
G12  22388432.111     -178855.878          41.158  
G13  24104515.491      101183.001          29.542  
G15  21320621.145       55885.857          40.870  
G20  20576059.294      -85934.276          35.746  
G21  23339114.468       68641.395          34.138  
G24  20062762.439       15289.911          42.623  
G32  25133519.530     -147550.895          39.431  
> 2019  9 10 10 46 16.0003315  0  9
G10  22594566.709     -160508.562          34.153  
G12  22387775.564     -182308.662          40.854  
G13  24104910.320      103319.684          32.280  
G15  21320843.888       57074.955          38.874  
G20  20575739.117      -87616.291          35.854  
G21  23339378.290       70013.103          34.445  
G24  20062825.400       15609.929          42.651  
G32  25132959.814     -150465.282          38.664  
> 2019  9 10 10 46 17.0003315  0  9
G10  22593934.749     -163819.173          35.052  
G12  22387119.916     -185762.212          39.393  
G13  24105322.834      105456.397          32.006  
G15  21321068.429       58263.758          39.188  
G20  20575418.339      -89297.546          35.528  
G21  23339645.697       71385.129          32.347  
G24  20062885.053       15930.670          43.058  
G32  25132403.100     -153379.667          37.815  
> 2019  9 10 10 46 18.0003315  0  9
G10  22593304.281     -167125.770          34.436  
G12  22386461.275     -189215.817          43.077  
G13  24105727.549      107592.043          31.994  
G15  21321299.269       59451.612          41.470  
G20  20575099.052      -90979.134          36.141  
G21  23339897.826       72756.366          34.202  
G24  20062944.715       16250.924          42.152  
G32  25131859.874     -156294.408          34.519  
> 2019  9 10 10 46 19.0003315  0  9
G10  22592682.216     -170432.816          33.699  
G12  22385804.135     -192669.117          41.183  
G13  24106124.480      109727.095          32.638  
G15  21321525.014       60639.912          40.894  
G20  20574779.774      -92660.929          35.834  
G21  23340162.546       74125.341          32.821  
G24  20063010.668       16571.220          43.336  
G32  25131311.554     -159210.077          33.061  
> 2019  9 10 10 46 20.0003315  0  9
G10  22592042.753     -173738.085          33.771  
G12  22385144.586     -196121.958          42.613  
G13  24106538.495      111863.958          31.366  
G15  21321753.454       61828.352          39.772  
G20  20574458.699      -94341.264          35.309  
G21  23340423.959       75497.657          31.646  
G24  20063067.626       16892.890          42.609  
G32  25130756.942     -162131.093          31.113  
> 2019  9 10 10 46 21.0003315  0  9
G10  22591420.984     -177041.791          34.195  
G12  22384487.446     -199572.479          40.166  
G13  24106942.913      114003.001          31.450  
G15  21321975.604       63019.709          39.605  
G20  20574137.920      -96018.955          34.244  
G21  23340688.975       76872.802          30.536  
G24  20063130.586       17216.794          42.264  
G32  25130207.121     -165044.070          32.243  
> 2019  9 10 10 46 22.0003315  0  9
G10  22590793.518     -180343.598          33.825  
G12  22383832.697     -203021.209          37.875  
G13  24107350.925      116141.819          29.952  
G15  21322203.147       64212.673          39.195  
G20  20573823.136      -97694.907          34.799  
G21  23340949.202       78248.995          29.128  
G24  20063189.647       17542.081          41.775  
G32  25129658.198     -167956.569          30.201  
> 2019  9 10 10 46 23.0003315  0  9
G10  22590163.059     -183645.384          31.961  
G12  22383175.547     -206470.801          39.803  
G13  24107764.643      118281.645          29.254  
G15  21322428.595       65405.637          40.666  
G20  20573503.561      -99374.122          35.294  
G21  23341209.419       79624.816          30.289  
G24  20063254.396       17868.799          42.030  
G32  25129100.288     -170869.089          30.957  
> 2019  9 10 10 46 24.0003315  0  9
G10  22589534.389     -186946.371          32.296  
G12  22382521.103     -209919.861          42.313  
G13  24108164.567      120421.055          28.889  
G15  21322659.129       66595.504          41.126  
G20  20573184.580     -101049.541          35.476  
G21  23341473.232       80999.142          30.858  
G24  20063317.059       18199.948          41.902  
G32  25128547.169     -173781.141          29.112  
> 2019  9 10 10 46 25.0003315  0  9
G10  22588908.729     -190250.810          30.419  
G12  22381863.361     -213368.391          43.993  
G13  24108573.478      122560.150          30.242  
G15  21322884.578       67787.044          42.396  
G20  20572865.005     -102723.899          36.733  
G21  23341733.755       82374.375          30.819  
G24  20063381.215       18527.276          41.961  
G32  25127978.466     -176693.289          30.278  
> 2019  9 10 10 46 26.0003315  0  9
G10  22588285.154     -193552.197          30.860  
G12  22381207.416     -216815.791          44.746  
G13  24108975.209      124702.544          29.894  
G15  21323112.416       68979.976          42.336  
G20  20572546.923     -104398.249          35.187  
G21  23341994.871       83752.814          31.085  
G24  20063442.971       18853.892          41.666  
G32  25127426.847     -179604.790          33.086  
> 2019  9 10 10 46 27.0003315  0  9
G10  22587651.397     -196852.712          30.389  
G12  22380551.471     -220256.237          38.420  
G13  24109388.020      126849.839          29.000  
G15  21323343.859       70173.017          41.437  
G20  20572229.146     -106071.660          33.066  
G21  23342257.488       85130.269          31.892  
G24  20063503.524       19181.700          42.307  
G32  25126874.923     -182516.614          33.453  
> 2019  9 10 10 46 28.0003315  0  9
G10  22587025.431     -200155.825          29.364  
G12  22379896.721     -223700.230          39.642  
G13  24109794.837      128989.494          29.136  
G15  21323564.804       71366.613          43.845  
G20  20571909.562     -107745.114          33.371  
G21  23342518.613       86512.848          34.514  
G24  20063567.985       19509.541          41.321  
G32  25126317.615     -185428.560          32.247  
> 2019  9 10 10 46 29.0003315  0  9
G10  22586395.566     -203459.381          27.994  
G12  22379239.276     -227147.078          40.666  
G13  24110204.952      131129.020          30.212  
G15  21323792.949       72560.616          42.480  
G20  20571593.879     -109416.337          33.587  
G21  23342784.825       87885.085          32.307  
G24  20063626.443       19834.005          41.099  
G32  25125762.096     -188342.249          31.263  
> 2019  9 10 10 46 30.0003315  0  9
G10  22585771.101     -206756.699          25.967  
G12  22378580.033     -230593.897          42.867  
G13  24110609.072      133268.800          31.314  
G15  21324019.592       73754.827          42.071  
G20  20571273.406     -111088.014          34.728  
G21  23343046.247       89262.796          30.748  
G24  20063688.199       20163.527          40.888  
G32  25125212.877     -191256.469          31.274  
> 2019  9 10 10 46 31.0003315  0  9
G10  22585148.730     -210064.160          25.686  
G12  22377926.784     -234040.247          44.516  
G13  24111013.490      135410.271          28.415  
G15  21324248.033       74949.343          42.329  
G20  20570957.426     -112758.839          36.296  
G21  23343309.466       90641.563          30.520  
G24  20063752.058       20493.453          39.831  
G32  25124654.662     -194174.778          31.942  
> 2019  9 10 10 46 32.0003315  0  9
G10  22584513.464     -213364.062          27.757  
G12  22377272.636     -237486.306          44.151  
G13  24111429.905      137552.402          27.709  
G15  21324476.474       76143.922          43.321  
G20  20570640.242     -114428.935          35.410  
G21  23343565.190       92022.088          34.009  
G24  20063816.214       20824.041          40.141  
G32  25124101.246     -197086.767          30.212  
> 2019  9 10 10 46 33.0003315  0  9
G10  22583885.701     -216664.698          29.104  
G12  22376613.393     -240931.449          44.847  
G13  24111837.324      139690.905          26.760  
G15  21324701.320       77338.863          43.432  
G20  20570321.566     -116098.692          36.314  
G21  23343829.604       93400.806          35.214  
G24  20063878.564       21154.677          41.978  
G32  25123543.929     -200000.838          30.749  
> 2019  9 10 10 46 34.0003315  0  9
G10  22583257.938     -219962.774          28.551  
G12  22375962.840     -244376.598          45.727  
G13  24112243.538      141832.118          24.903  
G15  21324931.261       78533.804          43.073  
G20  20570001.381     -117769.152          34.650  
G21  23344094.918       94780.980          35.235  
G24  20063942.423       21486.032          41.519  
G32  25122995.609     -202913.090          30.287  
> 2019  9 10 10 46 35.0003315  0  9
G10  22582635.864     -223269.056          27.079  
G12  22375306.302     -247821.621          45.017  
G13  24112646.464      143972.055          27.718  
G15  21325160.601       79729.464          42.937  
G20  20569686.902     -119437.449          34.967  
G21  23344354.237       96161.483          35.821  
G24  20064008.978       21818.308          41.517  
G32  25122441.599     -205824.857          28.680  
> 2019  9 10 10 46 36.0003315  0  9
G10  22582003.006     -226573.882          27.463  
G12  22374652.748     -251266.077          44.752  
G13  24113048.482      146111.990          30.967  
G15  21325386.345       80925.237          41.567  
G20  20569367.624     -121107.443          34.336  
G21  23344618.058       97541.790          34.759  
G24  20064070.438       22151.114          41.616  
G32  25121882.486     -208740.100          27.484  
> 2019  9 10 10 46 37.0003315  0  9
G10  22581381.534     -229878.304          26.123  
G12  22373991.411     -254710.911          43.872  
G13  24113455.901      148251.747          32.274  
G15  21325610.886       82121.217          42.445  
G20  20569053.145     -122774.512          35.206  
G21  23344881.879       98922.753          34.380  
G24  20064134.288       22483.603          41.184  
G32  25121332.367     -211654.046          26.790  
> 2019  9 10 10 46 38.0003315  0  9
G10  22580754.669     -233177.368          27.760  
G12  22373338.458     -258156.000          44.895  
G13  24113864.219      150390.969          35.475  
G15  21325839.632       83316.665          43.215  
G20  20568730.866     -124442.102          36.600  
G21  23345143.292      100303.246          35.226  
G24  20064194.849       22816.532          40.786  
G32  25120786.446     -214572.265          28.688  
> 2019  9 10 10 46 39.0003315  0  9
G10  22580126.304     -236476.938          25.825  
G12  22372683.717     -261600.700          45.738  
G13  24114265.643      152530.041          35.043  
G15  21326069.574       84511.978          44.543  
G20  20568416.980     -126109.071          36.823  
G21  23345408.012      101683.617          34.254  
G24  20064260.200       23149.379          39.713  
G32  25120224.933     -217485.796          27.860  
> 2019  9 10 10 46 40.0003315  0  9
G10  22579488.045     -239774.275          29.137  
G12  22372030.469     -265044.071          42.068  
G13  24114677.259      154670.018          36.518  
G15  21326294.717       85708.929          41.175  
G20  20568098.601     -127774.462          35.969  
G21  23345668.229      103066.238          32.639  
G24  20064321.956       23483.766          42.691  
G32  25119670.313     -220397.753          27.330  
> 2019  9 10 10 46 41.0003315  0  9
G10  22578859.977     -243068.964          30.160  
G12  22371373.922     -268485.564          42.293  
G13  24115085.873      156811.786          36.271  
G15  21326524.955       86908.025          41.004  
G20  20567782.917     -129437.576          34.675  
G21  23345936.247      104450.952          32.785  
G24  20064388.215       23820.522          43.242  
G32  25119121.695     -223310.484          26.495  
> 2019  9 10 10 46 42.0003315  0  9
G10  22578235.216     -246363.267          30.289  
G12  22370717.977     -271925.698          43.707  
G13  24115494.793      158954.313          33.730  
G15  21326753.099       88108.797          42.921  
G20  20567467.540     -131098.950          35.746  
G21  23346198.864      105833.881          31.608  
G24  20064450.870       24158.774          43.595  
G32  25118569.474     -226227.134          24.964  
> 2019  9 10 10 46 43.0003315  0  9
G10  22577613.142     -249656.628          30.428  
G12  22370063.524     -275365.102          40.832  
G13  24115901.907      161097.268          32.316  
G15  21326978.538       89310.938          42.339  
G20  20567153.060     -132760.135          36.740  
G21  23346465.975      107218.249          33.546  
G24  20064515.026       24497.195          44.092  
G32  25118037.941     -229138.315          24.220  
> 2019  9 10 10 46 44.0003315  0  9
G10  22576980.885     -252952.332          28.511  
G12  22369409.978     -278805.376          44.117  
G13  24116311.428      163239.145          32.208  
G15  21327209.378       90510.608          43.711  
G20  20566834.978     -134421.367          35.997  
G21  23346718.706      108602.117          33.292  
G24  20064578.283       24835.774          43.068  
G32  25117469.238     -232054.847          25.903  
> 2019  9 10 10 46 45.0003315  0  9
G10  22576356.115     -256245.050          30.137  
G12  22368754.932     -282244.521          44.317  
G13  24116720.043      165386.388          28.828  
G15  21327436.921       91711.232          42.502  
G20  20566516.302     -136081.492          35.789  
G21  23346989.717      109983.286          33.435  
G24  20064643.939       25175.440          43.452  
G32  25116921.519     -234971.826          26.166  
> 2019  9 10 10 46 46.0003315  0  9
G10  22575730.752     -259542.259          31.665  
G12  22368101.090     -285683.923          41.068  
G13  24117124.766      167534.213          28.044  
G15  21327665.361       92911.200          39.591  
G20  20566205.112     -137741.000          35.948  
G21  23347249.332      111369.048          33.645  
G24  20064710.494       25515.299          44.506  
G32  25116360.303     -237885.044          27.551  
> 2019  9 10 10 46 47.0003315  0  9
G10  22575107.482     -262833.139          29.690  
G12  22367446.043     -289122.399          45.491  
G13  24117534.881      169676.970          25.287  
G15  21327893.811       94111.890          40.881  
G20  20565887.928     -139399.630          36.569  
G21  23347512.255      112757.248          31.172  
G24  20064776.447       25855.767          43.511  
G32  25115793.398     -240796.603          27.539  
> 2019  9 10 10 46 48.0003315  0  9
G10  22574478.812     -266130.127          29.007  
G12  22366788.894     -292560.765          43.536  
G13  24117948.294      171821.000          26.140  
G15  21328123.150       95312.647          42.010  
G20  20565571.949     -141057.699          36.278  
G21  23347779.069      114142.375          28.540  
G24  20064838.806       26196.851          43.566  
G32  25115243.882     -243706.552          28.949  
> 2019  9 10 10 46 49.0003315  0  9
G10  22573853.449     -269425.942          31.875  
G12  22366138.045     -295999.533          42.359  
G13  24118356.306      173964.332          26.645  
G15  21328353.389       96514.719          39.861  
G20  20565258.970     -142715.324          36.034  
G21  23348045.586      115529.264          29.972  
G24  20064905.954       26538.511          43.799  
G32  25114685.370     -246616.296          29.511  
> 2019  9 10 10 46 50.0003315  0  9
G10  22573225.084     -272716.218          31.888  
G12  22365483.295     -299436.339          44.574  
G13  24118766.124      176112.954          24.691  
G15  21328578.235       97717.426          41.299  
G20  20564942.388     -144371.090          36.985  
G21  23348305.507      116917.836          30.815  
G24  20064969.508       26881.886          44.126  
G32  25114130.453     -249524.811          28.994  
> 2019  9 10 10 46 51.0003315  0  9
G10  22572595.218     -276007.250          31.348  
G12  22364830.352     -302873.072          46.311  
G13  24119174.442      178263.473          26.597  
G15  21328808.473       98919.717          42.247  
G20  20564625.204     -146027.019          35.808  
G21  23348572.923      118306.838          31.412  
G24  20065034.562       27225.042          43.451  
G32  25113578.529     -252434.492          28.527  
> 2019  9 10 10 46 52.0003315  0  9
G10  22571973.746     -279297.487          30.089  
G12  22364177.399     -306309.587          45.112  
G13  24119577.062      180405.712          27.163  
G15  21329038.118      100123.074          43.059  
G20  20564311.327     -147682.101          35.699  
G21  23348839.736      119695.656          32.086  
G24  20065100.821       27568.818          43.350  
G32  25113020.916     -255344.403          29.433  
> 2019  9 10 10 46 53.0003315  0  9
G10  22571344.482     -282586.466          30.614  
G12  22363520.861     -309744.557          44.685  
G13  24119982.980      182550.240          28.452  
G15  21329266.558      101327.538          42.195  
G20  20563999.544     -149335.823          35.735  
G21  23349106.550      121086.504          32.204  
G24  20065167.070       27914.468          42.766  
G32  25112473.799     -258251.760          28.542  
> 2019  9 10 10 46 54.0003315  0  9
G10  22570722.714     -285878.249          30.483  
G12  22362870.012     -313179.086          43.305  
G13  24120388.602      184695.578          31.965  
G15  21329496.195      102532.048          43.465  
G20  20563683.861     -150988.744          33.816  
G21  23349366.471      122476.022          33.661  
G24  20065228.233       28260.480          43.073  
G32  25111917.085     -261160.124          26.630  
> 2019  9 10 10 46 55.0003315  0  9
G10  22570094.645     -289166.870          28.407  
G12  22362213.159     -316613.601          42.832  
G13  24120795.724      186841.305          29.099  
G15  21329722.245      103736.824          41.706  
G20  20563369.373     -152641.535          32.480  
G21  23349629.385      123866.911          35.355  
G24  20065298.680       28606.712          42.366  
G32  25111372.359     -264073.718          28.962  
> 2019  9 10 10 46 56.0003315  0  9
G10  22569471.079     -292457.987          27.794  
G12  22361562.615     -320048.301          44.395  
G13  24121204.339      188980.840          31.288  
G15  21329956.680      104941.101          41.484  
G20  20563059.091     -154297.663          32.360  
G21  23349893.503      125256.656          33.896  
G24  20065362.539       28953.005          41.425  
G32  25110820.740     -266978.907          27.506  
> 2019  9 10 10 46 57.0003315  0  9
G10  22568845.411     -295749.435          28.610  
G12  22360905.170     -323483.137          44.095  
G13  24121612.656      191125.151          37.375  
G15  21330183.925      106145.103          42.405  
G20  20562741.009     -155951.185          32.264  
G21  23350164.819      126650.640          33.487  
G24  20065429.993       29299.698          41.357  
G32  25110263.729     -269890.448          26.075  
> 2019  9 10 10 46 58.0003315  0  9
G10  22568224.244     -299038.726          28.131  
G12  22360253.116     -326918.296          42.887  
G13  24122019.473      193268.622          34.946  
G15  21330411.764      107348.750          43.613  
G20  20562420.535     -157603.041          32.159  
G21  23350423.536      128041.121          34.934  
G24  20065495.649       29646.032          40.603  
G32  25109708.210     -272803.723          24.821  
> 2019  9 10 10 46 59.0003315  0  9
G10  22567589.885     -302324.277          27.907  
G12  22359598.375     -330353.189          44.289  
G13  24122423.594      195411.237          31.369  
G15  21330641.705      108552.716          43.270  
G20  20562111.152     -159255.239          33.796  
G21  23350689.154      129428.768          32.064  
G24  20065560.398       29992.756          41.811  
G32  25109157.193     -275718.719          25.015  
> 2019  9 10 10 47  0.0003315  0  9
G10  22566965.115     -305615.683          27.436  
G12  22358947.220     -333786.436          41.723  
G13  24122838.211      197557.912          29.397  
G15  21330871.944      109757.823          41.381  
G20  20561800.564     -160906.462          34.423  
G21  23350951.771      130821.661          30.127  
G24  20065626.055       30341.114          43.538  
G32  25108601.378     -278633.283          28.550  
> 2019  9 10 10 47  1.0003315  0  9
G10  22566346.644     -308900.818          26.745  
G12  22358295.175     -337217.826          45.277  
G13  24123247.724      199706.354          30.941  
G15  21331100.088      110964.837          42.719  
G20  20561478.285     -162559.387          36.160  
G21  23351215.889      132215.518          31.548  
G24  20065695.611       30691.956          42.356  
G32  25108056.059     -281545.816          25.860  
> 2019  9 10 10 47  2.0003315  0  9
G10  22565719.780     -312189.908          26.832  
G12  22357641.630     -340647.917          46.022  
G13  24123654.541      201853.682          34.044  
G15  21331330.029      112172.825          44.038  
G20  20561170.995     -164205.488          36.658  
G21  23351488.400      133611.497          35.026  
G24  20065758.868       31042.717          39.612  
G32  25107496.945     -284454.470          26.790  
> 2019  9 10 10 47  3.0003315  0  9
G10  22565103.403     -315481.997          25.899  
G12  22356988.381     -344077.931          45.964  
G13  24124068.853      204002.736          32.940  
G15  21331560.267      113381.605          44.800  
G20  20560856.813     -165851.947          35.640  
G21  23351757.614      135007.630          33.708  
G24  20065829.620       31394.686          38.826  
G32  25106939.026     -287360.554          27.652  
> 2019  9 10 10 47  4.0003315  0  9
G10  22564479.541     -318775.512          26.639  
G12  22356336.327     -347507.627          46.152  
G13  24124478.968      206153.552          31.020  
G15  21331788.115      114590.776          44.278  
G20  20560544.131     -167496.827          36.576  
G21  23352017.831      136401.362          32.094  
G24  20065896.769       31747.810          40.472  
G32  25106384.415     -290271.595          28.414  
> 2019  9 10 10 47  5.0003315  0  9
G10  22563849.972     -322060.325          29.355  
G12  22355683.384     -350936.773          46.308  
G13  24124883.988      208300.014          29.227  
G15  21332021.651      115800.159          44.632  
G20  20560228.753     -169141.134          36.159  
G21  23352279.855      137797.444          33.234  
G24  20065962.128       32100.803          40.457  
G32  25105833.398     -293180.863          27.560  
> 2019  9 10 10 47  6.0003315  0  9
G10  22563221.005     -325344.040          30.092  
G12  22355031.636     -354365.730          45.597  
G13  24125292.009      210445.806          30.109  
G15  21332248.295      117009.443          44.655  
G20  20559921.463     -170784.903          35.344  
G21  23352546.067      139193.851          35.014  
G24  20066030.778       32454.675          41.289  
G32  25105285.671     -296098.681          26.300  
> 2019  9 10 10 47  7.0003315  0  9
G10  22562593.538     -328627.045          30.485  
G12  22354380.489     -357794.839          44.620  
G13  24125707.821      212586.620          29.847  
G15  21332478.829      118218.559          40.567  
G20  20559603.084     -172428.216          34.625  
G21  23352814.983      140586.217          32.735  
G24  20066098.833       32809.099          43.261  
G32  25104735.256     -299015.372          25.008  
> 2019  9 10 10 47  8.0003315  0  9
G10  22561969.370     -331909.277          30.300  
G12  22353724.841     -361223.378          43.021  
G13  24126113.137      214733.109          29.847  
G15  21332711.772      119426.491          40.528  
G20  20559294.294     -174070.947          33.042  
G21  23353086.893      141983.401          31.502  
G24  20066162.684       33163.649          42.450  
G32  25104175.540     -301921.309          26.436  
> 2019  9 10 10 47  9.0003315  0  9
G10  22561346.406     -335192.488          31.313  
G12  22353075.789     -364651.803          43.087  
G13  24126526.550      216880.424          26.860  
G15  21332942.613      120629.048          41.304  
G20  20558982.816     -175713.007          35.437  
G21  23353348.611      143381.642          32.708  
G24  20066233.139       33518.770          43.805  
G32  25103622.726     -304824.761          26.683  
> 2019  9 10 10 47 10.0003315  0  9
G10  22560717.745     -338479.131          30.988  
G12  22352419.844     -368079.916          44.042  
G13  24126928.577      219035.301          26.262  
G15  21333171.952      121839.337          41.504  
G20  20558667.735     -177354.601          33.707  
G21  23353610.635      144780.670          31.834  
G24  20066298.194       33874.475          43.259  
G32  25103069.903     -307730.377          26.697  
> 2019  9 10 10 47 11.0003315  0  9
G10  22560092.669     -341766.633          31.851  
G12  22351769.597     -371507.098          44.532  
G13  24127342.592      221182.773          26.451  
G15  21333398.892      123050.433          41.878  
G20  20558357.444     -178995.334          34.330  
G21  23353880.450      146179.309          32.387  
G24  20066367.445       34231.040          44.220  
G32  25102516.792     -310636.530          24.892  
> 2019  9 10 10 47 12.0003315  0  9
G10  22559469.705     -345047.695          32.003  
G12  22351117.840     -374934.212          45.116  
G13  24127747.909      223330.872          27.057  
G15  21333633.929      124261.044          42.734  
G20  20558042.965     -180635.425          36.258  
G21  23354151.155      147578.137          32.832  
G24  20066436.399       34587.783          44.127  
G32  25101975.068     -313545.163          24.793  
> 2019  9 10 10 47 13.0003315  0  9
G10  22558845.240     -348329.179          29.990  
G12  22350463.998     -378360.678          45.254  
G13  24128153.530      225483.952          29.259  
G15  21333861.480      125472.225          43.546  
G20  20557733.581     -182274.643          36.198  
G21  23354415.875      148979.594          32.094  
G24  20066505.947       34945.519          42.392  
G32  25101439.634     -316458.055          26.288  
> 2019  9 10 10 47 14.0003315  0  9
G10  22558226.464     -351610.788          29.888  
G12  22349810.452     -381786.962          44.776  
G13  24128559.448      227631.965          32.510  
G15  21334091.413      126684.039          42.916  
G20  20557419.093     -183913.227          34.684  
G21  23354683.893      150379.598          33.982  
G24  20066572.502       35303.692          42.748  
G32  25100883.522     -319372.618          27.699  
> 2019  9 10 10 47 15.0003315  0  9
G10  22557597.803     -354890.550          32.329  
G12  22349162.002     -385213.187          43.820  
G13  24128971.064      229778.535          30.333  
G15  21334322.558      127896.309          40.851  
G20  20557107.607     -185550.950          35.754  
G21  23354946.807      151771.086          33.188  
G24  20066641.151       35662.630          44.340  
G32  25100317.515     -322280.559          28.048  
> 2019  9 10 10 47 16.0003315  0  9
G10  22556976.627     -358176.846          31.559  
G12  22348507.252     -388638.861          42.469  
G13  24129384.477      231931.403          27.028  
G15  21334555.493      129107.823          39.696  
G20  20556800.919     -187187.957          35.851  
G21  23355210.322      153173.609          32.003  
G24  20066709.809       36022.462          44.258  
G32  25099747.905     -325186.580          28.821  
> 2019  9 10 10 47 17.0003315  0  9
G10  22556355.164     -361459.109          29.733  
G12  22347855.504     -392064.191          43.755  
G13  24129788.598      234079.405          29.721  
G15  21334784.239      130320.356          41.702  
G20  20556486.737     -188825.055          35.536  
G21  23355479.239      154572.677          31.670  
G24  20066778.458       36381.841          43.384  
G32  25099195.091     -328092.641          29.025  
> 2019  9 10 10 47 18.0003315  0  9
G10  22555732.488     -364744.276          28.369  
G12  22347205.257     -395489.739          45.262  
G13  24130199.010      236229.055          30.915  
G15  21335014.774      131532.228          43.597  
G20  20556173.157     -190461.910          36.492  
G21  23355744.857      155972.359          31.505  
G24  20066845.310       36741.679          42.098  
G32  25098644.667     -330999.273          30.049  
> 2019  9 10 10 47 19.0003315  0  9
G10  22555103.224     -368032.351          28.518  
G12  22346554.407     -398914.870          45.838  
G13  24130597.433      238377.742          32.570  
G15  21335245.317      132744.004          41.888  
G20  20555861.976     -192098.307          36.600  
G21  23356013.469      157372.223          31.943  
G24  20066915.460       37102.052          43.749  
G32  25098097.245     -333906.324          30.075  
> 2019  9 10 10 47 20.0003315  0  9
G10  22554479.056     -371307.952          29.820  
G12  22345902.956     -402338.474          45.097  
G13  24131011.745      240527.324          34.524  
G15  21335480.354      133957.697          41.717  
G20  20555551.685     -193733.042          35.471  
G21  23356281.487      158768.548          32.421  
G24  20066982.015       37463.833          44.611  
G32  25097538.140     -336812.209          29.367  
> 2019  9 10 10 47 21.0003315  0  9
G10  22553851.590     -374587.332          30.436  
G12  22345252.106     -405760.073          43.754  
G13  24131429.364      242678.558          32.577  
G15  21335708.795      135173.405          43.422  
G20  20555241.402     -195365.101          36.307  
G21  23356547.995      160166.308          31.003  
G24  20067050.970       37828.001          43.714  
G32  25096987.717     -339716.604          30.339  
> 2019  9 10 10 47 22.0003315  0  9
G10  22553230.720     -377866.743          31.027  
G12  22344601.553     -409180.408          42.870  
G13  24131838.877      244830.789          34.003  
G15  21335938.736      136389.940          44.449  
G20  20554930.221     -196995.688          35.681  
G21  23356812.418      161571.465          34.669  
G24  20067125.020       38193.478          43.227  
G32  25096433.402     -342622.846          30.268  
> 2019  9 10 10 47 23.0003315  0  9
G10  22552619.744     -381146.720          30.813  
G12  22343948.610     -412600.337          41.681  
G13  24132241.200      246983.057          33.763  
G15  21336173.171      137606.792          44.501  
G20  20554614.835     -198628.668          33.832  
G21  23357079.232      162975.736          36.033  
G24  20067189.175       38559.595          42.357  
G32  25095877.883     -345529.892          30.960  
> 2019  9 10 10 47 24.0003315  0  9
G10  22551998.281     -384425.730          28.641  
G12  22343295.055     -416020.063          43.237  
G13  24132647.415      249135.581          36.265  
G15  21336402.520      138824.270          44.959  
G20  20554307.851     -200258.139          36.605  
G21  23357341.849      164381.675          34.485  
G24  20067263.522       38926.346          41.956  
G32  25095325.069     -348432.934          30.065  
> 2019  9 10 10 47 25.0003315  0  9
G10  22551372.909     -387701.306          27.704  
G12  22342647.207     -419439.503          43.070  
G13  24133059.327      251288.226          34.952  
G15  21336636.352      140041.688          45.282  
G20  20553998.161     -201887.097          36.513  
G21  23357611.062      165787.798          36.511  
G24  20067331.578       39293.271          39.676  
G32  25094775.850     -351339.422          30.364  
> 2019  9 10 10 47 26.0003315  0  9
G10  22550745.443     -390982.002          27.340  
G12  22341995.163     -422858.599          42.639  
G13  24133466.746      253440.332          34.095  
G15  21336867.193      141259.141          44.936  
G20  20553692.076     -203515.564          36.330  
G21  23357883.277      167194.076          36.340  
G24  20067400.532       39660.596          40.916  
G32  25094220.933     -354242.397          31.789  
> 2019  9 10 10 47 27.0003315  0  9
G10  22550121.877     -394255.032          29.634  
G12  22341345.508     -426277.561          43.671  
G13  24133879.261      255592.976          31.746  
G15  21337096.236      142476.941          43.654  
G20  20553379.394     -205143.496          36.199  
G21  23358155.788      168600.532          37.240  
G24  20067471.878       40028.366          42.168  
G32  25093670.814     -357148.512          30.445  
> 2019  9 10 10 47 28.0003315  0  9
G10  22549501.007     -397528.978          27.729  
G12  22340695.558     -429695.907          44.396  
G13  24134289.681      257746.021          29.726  
G15  21337329.178      143695.154          43.684  
G20  20553066.407     -206770.886          34.621  
G21  23358416.006      170007.409          35.841  
G24  20067542.028       40396.912          41.085  
G32  25093131.786     -360057.133          31.107  
> 2019  9 10 10 47 29.0003315  0  9
G10  22548872.345     -400805.286          30.797  
G12  22340045.013     -433113.852          43.110  
G13  24134698.601      259898.256          29.646  
G15  21337559.713      144913.491          42.066  
G20  20552761.517     -208397.358          35.056  
G21  23358678.326      171415.021          35.067  
G24  20067609.787       40765.846          42.922  
G32  25092570.875     -362961.173          30.730  
> 2019  9 10 10 47 30.0003315  0  9
G10  22548249.076     -404077.351          30.069  
G12  22339391.163     -436532.414          41.498  
G13  24135107.817      262051.250          30.677  
G15  21337795.056      146132.084          42.951  
G20  20552451.531     -210023.516          34.625  
G21  23358947.234      172822.071          33.860  
G24  20067680.539       41135.315          43.443  
G32  25092017.162     -365863.893          30.621  
> 2019  9 10 10 47 31.0003315  0  9
G10  22547624.907     -407351.637          29.272  
G12  22338749.003     -439950.317          37.984  
G13  24135520.628      264203.909          29.731  
G15  21338026.795      147350.811          44.552  
G20  20552140.647     -211648.946          34.707  
G21  23359220.950      174229.815          35.929  
G24  20067751.884       41505.158          42.649  
G32  25091473.631     -368768.991          27.799  
> 2019  9 10 10 47 32.0003315  0  9
G10  22547000.137     -410626.265          32.894  
G12  22338093.660     -443367.736          40.333  
G13  24135933.143      266357.034          25.788  
G15  21338257.033      148570.141          44.810  
G20  20551830.967     -213273.686          37.502  
G21  23359485.669      175636.606          34.913  
G24  20067820.542       41875.916          42.421  
G32  25090933.111     -371684.247          27.531  
> 2019  9 10 10 47 33.0003315  0  9
G10  22546381.963     -413897.892          31.074  
G12  22337442.514     -446784.303          38.087  
G13  24136357.645      268513.773          24.942  
G15  21338487.873      149789.681          44.145  
G20  20551523.677     -214897.798          35.155  
G21  23359752.780      177045.201          36.635  
G24  20067891.285       42246.875          40.936  
G32  25090390.488     -374598.475          30.467  
> 2019  9 10 10 47 34.0003315  0  9
G10  22545759.898     -417173.396          28.941  
G12  22336797.353     -450200.610          38.653  
G13  24136753.076      270667.417          28.830  
G15  21338722.613      151009.690          44.393  
G20  20551212.496     -216522.944          33.775  
G21  23360019.000      178453.989          34.207  
G24  20067963.241       42618.681          41.693  
G32  25089827.474     -377511.409          29.898  
> 2019  9 10 10 47 35.0003315  0  9
G10  22545139.028     -420440.455          26.970  
G12  22336143.511     -453616.061          42.843  
G13  24137155.696      272820.403          34.168  
G15  21338954.047      152229.799          45.056  
G20  20550906.707     -218147.472          33.096  
G21  23360291.206      179863.620          35.215  
G24  20068033.391       42991.041          41.069  
G32  25089302.240     -380424.510          31.322  
> 2019  9 10 10 47 36.0003315  0  9
G10  22544520.854     -423711.110          26.732  
G12  22335494.162     -457031.088          44.695  
G13  24137566.108      274973.229          33.817  
G15  21339185.192      153449.944          43.026  
G20  20550597.018     -219769.642          33.948  
G21  23360562.522      181273.212          33.737  
G24  20068106.237       43363.827          41.738  
G32  25088726.339     -383337.846          33.499  
> 2019  9 10 10 47 37.0003315  0  9
G10  22543893.684     -426981.252          30.523  
G12  22334846.306     -460445.903          44.945  
G13  24137976.232      277124.697          32.422  
G15  21339419.331      154670.711          42.448  
G20  20550290.933     -221390.355          35.030  
G21  23360830.531      182679.294          32.295  
G24  20068176.090       43737.089          43.510  
G32  25088177.416     -386250.858          33.264  
> 2019  9 10 10 47 38.0003315  0  9
G10  22543268.321     -430251.597          30.833  
G12  22334196.058     -463861.134          45.451  
G13  24138390.840      279277.926          31.136  
G15  21339648.068      155891.010          40.348  
G20  20549981.549     -223012.277          36.065  
G21  23361101.245      184089.001          30.366  
G24  20068247.741       44109.948          44.429  
G32  25087631.198     -389161.924          32.198  
> 2019  9 10 10 47 39.0003315  0  9
G10  22542648.053     -433524.695          28.251  
G12  22333541.911     -467276.030          44.083  
G13  24138795.257      281430.271          34.395  
G15  21339882.512      157111.176          45.311  
G20  20549670.359     -224633.456          35.105  
G21  23361364.464      185499.337          31.512  
G24  20068315.796       44483.269          41.996  
G32  25087072.983     -392074.051          32.728  
> 2019  9 10 10 47 40.0003315  0  9
G10  22542045.471     -436794.967          26.929  
G12  22332897.954     -470689.834          44.912  
G13  24139200.879      283584.288          35.071  
G15  21340115.743      158332.768          44.663  
G20  20549363.672     -226253.407          34.983  
G21  23361636.976      186908.333          32.617  
G24  20068388.642       44857.927          42.573  
G32  25086509.969     -394987.491          33.597  
> 2019  9 10 10 47 41.0003315  0  9
G10  22541410.806     -440062.929          27.951  
G12  22332245.909     -474100.937          44.563  
G13  24139618.192      285741.398          32.831  
G15  21340351.382      159556.617          42.285  
G20  20549059.383     -227870.481          36.008  
G21  23361904.994      188321.864          31.769  
G24  20068461.497       45235.667          43.798  
G32  25085950.856     -397894.946          33.457  
> 2019  9 10 10 47 42.0003315  0  9
G10  22540788.741     -443333.434          29.748  
G12  22331595.060     -477510.984          44.798  
G13  24140027.409      287898.441          32.617  
G15  21340577.728      160781.537          40.466  
G20  20548752.094     -229486.032          35.580  
G21  23362172.104      189732.496          29.887  
G24  20068537.039       45614.501          44.214  
G32  25085405.240     -400804.866          32.413  
> 2019  9 10 10 47 43.0003315  0  9
G10  22540165.166     -446601.804          31.261  
G12  22330948.110     -480920.378          44.273  
G13  24140436.625      290055.789          33.768  
G15  21340816.360      162008.220          39.967  
G20  20548445.406     -231100.645          34.238  
G21  23362446.116      191151.906          29.791  
G24  20068605.994       45994.187          43.882  
G32  25084853.917     -403715.047          32.612  
> 2019  9 10 10 47 44.0003315  0  9
G10  22539540.701     -449866.246          31.687  
G12  22330302.653     -484330.208          44.110  
G13  24140847.037      292212.289          35.174  
G15  21341047.200      163233.965          39.688  
G20  20548135.421     -232714.335          33.734  
G21  23362715.932      192565.904          29.121  
G24  20068680.340       46374.112          43.625  
G32  25084293.608     -406624.500          35.029  
> 2019  9 10 10 47 45.0003315  0  9
G10  22538917.432     -453131.212          31.512  
G12  22329653.304     -487739.554          41.582  
G13  24141256.558      294369.369          36.544  
G15  21341280.440      164459.741          40.510  
G20  20547829.335     -234328.292          34.961  
G21  23362979.744      193981.448          34.740  
G24  20068749.897       46754.395          43.698  
G32  25083728.501     -409524.861          34.872  
> 2019  9 10 10 47 46.0003315  0  9
G10  22538298.063     -456395.932          31.726  
G12  22329006.651     -491148.548          39.130  
G13  24141666.071      296526.288          35.611  
G15  21341514.578      165685.772          42.319  
G20  20547525.649     -235945.634          34.482  
G21  23363248.660      195397.230          33.412  
G24  20068824.243       47135.166          43.886  
G32  25083180.476     -412425.191          37.541  
> 2019  9 10 10 47 47.0003315  0  9
G10  22537680.185     -459659.923          30.362  
G12  22328353.106     -494557.571          38.589  
G13  24142077.687      298683.479          35.933  
G15  21341746.317      166911.933          41.793  
G20  20547217.757     -237558.708          34.887  
G21  23363523.868      196815.405          34.614  
G24  20068896.793       47516.320          43.806  
G32  25082628.256     -415326.861          37.926  
> 2019  9 10 10 47 48.0003315  0  9
G10  22537063.216     -462928.886          30.880  
G12  22327708.250     -497964.950          40.666  
G13  24142489.599      300841.308          36.273  
G15  21341981.956      168138.517          42.700  
G20  20546907.170     -239171.031          33.762  
G21  23363785.892      198231.549          33.759  
G24  20068966.943       47897.030          43.291  
G32  25082078.740     -418232.066          38.151  
> 2019  9 10 10 47 49.0003315  0  9
G10  22536436.351     -466196.417          30.390  
G12  22327058.902     -501373.411          43.726  
G13  24142901.817      302998.388          36.273  
G15  21342215.789      169365.200          42.194  
G20  20546601.381     -240783.259          35.072  
G21  23364063.498      199647.229          33.245  
G24  20069041.595       48279.202          43.678  
G32  25081525.323     -421137.315          36.546  
> 2019  9 10 10 47 50.0003315  0  9
G10  22535814.277     -469459.824          31.133  
G12  22326407.450     -504781.687          44.907  
G13  24143310.135      305154.798          33.814  
G15  21342448.435      170592.208          40.717  
G20  20546295.295     -242393.858          35.801  
G21  23364330.016      201066.102          35.447  
G24  20069115.339       48661.954          43.728  
G32  25080966.812     -424040.850          35.750  
> 2019  9 10 10 47 51.0003315  0  9
G10  22535199.410     -472723.309          31.418  
G12  22325755.405     -508189.894          44.277  
G13  24143721.454      307311.330          36.332  
G15  21342679.572      171819.166          43.086  
G20  20545984.411     -244003.911          35.873  
G21  23364596.829      202483.083          34.081  
G24  20069187.295       49045.019          43.750  
G32  25080418.788     -426944.534          36.947  
> 2019  9 10 10 47 52.0003315  0  9
G10  22534574.640     -475990.027          30.511  
G12  22325109.948     -511597.512          44.941  
G13  24144132.162      309475.157          33.494  
G15  21342916.407      173046.722          42.606  
G20  20545677.723     -245613.657          35.488  
G21  23364866.339      203900.740          32.761  
G24  20069260.438       49428.597          44.020  
G32  25079868.373     -429849.117          37.540  
> 2019  9 10 10 47 53.0003315  0  9
G10  22533953.473     -479255.144          30.530  
G12  22324459.997     -515004.600          41.883  
G13  24144550.680      311629.284          32.576  
G15  21343147.849      174273.759          38.149  
G20  20545373.732     -247222.674          35.994  
G21  23365141.852      205319.883          31.930  
G24  20069331.792       49812.606          44.095  
G32  25079313.753     -432753.051          35.928  
> 2019  9 10 10 47 54.0003315  0  9
G10  22533330.501     -482518.719          32.181  
G12  22323817.541     -518411.510          41.592  
G13  24144958.997      313785.569          33.873  
G15  21343384.980      175501.253          39.269  
G20  20545066.747     -248831.655          34.995  
G21  23365408.666      206736.663          31.035  
G24  20069409.436       50196.807          43.868  
G32  25078759.734     -435656.160          35.340  
> 2019  9 10 10 47 55.0003315  0  9
G10  22532714.429     -485790.420          31.062  
G12  22323178.689     -521818.975          43.523  
G13  24145364.313      315941.862          36.202  
G15  21343615.523      176727.640          41.315  
G20  20544757.660     -250440.560          34.275  
G21  23365673.979      208154.322          31.392  
G24  20069478.391       50580.940          43.355  
G32  25078214.712     -438561.445          36.160  
> 2019  9 10 10 47 56.0003315  0  9
G10  22532092.059     -489056.272          31.532  
G12  22322512.544     -525225.180          43.388  
G13  24145779.227      318098.951          32.964  
G15  21343849.365      177956.698          42.606  
G20  20544457.866     -252047.592          33.518  
G21  23365944.396      209573.273          33.879  
G24  20069551.542       50966.497          43.502  
G32  25077656.802     -441461.583          35.812  
> 2019  9 10 10 47 57.0003315  0  9
G10  22531471.791     -492313.494          33.926  
G12  22321858.100     -528630.250          42.468  
G13  24146180.347      320257.049          35.723  
G15  21344082.901      179185.323          41.487  
G20  20544146.981     -253652.830          32.884  
G21  23366215.110      210993.354          34.454  
G24  20069627.983       51353.478          43.671  
G32  25077099.189     -444360.476          35.735  
> 2019  9 10 10 47 58.0003315  0  9
G10  22530852.718     -495577.810          33.449  
G12  22321224.640     -532036.408          43.898  
G13  24146593.463      322414.335          34.788  
G15  21344317.938      180414.507          40.157  
G20  20543844.491     -255259.722          32.911  
G21  23366484.620      212412.163          31.433  
G24  20069699.939       51739.605          43.700  
G32  25076547.867     -447261.130          36.052  
> 2019  9 10 10 47 59.0003315  0  9
G10  22530226.447     -498839.256          33.441  
G12  22320578.283     -535442.277          43.078  
G13  24147008.072      324570.802          33.600  
G15  21344549.381      181644.145          40.798  
G20  20543538.108     -256865.830          33.005  
G21  23366757.428      213830.791          33.447  
G24  20069774.888       52126.066          42.840  
G32  25075995.646     -450161.555          35.820  
> 2019  9 10 10 48  0.0003315  0  9
G10  22529610.978     -502104.724          30.598  
G12  22319928.638     -538846.810          44.357  
G13  24147421.188      326729.892          35.395  
G15  21344782.018      182873.862          42.114  
G20  20543236.211     -258470.258          35.334  
G21  23367025.149      215251.052          32.280  
G24  20069848.336       52513.979          42.621  
G32  25075452.726     -453061.873          35.696  
> 2019  9 10 10 48  1.0003315  0  9
G10  22528992.507     -505360.956          30.262  
G12  22319275.991     -542248.850          44.780  
G13  24147831.608      328889.533          35.864  
G15  21345017.648      184104.994          42.244  
G20  20542927.124     -260072.081          35.933  
G21  23367298.559      216678.860          33.349  
G24  20069922.682       52904.544          42.988  
G32  25074895.715     -455966.867          35.567  
> 2019  9 10 10 48  2.0003315  0  9
G10  22528374.630     -508616.721          31.189  
G12  22318630.237     -545648.475          43.209  
G13  24148241.723      331052.329          35.462  
G15  21345254.788      185339.546          41.370  
G20  20542620.742     -261671.374          33.950  
G21  23367573.470      218103.906          33.663  
G24  20069991.933       53297.845          43.095  
G32  25074345.292     -458865.248          35.056  
> 2019  9 10 10 48  3.0003315  0  9
G10  22527756.159     -511870.808          32.527  
G12  22317987.476     -549047.497          42.527  
G13  24148658.129      333215.316          33.337  
G15  21345489.825      186574.962          40.828  
G20  20542323.346     -263269.661          34.418  
G21  23367845.379      219527.215          32.976  
G24  20070069.884       53691.724          43.436  
G32  25073796.072     -461761.450          37.066  
> 2019  9 10 10 48  4.0003315  0  9
G10  22527146.379     -515131.320          32.778  
G12  22317345.029     -552447.061          44.794  
G13  24149057.155      335377.209          33.546  
G15  21345722.463      187808.990          41.633  
G20  20542017.261     -264868.005          34.120  
G21  23368123.885      220952.792          32.029  
G24  20070146.630       54085.471          43.528  
G32  25073244.759     -464661.281          38.231  
> 2019  9 10 10 48  5.0003315  0  9
G10  22526534.505     -518393.732          33.538  
G12  22316686.379     -555846.812          43.518  
G13  24149478.665      337539.986          38.221  
G15  21345963.799      189043.655          41.750  
G20  20541715.363     -266466.955          33.659  
G21  23368385.603      222376.655          35.587  
G24  20070220.976       54479.143          42.193  
G32  25072692.835     -467558.510          37.402  
> 2019  9 10 10 48  6.0003315  0  9
G10  22525915.737     -521656.455          31.965  
G12  22316037.929     -559245.955          42.989  
G13  24149896.571      339706.003          38.212  
G15  21346193.741      190278.114          42.593  
G20  20541414.373     -268065.768          33.504  
G21  23368649.424      223801.968          32.719  
G24  20070296.222       54873.241          41.780  
G32  25072146.015     -470455.313          35.957  
> 2019  9 10 10 48  7.0003315  0  9
G10  22525293.366     -524919.033          32.198  
G12  22315395.176     -562644.612          44.179  
G13  24150295.003      341868.309          35.053  
G15  21346428.472      191512.175          43.609  
G20  20541101.988     -269663.629          33.240  
G21  23368925.530      225226.979          29.951  
G24  20070370.272       55267.772          40.813  
G32  25071591.996     -473353.445          38.589  
> 2019  9 10 10 48  8.0003315  0  9
G10  22524673.997     -528180.829          30.966  
G12  22314751.822     -566043.190          44.057  
G13  24150705.712      344031.701          34.784  
G15  21346662.916      192747.241          43.808  
G20  20540801.897     -271261.094          33.381  
G21  23369202.535      226651.780          29.036  
G24  20070446.119       55662.520          42.290  
G32  25071042.777     -476251.922          36.396  
> 2019  9 10 10 48  9.0003315  0  9
G10  22524036.637     -531438.987          33.945  
G12  22314114.461     -569441.926          39.343  
G13  24151120.931      346194.500          33.698  
G15  21346898.852      193982.034          40.096  
G20  20540495.209     -272858.888          31.343  
G21  23369472.656      228076.810          32.702  
G24  20070523.467       56057.844          43.078  
G32  25070495.660     -479151.066          37.076  
> 2019  9 10 10 48 10.0003315  0  9
G05  25973834.189       12305.195           7.000  
G10  22523432.257     -534698.055          32.695  
G12  22313458.516     -572840.320          41.579  
G13  24151537.040      348364.618          31.412  
G15  21347130.591      195217.149          40.405  
G20  20540191.820     -274455.126          32.806  
G21  23369745.464      229503.157          34.899  
G24  20070598.119       56453.284          43.821  
G32  25069939.243     -482050.864          39.036  
> 2019  9 10 10 48 11.0003315  0  9
G10  22522799.992     -537953.771          33.029  
G12  22312806.768     -576238.537          41.310  
G13  24151950.453      350526.369          30.242  
G15  21347368.324      196451.677          40.792  
G20  20539890.533     -276050.698          34.955  
G21  23370018.577      230930.446          32.898  
G24  20070672.762       56848.940          43.728  
G32  25069395.721     -484952.326          37.302  
> 2019  9 10 10 48 12.0003315  0  9
G10  22522182.420     -541210.215          35.006  
G12  22312155.316     -579636.223          40.449  
G13  24152358.771      352689.340          29.518  
G15  21347604.861      197690.454          39.856  
G20  20539585.643     -277645.287          36.275  
G21  23370292.580      232356.993          31.202  
G24  20070750.713       57245.500          43.483  
G32  25068845.899     -487852.535          33.555  
> 2019  9 10 10 48 13.0003315  0  9
G10  22521564.543     -544466.717          34.398  
G12  22311519.457     -583033.542          42.076  
G13  24152772.184      354847.344          26.455  
G15  21347839.898      198925.315          38.328  
G20  20539283.449     -279239.627          35.533  
G21  23370564.193      233784.572          29.073  
G24  20070822.058       57642.400          44.615  
G32  25068305.675     -490760.449          32.791  
> 2019  9 10 10 48 14.0003315  0  9
G10  22520950.871     -547723.629          33.604  
G12  22310879.400     -586430.446          44.807  
G13  24153202.689      357010.840          26.018  
G15  21348075.232      200161.529          40.846  
G20  20538980.661     -280833.052          34.563  
G21  23370842.105      235204.153          26.827  
G24  20070898.804       58040.278          43.395  
G32  25067751.954     -493660.662          32.122  
> 2019  9 10 10 48 15.0003315  0  9
G10  22520337.496     -550979.625          31.630  
G12  22310223.752     -589827.232          45.271  
G13  24153609.506      359181.139          26.786  
G15  21348307.276      201398.024          41.008  
G20  20538678.170     -282426.110          35.353  
G21  23371117.313      236627.403          25.781  
G24  20070974.355       58438.631          43.781  
G32  25067200.335     -496563.710          31.886  
> 2019  9 10 10 48 16.0003315  0  9
G10  22519703.730     -554233.698          33.033  
G12  22309579.498     -593223.592          41.978  
G13  24154023.522      361343.256          24.645  
G15  21348546.213      202633.908          38.822  
G20  20538374.179     -284018.186          35.292  
G21  23371381.134      238054.892          25.667  
G24  20071051.101       58838.010          43.928  
G32  25066638.228     -499464.741          30.815  
> 2019  9 10 10 48 17.0003315  0  9
G10  22519092.458     -557488.881          31.045  
G12  22308926.555     -596618.562          42.548  
G13  24154437.528      363505.381          25.376  
G15  21348776.155      203870.372          38.442  
G20  20538069.891     -285610.022          35.675  
G21  23371660.538      239483.373          24.355  
G24  20071126.948       59237.243          44.603  
G32  25066090.806     -502365.945          30.225  
> 2019  9 10 10 48 18.0003315  0  9
G10  22518472.486     -560744.946          30.494  
G12  22308290.695     -600014.677          42.122  
G13  24154856.944      365672.233          24.963  
G15  21349016.584      205105.998          39.484  
G20  20537768.299     -287202.015          36.041  
G21  23371935.143      240905.458          22.673  
G24  20071202.795       59636.198          44.147  
G32  25065542.189     -505265.655          32.754  
> 2019  9 10 10 48 19.0003315  0  9
G10  22517852.812     -563998.406          31.024  
G12  22307638.642     -603409.047          44.092  
G13  24155257.767      367835.446          24.994  
G15  21349246.822      206341.920          42.981  
G20  20537464.010     -288793.424          36.106  
G21  23372205.264      242334.971          22.851  
G24  20071280.745       60035.327          43.424  
G32  25064981.871     -508166.817          32.830  
> 2019  9 10 10 48 20.0003315  0  9
G10  22517233.748     -567255.226          31.266  
G12  22306991.989     -606803.885          44.332  
