     2.11           OBSERVATION DATA    G (GPS)             RINEX VERSION / TYPE
AndroidGNSSReceiver RITSUMEIKAN KUBOLAB 1562215586346       PGM / RUN BY / DATE
dipper                                                      MARKER NAME
GRitzLogger         KUBOLAB                                 OBSERVER / AGENCY
0                   Android Receiver                        REC # / TYPE / VERS
0                   Android Anttena                         ANT # / TYPE
        0.0000        0.0000        0.0000                  APPROX POSITION XYZ
        0.0000        0.0000        0.0000                  ANTENNA: DELTA H/E/N
1     0                                                     WAVELENGTH FACT L1/2
6         L1    C1    S1    L5    C5    S5                  # / TYPES OF OBSERV
1.000                                                       INTERVAL
  2019     7     4     4    46   44.9999252     GPS         TIME OF FIRST OBS
                                                            END OF HEADER
 19  7  4  4 46 44.9999252  0 17G 1G 3G 6G 8G11G14G17G18G19G22G23G28G30G 1G 3G 6G 8
    836247.664    21153572.592          33.996  
   -589666.820    20575811.658          37.771  
    -99441.937    24598361.513          37.737  
    167276.922    23700105.954          29.633  
    160783.296    21347749.663          34.224  
       -17.796    25966895.189           8.710  
   -603895.715    22867557.723          42.132  
   1243633.449    22601806.106          28.103  
   -401539.037    24034227.646          35.822  
    256629.662    21286554.821          38.709  
       -74.281    25326441.380           7.000  
   -494741.349    20808039.295          42.302  
        81.501    24690004.473          13.401  
 19  7  4  4 46 45.9999252  0 17G 1G 3G 6G 8G11G14G17G18G19G22G23G28G30G 1G 3G 6G 8
    838074.339    21153921.248          33.547  
   -590844.767    20575585.922          37.284  
   -102398.826    24597800.000          37.633  
    169495.365    23700547.252          31.715  
    162406.084    21348069.247          34.802  
       -17.825    25966765.690           7.000  
   -606415.976    22867078.051          41.937  
   1246320.804    22602322.947          30.629  
   -404687.341    24033628.667          31.977  
    257260.231    21286674.739          37.826  
       -74.354    25325966.194          10.539  
   -495735.518    20807853.119          42.651  
        81.524    24690457.463          15.502  
 19  7  4  4 46 46.9999252  0 17G 1G 3G 6G 8G11G14G17G18G19G22G23G28G30G 1G 3G 6G 8
    839900.461    21154267.216          36.094  
   -592020.842    20575364.967          37.375  
   -105353.711    24597233.985          35.424  
    171713.886    23700965.761          32.827  
    164029.476    21348378.936          36.116  
       -17.773    25966636.768          19.207  
   -608935.749    22866596.286          40.887  
   1249010.033    22602823.297          34.278  
   -407834.418    24033041.973          28.976  
    257891.600    21286794.657          36.999  
       -74.227    25325492.821          18.534  
   -496728.709    20807662.754          41.171  
        81.463    24690913.437          13.771  
 19  7  4  4 46 47.9999252  0 17G 1G 3G 6G 8G11G14G17G18G19G22G23G28G30G 1G 3G 6G 8
    841727.773    21154614.964          38.340  
   -593196.550    20575137.730          37.724  
   -108309.647    24596672.489          37.360  
    173935.191    23701382.472          29.575  
    165653.389    21348679.917          35.240  
       -17.789    25966508.457          17.635  
   -611455.772    22866119.912          42.212  
   1251699.692    22603332.040          33.331  
   -410976.050    24032451.685          29.792  
    258522.274    21286913.388          36.932  
       -74.286    25325018.856           8.193  
   -497721.044    20807474.781          39.384  
        81.519    24691367.928          18.813  
 19  7  4  4 46 48.9999252  0 17G 1G 3G 6G 8G11G14G17G18G19G22G23G28G30G 1G 3G 6G 8
    843555.121    21154962.136          35.701  
   -594371.887    20574914.682          37.579  
   -111265.905    24596110.662          35.364  
    176151.755    23701811.189          29.057  
    167277.207    21348995.905          35.833  
       -17.741    25966380.145           7.000  
   -613975.823    22865640.555          40.591  
   1254389.378    22603845.583          32.690  
   -414121.655    24031826.915          31.999  
    259154.857    21287036.901          37.485  
       -74.286    25324546.688          16.193  
   -498712.307    20807285.027          39.202  
        81.625    24691824.216           9.970  
 19  7  4  4 46 49.9999252  0 17G 1G 3G 6G 8G11G14G17G18G19G22G23G28G30G 1G 3G 6G 8
    845382.383    21155308.994          37.190  
   -595548.958    20574694.338          37.681  
   -114222.392    24595554.558          31.813  
    178366.116    23702239.888          28.597  
    168901.001    21349297.201          36.435  
       -17.740    25966251.537           7.000  
   -616495.581    22865162.681          38.487  
   1257078.789    22604357.939          35.438  
   -417270.720    24031232.124          32.725  
    259787.440    21287158.005          38.797  
       -74.217    25324072.409           7.000  
   -499704.645    20807095.256          39.481  
        81.499    24692279.301           7.000  
 19  7  4  4 46 50.9999252  0 17G 1G 3G 6G 8G11G14G17G18G19G22G23G28G30G 1G 3G 6G 8
    847208.662    21155660.650          37.238  
   -596726.913    20574469.492          37.150  
   -117174.303    24594997.233          28.296  
    180583.695    23702662.288          31.466  
    170524.213    21349607.483          33.712  
       -17.744    25966123.522          17.244  
   -619016.559    22864678.821          39.677  
   1259764.448    22604875.372          34.556  
   -420419.159    24030635.239          35.848  
    260419.898    21287275.829          37.722  
       -74.276    25323598.443          11.901  
   -500696.498    20806907.282          41.636  
        81.555    24692733.774          20.731  
 19  7  4  4 46 51.9999252  0 17G 1G 3G 6G 8G11G14G17G18G19G22G23G28G30G 1G 3G 6G 8
    849036.347    21156007.212          39.097  
   -597904.006    20574243.756          37.302  
   -120125.225    24594442.020          25.361  
    182801.615    23703078.406          32.615  
    172148.033    21349921.360          35.222  
       -17.759    25965996.415          15.258  
   -621537.266    22864198.853          36.430  
   1262453.874    22605391.009          33.708  
   -423567.471    24030030.851          34.355  
    261053.652    21287396.637          36.642  
       -74.334    25323125.665          12.414  
   -501687.043    20806719.605          40.341  
        81.611    24693189.469          16.446  
 19  7  4  4 46 52.9999252  0 17G 1G 3G 6G 8G11G14G17G18G19G22G23G28G30G 1G 3G 6G 8
    850865.702    21156352.272          38.913  
   -599075.242    20574022.801          37.929  
   -123071.935    24593894.310          24.444  
    185023.535    23703490.022          32.157  
    173776.868    21350228.955          37.096  
       -17.733    25965868.104           7.000  
   -624055.469    22863723.980          38.173  
   1265144.248    22605905.459          32.733  
   -426713.781    24029430.982          38.928  
    261689.717    21287518.370          35.506  
       -74.252    25322651.699          12.128  
   -502675.191    20806530.741          39.952  
        81.517    24693643.943           7.000  
 19  7  4  4 46 53.9999252  0 17G 1G 3G 6G 8G11G14G17G18G19G22G23G28G30G 1G 3G 6G 8
    852696.277    21156700.631          38.847  
   -600244.892    20573800.957          38.382  
   -126016.293    24593323.496          25.045  
    187242.536    23703923.224          30.800  
    175404.091    21350535.940          36.809  
       -17.723    25965740.403          18.089  
   -626573.327    22863243.104          39.738  
   1267832.141    22606405.216          38.199  
   -429859.734    24028834.691          41.542  
    262327.242    21287636.176          36.035  
       -74.281    25322178.030          12.483  
   -503662.312    20806340.080          36.900  
        81.606    24694099.934          20.130  
 19  7  4  4 46 54.9999252  0 17G 1G 3G 6G 8G11G14G17G18G19G22G23G28G30G 1G 3G 6G 8
    854527.444    21157048.379          37.733  
   -601413.309    20573580.002          38.718  
   -128966.720    24592765.892          23.250  
    189460.819    23704360.020          32.096  
    177032.352    21350850.410          36.744  
       -17.659    25965612.685           7.000  
   -629090.674    22862758.651          40.609  
   1270525.363    22606922.649          40.979  
   -433006.175    24028236.602          42.102  
    262965.753    21287759.095          36.192  
       -74.154    25321704.658          19.568  
   -504648.177    20806158.406          36.696  
        81.529    24694554.425          19.089  
 19  7  4  4 46 55.9999252  0 17G 1G 3G 6G 8G11G14G17G18G19G22G23G28G30G 1G 3G 6G 8
    856359.181    21157396.738          36.894  
   -602581.199    20573356.360          38.295  
   -131913.011    24592224.167          22.148  
    191680.037    23704777.325          34.245  
    178660.119    21351157.097          35.128  
       -17.662    25965486.764           7.000  
   -631608.273    22862285.873          42.953  
   1273218.438    22607432.004          40.936  
   -436152.038    24027637.624          44.464  
    263604.218    21287882.905          36.852  
       -74.227    25321231.583          16.581  
   -505634.272    20805967.134          37.946  
        81.586    24695010.103          21.240  
 19  7  4  4 46 56.9999252  0 16G 1G 3G 6G 8G11G14G17G18G19G22G23G28G30G 1G 3G 8
    858190.239    21157747.801          36.393  
   -603748.983    20573133.311          37.364  
    -46813.156    24591596.395          26.144  
    193901.549    23705203.930          37.480  
    180287.952    21351465.600          35.541  
       -17.678    25965359.953           7.000  
   -634126.596    22861802.310          44.779  
   1275910.818    22607945.546          40.297  
   -439298.736    24027040.721          43.236  
    264243.326    21288004.027          37.858  
       -74.300    25320758.508           7.000  
   -506620.548    20805781.569          39.312  
        81.642    24695465.780          20.881  
 19  7  4  4 46 57.9999252  0 16G 1G 3G 6G 8G11G14G17G18G19G22G23G28G30G 1G 3G 8
    860020.130    21158097.050          36.246  
   -604918.163    20572911.170          38.019  
    -46813.040    24591034.586          25.352  
    196117.195    23705619.140          35.730  
    181914.146    21351774.975          37.715  
       -17.652    25965232.846          15.148  
   -636646.402    22861322.638          42.236  
   1278600.988    22608461.497          39.165  
   -442446.839    24026440.242          43.557  
    264881.262    21288122.147          35.641  
       -74.188    25320284.839          15.985  
   -507607.128    20805593.595          37.884  
        81.548    24695921.178          17.956  
 19  7  4  4 46 58.9999252  0 16G 1G 3G 6G 8G11G14G17G18G19G22G23G28G30G 1G 3G 8
    861850.923    21158447.817          35.490  
   -606085.804    20572688.732          38.068  
    -46813.126    24590472.165          24.381  
    198337.039    23706048.154          32.946  
    183541.525    21352088.555          37.384  
       -17.680    25965104.534           7.000  
   -639165.394    22860848.376          42.853  
   1281292.586    22608970.241          39.365  
   -445594.178    24025841.263          43.921  
    265520.374    21288248.347          34.872  
       -74.261    25319812.060          18.568  
   -508593.161    20805400.229          35.546  
        81.588    24696375.652           7.000  
 19  7  4  4 46 59.9999252  0 16G 1G 3G 6G 8G11G14G17G18G19G22G23G28G30G 1G 3G 8
    863682.728    21158790.783          36.339  
   -607251.868    20572467.481          37.974  
    -46813.195    24589910.059          22.486  
    200554.648    23706469.350          34.749  
    185170.146    21352395.854          38.069  
       -17.683    25964978.631           7.000  
   -641683.309    22860367.500          39.844  
   1283985.378    22609483.486          38.805  
   -448740.623    24025243.174          44.588  
    266162.001    21288369.469          34.194  
       -74.334    25319337.798          21.950  
   -509576.703    20805214.960          37.200  
        81.627    24696831.050          20.554  
 19  7  4  4 47  0.9999252  0 16G 1G 3G 6G 8G11G14G17G18G19G22G23G28G30G 1G 3G 8
    865517.625    21159144.237          33.269  
   -608416.841    20572246.229          37.567  
    -46813.063    24589349.453          27.139  
    202775.430    23706883.077          32.379  
    186799.129    21352709.731          36.762  
       -17.632    25964851.803           7.000  
   -644201.770    22859885.735          43.704  
   1286678.453    22609995.528          39.310  
   -451886.947    24024640.898          45.662  
    266803.960    21288491.481          36.938  
       -74.208    25318865.316          18.344  
   -510560.029    20805028.190          38.536  
        81.567    24697287.024          19.446  
 19  7  4  4 47  1.9999252  0 16G 1G 3G 6G 8G11G14G17G18G19G22G23G28G30G 1G 3G 8
    867350.513    21159484.202          34.794  
   -609581.509    20572021.994          38.117  
    -46813.116    24588786.439          26.118  
    205006.421    23707304.570          30.321  
    188428.260    21353014.917          35.512  
       -17.647    25964724.992           7.000  
   -646719.653    22859408.157          45.322  
   1289371.297    22610506.680          39.853  
   -455033.244    24024043.106          44.843  
    267446.127    21288611.695          37.338  
       -74.266    25318391.647           9.315  
   -511543.359    20804845.609          38.444  
        81.623    24697741.515          11.492  
 19  7  4  4 47  2.9999252  0 16G 1G 3G 6G 8G11G14G17G18G19G22G23G28G30G 1G 3G 8
    869181.534    21159844.253          33.746  
   -610745.945    20571799.539          35.813  
    -46813.001    24588224.333          24.554  
    207233.457    23707723.096          29.893  
    190054.929    21353327.294          33.724  
       -17.621    25964597.885           7.000  
   -649237.693    22858929.096          45.868  
   1292063.694    22611017.814          40.071  
   -458179.626    24023443.516          44.136  
    268088.217    21288734.911          36.455  
       -74.169    25317917.682          11.901  
   -512525.733    20804657.338          39.775  
        81.529    24698196.006          18.765  
 19  7  4  4 47  3.9999252  0 16G 1G 3G 6G 8G11G14G17G18G19G22G23G28G30G 1G 3G 8
    871012.547    21160184.218          36.090  
   -611911.553    20571577.101          36.911  
    -46813.070    24587662.226          23.308  
    209461.112    23708143.402          29.787  
    191682.684    21353638.187          36.507  
       -17.624    25964471.074           7.000  
   -651757.484    22858450.926          45.763  
   1294754.634    22611531.967          38.584  
   -461327.951    24022843.037          42.019  
    268729.135    21288856.941          37.839  
       -74.242    25317443.402          19.250  
   -513509.743    20804466.066          38.011  
        81.586    24698651.387          16.363  
 19  7  4  4 47  4.9999252  0 16G 1G 3G 6G 8G11G14G17G18G19G22G23G28G30G 1G 3G 8
    872843.271    21160537.969          36.077  
   -613076.285    20571362.446          38.021  
    -46813.189    24587099.509          25.295  
    211679.692    23708570.007          29.294  
    193310.381    21353946.968          37.911  
       -17.678    25964343.356           7.000  
   -654277.255    22857968.253          45.136  
   1297445.654    22612044.009          37.988  
   -464476.248    24022246.152          42.597  
    269367.521    21288978.045          35.915  
       -74.344    25316969.123           7.000  
   -514493.760    20804284.096          38.246  
        81.592    24699105.267          11.136  
 19  7  4  4 47  5.9999252  0 16G 1G 3G 6G 8G11G14G17G18G19G22G23G28G30G 1G 3G 8
    874673.208    21160892.627          32.837  
   -614238.808    20571136.396          36.358  
    -46813.073    24586537.699          21.453  
    213904.348    23709002.301          30.070  
    194940.691    21354259.362          34.630  
       -17.639    25964216.545           7.000  
   -656795.623    22857489.785          45.819  
   1300138.468    22612556.958          37.872  
   -467623.266    24021643.858          41.198  
    270011.865    21289103.966          36.985  
       -74.247    25316495.158          10.207  
   -515475.053    20804096.418          40.734  
        81.499    24699560.945          15.074  
 19  7  4  4 47  6.9999252  0 16G 1G 3G 6G 8G11G14G17G18G19G22G23G28G30G 1G 3G 8
    876504.683    21161240.078          30.076  
   -615400.276    20570919.960          36.514  
    -46813.110    24585975.890          24.206  
    216130.079    23709433.409          31.420  
    196569.735    21354574.147          33.420  
       -17.630    25964090.939           7.000  
   -659313.655    22857012.522          45.664  
   1302832.025    22613067.796          38.270  
   -470769.870    24021047.880          39.834  
    270656.957    21289227.479          38.013  
       -74.290    25316021.489          18.362  
   -516455.317    20803909.055          41.314  
        81.571    24700015.732           7.000  
 19  7  4  4 47  7.9999252  0 16G 1G 3G 6G 8G11G14G17G18G19G22G23G28G30G 1G 3G 8
    878337.082    21161592.939          30.638  
   -616561.593    20570698.709          36.326  
    -46813.146    24585415.267          25.517  
    218353.674    23709852.214          32.357  
    198195.611    21354879.927          34.412  
       -17.620    25963965.332           7.000  
   -661832.166    22856530.756          45.990  
   1305524.735    22613582.839          37.857  
   -473917.020    24020447.994          40.375  
    271301.963    21289344.692          37.909  
       -74.320    25315549.007           7.000  
   -517435.487    20803723.490          41.667  
        81.660    24700471.724          20.575  
 19  7  4  4 47  8.9999252  0 16G 1G 3G 6G 8G11G14G17G18G19G22G23G28G30G 1G 3G 8
    880168.356    21161936.499          31.076  
   -617723.880    20570471.769          37.242  
    -46813.047    24584854.068          33.059  
    220578.118    23710273.724          31.315  
    199823.659    21355191.117          35.891  
       -17.619    25963837.910           9.847  
   -664352.337    22856052.882          43.911  
   1308215.446    22614101.494          37.863  
   -477065.809    24019848.108          41.236  
    271945.901    21289473.003          37.052  
       -74.252    25315074.745          14.017  
   -518416.811    20803536.423          40.126  
        81.534    24700926.808          16.105  
 19  7  4  4 47  9.9999252  0 16G 1G 3G 6G 8G11G14G17G18G19G22G23G28G30G 1G 3G 8
    882000.160    21162283.060          31.776  
   -618885.786    20570251.408          36.340  
    -46813.149    24584290.757          31.220  
    222798.901    23710693.734          30.882  
    201452.127    21355495.099          36.556  
       -17.647    25963710.803          14.640  
   -666872.702    22855573.228          43.774  
   1310906.759    22614603.345          37.051  
   -480214.968    24019251.520          42.381  
    272590.378    21289589.623          36.411  
       -74.339    25314599.279          11.406  
   -519397.769    20803351.451          39.244  
        81.573    24701380.985          17.311  
 19  7  4  4 47 10.9999252  0 16G 1G 3G 6G 8G11G14G17G18G19G22G23G28G30G 1G 3G 8
    883833.178    21162638.312          31.224  
   -620046.361    20570032.565          36.349  
    -46815.620    24583728.651          34.888  
    225025.293    23711106.553          33.143  
    203082.151    21355808.383          34.749  
       -17.609    25963583.696           7.000  
   -669392.624    22855094.446          45.604  
   1313598.629    22615117.778          38.774  
   -483363.678    24018652.541          42.253  
    273235.906    21289715.841          38.212  
       -74.242    25314125.296           7.000  
   -520377.674    20803162.273          40.486  
        81.463    24701835.476          15.923  
 19  7  4  4 47 11.9999252  0 16G 1G 3G 6G 8G11G14G17G18G19G22G23G28G30G 1G 3G 8
    885665.830    21162973.775          34.629  
   -621205.622    20569809.516          38.012  
    -46813.070    24583166.823          27.386  
    227247.868    23711538.254          32.542  
    204714.168    21356116.868          36.545  
       -17.599    25963458.071           7.000  
   -671911.678    22854612.977          42.511  
   1316291.269    22615627.429          38.187  
   -486511.558    24018050.858          42.526  
    273882.745    21289839.947          36.835  
       -74.271    25313651.627           7.000  
   -521355.279    20802978.505          37.520  
        81.552    24702290.264          18.014  
 19  7  4  4 47 12.9999252  0 16G 1G 3G 6G 8G11G14G17G18G19G22G23G28G30G 1G 3G 8
    887501.680    21163335.029          34.566  
   -622362.536    20569590.376          38.215  
    -46813.139    24582605.921          41.024  
    229468.372    23711961.248          32.560  
    206345.213    21356432.560          37.874  
       -17.615    25963332.168           9.720  
   -674428.993    22854133.009          45.403  
   1318985.944    22616140.971          38.703  
   -489657.728    24017454.566          43.608  
    274531.472    21289958.678          36.810  
       -74.329    25313177.958           7.000  
   -522332.555    20802789.938          39.616  
        81.609    24702745.941          12.747  
 19  7  4  4 47 13.9999252  0 16G 1G 3G 6G 8G11G14G17G18G19G22G23G28G30G 1G 3G 8
    889336.328    21163687.593          33.340  
   -623517.653    20569373.330          37.533  
    -46815.574    24582044.408          31.472  
    231696.263    23712389.965          32.340  
    207977.702    21356741.342          36.826  
       -17.551    25963206.841           7.000  
   -676945.534    22853654.541          44.932  
   1321681.498    22616651.216          37.367  
   -492803.334    24016854.384          43.888  
    275181.819    21290083.988          36.144  
       -74.217    25312703.976           7.000  
   -523308.036    20802604.966          40.158  
        81.532    24703200.432           7.000  
 19  7  4  4 47 14.9999252  0 16G 1G 3G 6G 8G11G14G17G18G19G22G23G28G30G 1G 3G 8
    891172.581    21164023.056          35.076  
   -624672.778    20569154.173          37.923  
    -46813.060    24581483.192          42.103  
    233924.930    23712815.959          31.452  
    209611.093    21357048.919          35.251  
       -17.566    25963080.937          16.363  
   -679461.963    22853176.684          44.814  
   1324376.910    22617165.072          38.645  
   -495948.414    24016257.499          44.441  
    275832.732    21290209.891          38.177  
       -74.276    25312230.307           7.000  
   -524282.495    20802419.679          39.451  
        81.588    24703656.110          20.291  
 19  7  4  4 47 15.9999252  0 16G 1G 3G 6G 8G11G14G17G18G19G22G23G28G30G 1G 3G 8
    893009.122    21164374.120          38.570  
   -625827.158    20568928.437          37.053  
    -46812.911    24580922.882          29.811  
    236149.920    23713244.065          31.211  
    211244.647    21357358.312          35.297  
       -17.557    25962956.517           7.000  
   -681977.231    22852702.405          40.592  
   1327072.741    22617687.305          35.043  
   -499093.553    24015659.707          44.243  
    276484.211    21290332.217          37.058  
       -74.320    25311756.342           7.000  
   -525256.311    20802233.520          39.585  
        81.677    24704112.101          17.593  
 19  7  4  4 47 16.9999252  0 16G 1G 3G 6G 8G11G14G17G18G19G22G23G28G30G 1G 3G 8
    894845.335    21164720.664          37.830  
   -626981.765    20568714.986          36.891  
    -46813.014    24580361.369          32.339  
    238371.798    23713668.577          32.145  
    212877.613    21357669.501          36.122  
       -17.543    25962830.614           7.000  
   -684494.207    22852221.843          39.726  
   1329767.583    22618194.548          36.409  
   -502239.551    24015058.617          42.539  
    277135.136    21290456.323          35.669  
       -74.252    25311283.266           7.000  
   -526229.869    20802051.550          38.300  
        81.567    24704567.482          22.640  
 19  7  4  4 47 17.9999252  0 16G 1G 3G 6G 8G11G14G17G18G19G22G23G28G30G 1G 3G 8
    896679.792    21165072.635          37.031  
   -628137.304    20568493.124          37.184  
    -46813.083    24579800.467          30.957  
    240592.134    23714099.370          31.667  
    214508.815    21357982.785          37.856  
       -17.546    25962705.897           7.000  
   -687012.826    22851741.264          40.689  
   1332460.365    22618707.200          40.191  
   -505386.930    24014459.935          43.797  
    277784.209    21290581.040          35.702  
       -74.310    25310809.301           7.811  
   -527205.880    20801859.981          35.578  
        81.606    24705022.881          17.221  
 19  7  4  4 47 18.9999252  0 16G 1G 3G 6G 8G11G14G17G18G19G22G23G28G30G 1G 3G 8
    898515.686    21165424.588          34.393  
   -629291.513    20568276.375          36.872  
    -46815.568    24579239.547          25.463  
    242812.795    23714516.378          33.242  
    216143.148    21358294.865          35.145  
       -17.546    25962579.680           7.000  
   -689530.403    22851261.610          44.158  
   1335153.511    22619215.351          39.297  
   -508533.505    24013862.160          44.692  
    278435.025    21290704.849          36.681  
       -74.242    25310335.021           7.000  
   -528179.317    20801679.197          39.800  
        81.496    24705478.261          20.413  
 19  7  4  4 47 19.9999252  0 16G 1G 3G 6G 8G11G14G17G18G19G22G23G28G30G 1G 3G 8
    900352.809    21165769.038          36.162  
   -630443.888    20568054.530          36.816  
    -46815.620    24578677.737          24.813  
    245039.224    23714933.700          30.524  
    217778.113    21358606.944          35.060  
       -17.561    25962454.963           7.000  
   -692047.148    22850779.234          44.044  
   1337849.356    22619731.895          39.125  
   -511679.259    24013261.960          44.684  
    279088.315    21290828.362          35.269  
       -74.300    25309861.056          13.057  
   -529151.644    20801490.333          38.310  
        81.552    24705933.939           7.000  
 19  7  4  4 47 20.9999252  0 16G 1G 3G 6G 8G11G14G17G18G19G22G23G28G30G 1G 3G 8
    902189.493    21166124.604          35.945  
   -631595.425    20567835.687          36.222  
    -46815.672    24578116.835          23.534  
    247265.448    23715357.601          29.799  
    219412.451    21358913.632          36.603  
       -17.539    25962329.356           7.000  
   -694563.647    22850304.972          44.541  
   1340543.657    22620246.327          39.800  
   -514824.883    24012663.574          42.932  
    279742.259    21290950.391          37.152  
       -74.329    25309387.684          16.045  
   -530122.999    20801309.252          39.001  
        81.625    24706388.727          16.737  
 19  7  4  4 47 21.9999252  0 16G 1G 3G 6G 8G11G14G17G18G19G22G23G28G30G 1G 3G 8
    904031.706    21166472.666          32.636  
   -632746.543    20567615.640          34.875  
    -46815.556    24577555.915          24.773  
    249492.677    23715774.312          31.167  
    221046.642    21359223.914          33.647  
       -17.513    25962204.640           7.000  
   -697080.484    22849823.503          45.661  
   1343238.789    22620753.587          39.282  
   -517970.801    24012065.503          43.379  
    280396.698    21291077.202          38.542  
       -74.232    25308913.701          15.892  
   -531093.890    20801125.187          41.129  
        81.532    24706844.107          16.581  
 19  7  4  4 47 22.9999252  0 16G 1G 3G 6G 8G11G14G17G18G19G22G23G28G30G 1G 3G 8
    905868.202    21166824.916          31.854  
   -633897.286    20567396.186          36.461  
    -46815.626    24576994.996          21.696  
    251722.078    23716197.323          30.757  
    222680.187    21359535.104          33.946  
       -17.528    25962079.923           9.970  
   -699597.821    22849344.425          44.779  
   1345933.766    22621272.522          38.705  
   -521117.187    24011467.117          44.154  
    281051.325    21291200.715          38.363  
       -74.290    25308439.736           7.000  
   -532065.298    20800937.807          40.075  
        81.588    24707299.802          15.258  
 19  7  4  4 47 23.9999252  0 16G 1G 3G 6G 8G11G14G17G18G19G22G23G28G30G 1G 3G 8
    907703.359    21167175.072          35.582  
   -635049.069    20567182.438          37.583  
    -46815.695    24576434.093          27.423  
    253944.490    23716627.820          29.460  
    224316.095    21359848.091          33.845  
       -17.531    25961955.224           7.000  
   -702117.083    22848865.661          45.306  
   1348627.080    22621782.766          39.563  
   -524265.683    24010865.731          42.942  
    281704.744    21291331.120          38.100  
       -74.349    25307964.566          17.858  
   -533037.554    20800753.742          39.445  
        81.644    24707754.276           7.000  
 19  7  4  4 47 24.9999252  0 16G 1G 3G 6G 8G11G14G17G18G19G22G23G28G30G 1G 3G 8
    909538.390    21167520.429          37.942  
   -636200.467    20566958.796          38.389  
    -46815.597    24575871.987          25.477  
    256166.955    23717058.927          27.799  
    225948.138    21360154.168          36.166  
       -17.518    25961829.303          17.334  
   -704635.991    22848387.490          44.033  
   1351319.445    22622299.013          39.245  
   -527413.571    24010269.143          45.053  
    282358.570    21291453.132          35.405  
       -74.281    25307490.287           7.000  
   -534009.183    20800566.676          35.065  
        81.534    24708209.674          17.878  
 19  7  4  4 47 25.9999252  0 16G 1G 3G 6G 8G11G14G17G18G19G22G23G28G30G 1G 3G 8
    911375.891    21167867.898          38.823  
   -637349.836    20566739.342          37.522  
    -46815.649    24575311.067          28.560  
    258395.828    23717482.828          28.593  
    227582.673    21360470.750          37.223  
       -17.534    25961704.586           7.000  
   -707153.573    22847909.319          43.646  
   1354014.561    22622809.258          39.797  
   -530560.540    24009668.663          44.223  
    283014.422    21291580.257          35.873  
       -74.354    25307016.321           7.000  
   -534978.430    20800384.094          35.331  
        81.590    24708664.148          18.860  
 19  7  4  4 47 26.9999252  0 16G 1G 3G 6G 8G11G14G17G18G19G22G23G28G30G 1G 3G 8
    913214.118    21168218.944          38.760  
   -638498.114    20566520.499          37.686  
    -46815.920    24574749.851          33.619  
    260624.159    23717905.839          28.701  
    229218.178    21360780.439          36.878  
       -17.495    25961581.074           7.000  
   -709670.854    22847428.164          44.033  
   1356710.454    22623318.612          38.394  
   -533707.247    24009073.872          43.848  
    283671.518    21291704.956          36.860  
       -74.256    25306542.356           8.544  
   -535948.511    20800197.918          35.717  
        81.480    24709118.342           7.000  
 19  7  4  4 47 27.9999252  0 16G 1G 3G 6G 8G11G14G17G18G19G22G23G28G30G 1G 3G 8
    915052.341    21168567.913          37.778  
   -639645.726    20566303.750          37.879  
    -46815.603    24574189.245          38.836  
    262852.555    23718324.644          28.766  
    230853.105    21361092.833          35.944  
       -17.473    25961456.654           7.000  
   -712188.060    22846953.291          45.831  
   1359405.449    22623832.748          38.223  
   -536853.779    24008470.985          44.008  
    284328.950    21291826.375          38.317  
       -74.286    25306067.780           7.000  
   -536916.631    20800016.854          39.500  
        81.552    24709574.316          20.347  
 19  7  4  4 47 28.9999252  0 17G 1G 3G 6G 8G11G14G17G18G19G22G23G28G30G 1G 3G 6G 8
    916890.200    21168918.959          34.002  
   -640792.573    20566083.406          36.128  
    -49174.838    24573652.022          36.846  
    265083.395    23718742.263          29.873  
    232485.905    21361406.710          33.275  
       -17.488    25961331.954           7.000  
   -714705.585    22846468.524          46.604  
   1362101.810    22624346.290          35.147  
   -540000.536    24007876.491          41.247  
    284986.569    21291949.887          38.198  
       -74.344    25305593.797           7.000  
   -537884.595    20799833.679          41.739  
        81.609    24710029.714          21.130  
 19  7  4  4 47 29.9999252  0 17G 1G 3G 6G 8G11G14G17G18G19G22G23G28G30G 1G 3G 6G 8
    918728.477    21169272.414          31.288  
   -641940.415    20565868.751          36.760  
    -52123.158    24573086.007          37.347  
    267313.329    23719167.367          28.998  
    234120.647    21361717.585          32.598  
       -17.488    25961205.737          16.473  
   -717223.918    22845992.447          46.780  
   1364795.731    22624862.834          36.983  
   -543148.299    24007273.917          43.557  
    285643.671    21292075.511          38.241  
       -74.276    25305118.331           9.589  
   -538853.063    20799644.816          41.842  
        81.515    24710484.188          13.771  
 19  7  4  4 47 30.9999252  0 17G 1G 3G 6G 8G11G14G17G18G19G22G23G28G30G 1G 3G 6G 8
    920563.687    21169619.882          32.206  
   -643089.170    20565650.501          35.813  
    -55072.877    24572526.291          37.955  
    269542.858    23719592.472          29.339  
    235753.715    21362028.478          32.499  
       -17.503    25961081.020          17.656  
   -719743.348    22845510.682          47.149  
   1367489.027    22625369.187          36.041  
   -546297.175    24006676.422          44.040  
    286300.341    21292201.415          38.396  
       -74.334    25304643.162           7.000  
   -539822.038    20799465.532          41.254  
        81.571    24710938.679          23.431  
 19  7  4  4 47 31.9999252  0 17G 1G 3G 6G 8G11G14G17G18G19G22G23G28G30G 1G 3G 6G 8
    922401.932    21169969.131          35.313  
   -644234.601    20565430.454          37.446  
    -58020.798    24571959.683          38.233  
    271773.564    23720015.780          28.785  
    237387.587    21362329.774          33.406  
       -17.531    25960956.007           7.000  
   -722261.491    22845034.012          46.663  
   1370183.804    22625885.435          37.038  
   -549444.726    24006074.442          44.562  
    286959.197    21292327.929          38.746  
       -74.422    25304168.900           7.000  
   -540788.583    20799277.262          39.021  
        81.594    24711394.060          25.179  
 19  7  4  4 47 32.9999252  0 17G 1G 3G 6G 8G11G14G17G18G19G22G23G28G30G 1G 3G 6G 8
    924241.633    21170317.490          33.507  
   -645379.417    20565213.111          38.102  
    -60967.780    24571403.876          38.177  
    274005.585    23720446.276          28.468  
    239023.808    21362644.855          34.805  
       -17.480    25960831.587           7.000  
   -724778.671    22844553.153          45.832  
   1372879.156    22626393.882          36.426  
   -552591.275    24005478.150          44.166  
    287619.149    21292451.738          38.198  
       -74.310    25303692.823          15.468  
   -541754.233    20799097.088          40.276  
        81.517    24711848.551          32.312  
 19  7  4  4 47 33.9999252  0 17G 1G 3G 6G 8G11G14G17G18G19G22G23G28G30G 1G 3G 6G 8
    926085.052    21170666.459          33.081  
   -646523.196    20564992.453          37.327  
    -63912.453    24570845.661          38.336  
    276237.546    23720866.896          28.209  
    240659.132    21362958.435          32.670  
       -17.483    25960708.074           7.000  
   -727295.707    22844077.076          46.467  
   1375574.306    22626910.425          37.081  
   -555737.770    24004879.468          43.377  
    288279.700    21292577.362          38.755  
       -74.368    25303219.154           7.000  
   -542718.883    20798909.725          40.615  
        81.573    24712304.228          31.002  
 19  7  4  4 47 34.9999252  0 17G 1G 3G 6G 8G11G14G17G18G19G22G23G28G30G 1G 3G 6G 8
    927925.837    21171019.320          32.759  
   -647666.091    20564775.704          37.263  
    -66854.569    24570285.649          37.450  
    278470.428    23721293.799          28.544  
    242295.257    21363270.812          33.807  
       -17.445    25960583.672           7.000  
   -729813.127    22843595.608          46.496  
   1378270.333    22627422.764          38.883  
   -558884.780    24004279.286          41.519  
    288941.376    21292703.266          38.158  
       -74.242    25302744.281          11.822  
   -543683.398    20798729.534          40.726  
        81.529    24712759.312          31.257  
 19  7  4  4 47 35.9999252  0 17G 1G 3G 6G 8G11G14G17G18G19G22G23G28G30G 1G 3G 6G 8
    929767.974    21171366.178          33.621  
   -648808.868    20564559.251          36.985  
    -69801.805    24569723.542          38.125  
    280703.191    23721721.294          29.840  
    243932.021    21363577.813          33.869  
       -17.435    25960459.252           7.000  
   -732331.083    22843115.936          47.099  
   1380966.060    22627935.416          38.543  
   -562032.329    24003681.197          41.730  
    289603.073    21292830.687          38.197  
       -74.300    25302270.299           7.000  
   -544647.874    20798544.876          41.152  
        81.569    24713214.693          26.945  
 19  7  4  4 47 36.9999252  0 17G 1G 3G 6G 8G11G14G17G18G19G22G23G28G30G 1G 3G 6G 8
    931608.205    21171722.633          30.212  
   -649953.829    20564344.300          35.272  
    -72751.026    24569164.716          36.785  
    282933.524    23722144.305          28.783  
    245566.843    21363891.987          34.609  
       -17.463    25960335.442           7.000  
   -734850.552    22842636.578          45.326  
   1383660.095    22628447.161          38.909  
   -565181.429    24003086.720          39.691  
    290263.725    21292954.793          37.442  
       -74.373    25301796.333          13.232  
   -545613.918    20798360.794          41.020  
        81.592    24713668.591          29.693  
 19  7  4  4 47 37.9999252  0 17G 1G 3G 6G 8G11G14G17G18G19G22G23G28G30G 1G 3G 6G 8
    933447.789    21172077.274          31.176  
   -651096.009    20564126.346          35.145  
    -75698.428    24568603.517          37.138  
    285160.962    23722575.412          25.918  
    247198.901    21364201.973          33.153  
       -17.450    25960210.429          12.551  
   -737369.226    22842159.612          45.773  
   1386355.194    22628962.798          38.598  
   -568329.100    24002484.723          39.783  
    290925.708    21293082.511          38.135  
       -74.320    25301320.570          19.951  
   -546578.198    20798176.729          40.846  
        81.465    24714122.768          31.836  
 19  7  4  4 47 38.9999252  0 16G 1G 3G 6G 8G11G14G17G18G19G22G23G28G30G 1G 3G 6
    935286.156    21172427.744          30.137  
   -652236.783    20563905.113          36.196  
    -78643.771    24568041.708          37.099  
     81466.572    23722978.931          27.054  
    248832.962    21364514.663          34.304  
       -17.440    25960087.213           7.000  
   -739886.972    22841678.439          45.824  
   1389051.191    22629474.840          38.889  
   -571476.629    24001888.449          39.176  
    291589.350    21293209.025          37.896  
       -74.349    25300845.994           7.000  
   -547540.817    20797995.648          41.201  
        81.555    24714578.759          31.801  
 19  7  4  4 47 39.9999252  0 16G 1G 3G 6G 8G11G14G17G18G19G22G23G28G30G 1G 3G 6
    937130.988    21172773.992          29.955  
   -653376.269    20563690.161          36.130  
    -81589.032    24567478.100          34.433  
     81466.485    23723403.739          26.091  
    250470.920    21364828.244          32.969  
       -17.455    25959963.386          16.813  
   -742404.373    22841198.768          44.580  
   1391747.837    22629988.696          37.789  
   -574623.643    24001291.250          37.701  
    292253.303    21293335.539          37.834  
       -74.407    25300370.825           7.000  
   -548502.382    20797811.583          40.645  
        81.611    24715034.437          29.072  
 19  7  4  4 47 40.9999252  0 16G 1G 3G 6G 8G11G14G17G18G19G22G23G28G30G 1G 3G 6
    938972.386    21173123.258          33.340  
   -654515.599    20563478.210          35.920  
    -84534.982    24566923.480          32.951  
     81466.576    23723829.734          27.096  
    252108.786    21365137.933          34.710  
       -17.404    25959840.188          15.222  
   -744921.407    22840723.005          40.915  
   1394444.160    22630499.237          33.818  
   -577765.233    24000693.772          34.106  
    292918.249    21293461.739          37.354  
       -74.295    25299897.156          14.843  
   -549464.095    20797631.095          37.490  
        81.534    24715488.928          29.977  
 19  7  4  4 47 41.9999252  0 16G 1G 3G 6G 8G11G14G17G18G19G22G23G28G30G 1G 3G 6
    940812.050    21173465.910          33.920  
   -655656.385    20563255.755          35.690  
    -87475.679    24566361.670          32.277  
     81466.609    23724254.245          26.345  
    253745.363    21365447.011          35.405  
       -17.432    25959716.361           7.000  
   -747435.728    22840238.831          37.966  
   1397140.075    22631017.282          33.124  
   -580909.762    24000089.087          35.976  
    293582.049    21293589.161          37.093  
       -74.368    25299421.969           7.000  
   -550427.633    20797447.938          36.983  
        81.573    24715944.605          24.346  
 19  7  4  4 47 42.9999252  0 16G 1G 3G 6G 8G11G14G17G18G19G22G23G28G30G 1G 3G 6
    942650.500    21173818.474          34.091  
   -656796.224    20563038.413          35.513  
    -90421.072    24565804.049          30.553  
     81466.522    23724679.054          28.181  
    255384.742    21365757.590          35.594  
       -17.407    25959592.848           7.000  
   -749955.983    22839760.067          37.775  
   1399836.705    22631534.419          32.932  
   -584056.050    23999489.497          34.772  
    294245.764    21293712.673          36.947  
       -74.271    25298948.004           7.000  
   -551390.968    20797263.262          37.411  
        81.480    24716398.800          28.898  
 19  7  4  4 47 43.9999252  0 16G 1G 3G 6G 8G11G14G17G18G19G22G23G28G30G 1G 3G 6
    944490.503    21174165.332          33.728  
   -657935.685    20562825.851          35.059  
    -93363.441    24565245.240          31.092  
     81466.574    23725103.862          30.742  
    257021.123    21366079.267          34.073  
       -17.422    25959469.039           7.000  
   -752474.977    22839280.692          38.760  
   1402536.484    22632041.365          31.390  
   -587205.346    23998894.113          33.142  
    294910.318    21293841.281          37.765  
       -74.329    25298472.834          11.136  
   -552352.076    20797080.384          35.943  
        81.536    24716854.477          32.034  
 19  7  4  4 47 44.9999252  0 16G 1G 3G 6G 8G11G14G17G18G19G22G23G28G30G 1G 3G 6
    946330.375    21174510.393          33.600  
   -659073.842    20562606.415          34.772  
    -96306.604    24564690.620          32.248  
     81466.646    23725528.670          26.444  
    258658.548    21366386.862          33.807  
       -17.425    25959345.823           7.000  
   -754993.824    22838803.725          42.910  
   1405230.816    22632552.220          35.428  
   -590353.948    23998289.132          38.555  
    295576.003    21293966.295          38.973  
       -74.388    25297997.962           7.000  
   -553312.442    20796896.005          38.489  
        81.592    24717308.968          35.972  
 19  7  4  4 47 45.9999252  0 16G 1G 3G 6G 8G11G14G17G18G19G22G23G28G30G 1G 3G 6
    948171.501    21174866.552          33.601  
   -660206.305    20562390.556          35.065  
    -99249.756    24564114.728          34.837  
     81466.559    23725953.460          24.297  
    260297.188    21366701.036          32.203  
       -17.399    25959222.014           7.000  
   -757510.443    22838324.665          43.014  
   1407928.240    22633064.559          35.413  
   -593500.374    23997688.652          39.379  
    296244.598    21294094.903          38.801  
       -74.290    25297522.792          14.640  
   -554270.165    20796712.830          39.286  
        81.515    24717763.756          36.316  
 19  7  4  4 47 46.9999252  0 16G 1G 3G 6G 8G11G14G17G18G19G22G23G28G30G 1G 3G 6
    950014.899    21175214.911          33.970  
   -661339.254    20562175.307          34.575  
   -102192.539    24563555.309          36.107  
     81466.650    23726379.473          22.452  
    261937.619    21367011.929          31.735  
       -17.389    25959098.798          11.318  
   -760025.806    22837842.288          41.062  
   1410626.966    22633583.197          35.781  
   -596645.603    23997095.362          39.974  
    296914.747    21294224.418          38.591  
       -74.334    25297047.920           7.000  
   -555225.643    20796531.766          38.615  
        81.588    24718218.229          35.115  
 19  7  4  4 47 47.9999252  0 16G 1G 3G 6G 8G11G14G17G18G19G22G23G28G30G 1G 3G 6
    951859.940    21175565.067          31.772  
   -662471.958    20561959.152          34.998  
   -105129.515    24563002.189          33.340  
     81466.582    23726805.485          28.020  
    263576.316    21367324.305          31.876  
       -17.366    25958976.786           7.000  
   -762541.366    22837365.618          44.244  
   1413325.560    22634091.050          38.591  
   -599791.051    23996494.272          40.606  
    297585.429    21294351.229          39.197  
       -74.378    25296574.251          16.937  
   -556180.661    20796349.796          38.173  
        81.660    24718673.924          33.448  
 19  7  4  4 47 48.9999252  0 16G 1G 3G 6G 8G11G14G17G18G19G22G23G28G30G 1G 3G 6
    953706.595    21175920.912          31.622  
   -663604.161    20561745.404          35.723  
   -108071.713    24562435.284          38.068  
     81466.635    23727231.479          27.565  
    265217.383    21367635.198          33.876  
       -17.341    25958854.460           7.000  
   -765057.397    22836890.152          46.763  
   1416023.848    22634605.797          37.920  
   -602936.507    23995894.089          40.755  
    298256.538    21294475.649          37.986  
       -74.281    25296100.285           9.847  
   -557136.107    20796169.308          40.507  
        81.567    24719129.602          34.306  
 19  7  4  4 47 49.9999252  0 16G 1G 3G 6G 8G11G14G17G18G19G22G23G28G30G 1G 3G 6
    955550.597    21176272.882          30.116  
   -664736.222    20561525.060          36.488  
   -111007.865    24561879.163          35.923  
     81466.707    23727657.492          26.882  
    266860.076    21367947.889          33.323  
       -17.356    25958731.855          13.401  
   -767573.701    22836408.980          46.736  
   1418721.793    22635118.432          37.728  
   -606082.808    23995293.313          41.321  
    298927.777    21294605.758          38.767  
       -74.339    25295626.303           7.000  
   -558091.225    20795985.836          41.089  
        81.640    24719585.593          35.527  
 19  7  4  4 47 50.9999252  0 16G 1G 3G 6G 8G11G14G17G18G19G22G23G28G30G 1G 3G 6
    957393.145    21176621.834          31.479  
   -665869.268    20561312.795          37.067  
   -113950.394    24561317.650          35.553  
     81466.580    23728082.893          26.650  
    268505.907    21368257.264          33.591  
       -17.344    25958609.232          11.742  
   -770091.748    22835930.809          46.673  
   1421418.545    22635632.289          38.115  
   -609230.893    23994697.912          41.336  
    299598.113    21294733.773          37.644  
       -74.271    25295152.041           7.000  
   -559047.481    20795806.274          41.470  
        81.513    24720040.678          28.624  
 19  7  4  4 47 51.9999252  0 16G 1G 3G 6G 8G11G14G17G18G19G22G23G28G30G 1G 3G 6
    959236.575    21176972.898          30.459  
   -667001.026    20561095.453          36.711  
   -116895.185    24560748.948          34.072  
     81466.613    23728508.591          28.094  
    270140.872    21368563.061          35.356  
       -17.372    25958486.609           7.000  
   -772609.234    22835451.748          47.039  
   1424116.048    22636141.032          36.312  
   -612378.519    23994099.841          41.688  
    300269.473    21294859.973          37.427  
       -74.344    25294676.871           7.000  
   -560002.845    20795623.692          40.938  
        81.536    24720494.854          34.772  
 19  7  4  4 47 52.9999252  0 16G 1G 3G 6G 8G11G14G17G18G19G22G23G28G30G 1G 3G 6
    961080.138    21177323.944          31.525  
   -668130.991    20560883.206          38.190  
   -119840.757    24560195.235          35.858  
     81466.705    23728933.696          27.586  
    271782.845    21368880.237          36.591  
       -17.361    25958364.301          10.431  
   -775125.306    22834972.687          47.069  
   1426814.696    22636666.266          32.595  
   -615524.629    23993498.750          41.223  
    300942.713    21294987.691          36.676  
       -74.373    25294202.295           7.000  
   -560956.002    20795443.815          41.568  
        81.625    24720950.846          30.771  
 19  7  4  4 47 53.9999252  0 16G 1G 3G 6G 8G11G14G17G18G19G22G23G28G30G 1G 3G 6
    962924.842    21177676.212          31.246  
   -669259.872    20560666.457          38.102  
   -122781.957    24559634.629          36.515  
     81466.617    23729359.411          28.315  
    273426.431    21369193.224          36.196  
       -17.336    25958241.992          15.954  
   -777640.773    22834493.906          46.420  
   1429513.962    22637173.806          35.782  
   -618670.316    23992901.866          39.989  
    301617.154    21295119.597          37.149  
       -74.290    25293728.016           7.000  
   -561908.232    20795259.140          41.516  
        81.532    24721405.337          32.974  
 19  7  4  4 47 54.9999252  0 16G 1G 3G 6G 8G11G14G17G18G19G22G23G28G30G 1G 3G 6
    964770.669    21178025.460          31.440  
   -670388.257    20560456.897          35.915  
   -125723.798    24559072.505          36.751  
     81466.709    23729785.720          25.504  
    275067.770    21369505.303          33.540  
       -17.313    25958119.963          12.617  
   -780155.996    22834012.140          42.269  
   1432212.192    22637688.849          35.474  
   -621810.118    23992310.373          33.876  
    302292.304    21295245.518          38.102  
       -74.334    25293253.143           7.000  
   -562859.329    20795076.872          39.068  
        81.604    24721861.014          36.112  
 19  7  4  4 47 55.9999252  0 16G 1G 3G 6G 8G11G14G17G18G19G22G23G28G30G 1G 3G 6
    966616.032    21178373.226          30.812  
   -671516.433    20560238.351          35.577  
   -128666.459    24558515.494          37.215  
     81466.582    23730212.326          29.372  
    276710.121    21369822.479          32.361  
       -17.341    25957997.357           7.000  
   -782671.753    22833535.470          40.166  
   1434911.507    22638197.314          37.400  
   -624956.069    23991701.797          33.951  
    302967.396    21295370.531          37.496  
       -74.422    25292777.677           7.000  
   -563809.481    20794898.199          38.170  
        81.627    24722315.209          31.565  
 19  7  4  4 47 56.9999252  0 16G 1G 3G 6G 8G11G14G17G18G19G22G23G28G30G 1G 3G 6
    968458.218    21178730.868          33.357  
   -672644.965    20560022.195          34.577  
   -131611.294    24557952.184          35.800  
     81466.654    23730638.320          28.479  
    278348.824    21370138.764          32.277  
       -17.303    25957876.235           7.000  
   -785188.449    22833056.112          39.875  
   1437608.497    22638712.357          33.428  
   -628101.339    23991105.209          33.059  
    303640.604    21295501.827          38.481  
       -74.310    25292304.008           8.710  
   -564760.359    20794717.415          37.796  
        81.534    24722770.590          33.207  
 19  7  4  4 47 57.9999252  0 16G 1G 3G 6G 8G11G14G17G18G19G22G23G28G30G 1G 3G 6
    970300.697    21179079.837          36.198  
   -673774.598    20559808.150          35.528  
   -134552.216    24557415.258          33.818  
     81466.668    23731062.535          27.235  
    279988.548    21370445.451          35.877  
       -17.344    25957753.316           7.000  
   -787706.692    22832577.034          38.547  
   1440303.052    22639226.492          31.643  
   -631249.867    23990505.619          33.120  
    304314.586    21295631.936          35.714  
       -74.398    25291828.542           7.000  
   -565715.075    20794536.352          37.495  
        81.573    24723225.063          30.207  
 19  7  4  4 47 58.9999252  0 16G 1G 3G 6G 8G11G14G17G18G19G22G23G28G30G 1G 3G 6
    972144.766    21179429.993          35.002  
   -674902.136    20559594.996          36.557  
   -137492.115    24556834.864          32.489  
     81466.580    23731488.530          33.117  
    281630.023    21370758.438          36.437  
       -17.318    25957630.711           7.000  
   -790223.385    22832099.474          38.879  
   1443000.013    22639742.740          32.291  
   -634396.421    23989909.031          33.401  
    304989.470    21295755.762          35.087  
       -74.300    25291353.355          19.446  
   -566667.245    20794352.880          37.756  
        81.480    24723679.554          32.805  
 19  7  4  4 47 59.9999252  0 16G 1G 3G 6G 8G11G14G17G18G19G22G23G28G30G 1G 3G 6
    973990.732    21179783.151          35.135  
   -676028.339    20559379.433          35.265  
   -140438.454    24556279.353          33.926  
     81466.672    23731915.746          29.902  
    283273.524    21371063.625          34.468  
       -17.308    25957509.886          16.335  
   -792739.263    22831620.710          41.837  
   1445699.861    22640256.876          33.374  
   -637542.707    23989310.349          33.000  
    305664.187    21295886.761          37.656  
       -74.329    25290878.796           7.000  
   -567617.467    20794170.595          37.324  
        81.552    24724135.249          23.742  
 19  7  4  4 48  0.9999252  0 16G 1G 3G 6G 8G11G14G17G18G19G22G23G28G30G 1G 3G 6
    975837.038    21180131.195          34.718  
   -677153.221    20559165.092          35.321  
   -143379.654    24555719.638          35.397  
     81466.724    23732341.741          27.688  
    284915.828    21371378.410          33.745  
       -17.311    25957387.577          18.164  
   -795255.821    22831140.427          44.546  
   1448399.382    22640767.120          34.650  
   -640689.127    23988710.463          35.119  
    306341.560    21296016.573          37.431  
       -74.403    25290403.627           7.000  
   -568567.047    20793994.016          39.570  
        81.609    24724589.722          32.115  
 19  7  4  4 48  1.9999252  0 16G 1G 3G 6G 8G11G14G17G18G19G22G23G28G30G 1G 3G 6
    977679.831    21180482.259          34.369  
   -678278.996    20558953.439          34.793  
   -146322.475    24555156.327          33.618  
     81466.656    23732767.753          34.032  
    286557.945    21371696.789          34.782  
       -17.286    25957266.158           7.000  
   -797773.105    22830661.070          44.256  
   1451096.812    22641282.477          35.164  
   -643836.879    23988110.280          37.386  
    307018.381    21296143.698          38.284  
       -74.305    25289928.458           7.000  
   -569516.706    20793811.452          39.494  
        81.515    24725045.417          33.576  
 19  7  4  4 48  2.9999252  0 16G 1G 3G 6G 8G11G14G17G18G19G22G23G28G30G 1G 3G 6
    979524.656    21180836.324          38.127  
   -679404.348    20558734.892          36.183  
   -149265.300    24554602.300          32.030  
     81466.670    23733193.154          30.233  
    288199.860    21372010.369          33.635  
       -17.313    25957143.553           7.000  
   -800290.571    22830180.194          43.128  
   1453790.033    22641794.519          33.840  
   -646984.551    23987507.393          34.997  
    307695.570    21296274.400          37.838  
       -74.393    25289452.974           9.970  
   -570469.058    20793628.870          36.789  
        81.555    24725499.594          31.273  
 19  7  4  4 48  3.9999252  0 16G 1G 3G 6G 8G11G14G17G18G19G22G23G28G30G 1G 3G 6
    981369.896    21181181.070          37.137  
   -680528.821    20558521.738          34.301  
   -152204.109    24554039.897          35.660  
     81466.582    23733617.963          24.716  
    289843.507    21372320.652          33.764  
       -17.328    25957022.135          15.766  
   -802807.282    22829705.636          44.041  
   1456486.506    22642308.951          33.147  
   -650131.767    23986912.009          36.762  
    308374.008    21296403.602          37.607  
       -74.451    25288978.101           7.000  
   -571419.633    20793448.400          38.297  
        81.611    24725955.289          31.975  
 19  7  4  4 48  4.9999252  0 16G 1G 3G 6G 8G11G14G17G18G19G22G23G28G30G 1G 3G 6
    983217.206    21181542.028          38.160  
   -681651.167    20558308.287          34.790  
   -155147.367    24553479.588          32.701  
     81466.674    23734045.161          30.667  
    291482.067    21372641.125          31.722  
       -17.278    25956901.309           7.000  
   -805322.930    22829223.852          42.342  
   1459187.021    22642826.106          33.091  
   -653277.828    23986313.920          38.723  
    309048.723    21296529.522          37.758  
       -74.324    25288503.228           7.000  
   -572365.142    20793270.914          37.793  
        81.534    24726409.763          29.555  
 19  7  4  4 48  5.9999252  0 16G 1G 3G 6G 8G11G14G17G18G19G22G23G28G30G 1G 3G 6
    985066.367    21181888.293          36.455  
   -682771.351    20558096.022          34.999  
   -158088.035    24552922.577          30.511  
     81466.726    23734471.173          25.216  
    293124.909    21372947.516          33.012  
       -17.280    25956780.205           7.000  
   -807836.995    22828745.088          43.920  
   1461885.068    22643336.350          33.082  
   -656422.531    23985715.831          39.842  
    309731.186    21296662.633          37.745  
       -74.398    25288029.263           7.000  
   -573310.280    20793091.351          38.098  
        81.590    24726865.458          22.864  
