     2.11           OBSERVATION DATA    G (GPS)             RINEX VERSION / TYPE
AndroidGNSSReceiver RITSUMEIKAN KUBOLAB 1482733168456       PGM / RUN BY / DATE
Android Ver7.0 Nougat                                       COMMENT
NEXUS 6                                                     MARKER NAME
NISHIURA            KUBOLAB                                 OBSERVER / AGENCY
0                   Qualcomm IZat       Gen8B               REC # / TYPE / VERS
0                   Qualcomm IZat                           ANT # / TYPE
        0.0000        0.0000        0.0000                  APPROX POSITION XYZ
        0.0000        0.0000        0.0000                  ANTENNA: DELTA H/E/N
1     0                                                     WAVELENGTH FACT L1/2
2         C1    S1                                          # / TYPES OF OBSERV
1.000                                                       INTERVAL
  2016    12    26     6    19   47.3997755     GPS         TIME OF FIRST OBS
                                                            END OF HEADER
 16 12 26  6 19 47.3997755  0 10G10G12G13G15G18G20G21G24G25G32
  22886985.469          24.900  
  22375985.028          36.400  
  23806107.476          37.800  
  21487722.161          38.800  
  20962729.804          31.500  
  21482883.513          38.700  
  23167759.394          30.300  
  20174543.657          32.300  
  24952815.427          27.400  
  25010801.585          19.600  
 16 12 26  6 19 48.3997755  0  9G10G12G13G15G18G20G21G24G25
  22886429.955          31.200  
  22375380.348          36.400  
  23806574.553          36.400  
  21488013.261          41.000  
  20962426.716          31.700  
  21483409.946          39.700  
  23168098.461          35.600  
  20174677.365          34.500  
  24952087.832          25.300  
 16 12 26  6 19 49.3997755  0  9G10G12G13G15G18G20G21G24G25
  22885839.666          33.500  
  22374768.172          37.400  
  23807056.920          28.900  
  21488305.557          39.600  
  20962120.028          34.500  
  21483935.782          40.300  
  23168433.330          32.600  
  20174808.673          31.300  
  24951368.028          30.100  
 16 12 26  6 19 50.3997755  0  9G10G12G13G15G18G20G21G24G25
  22885269.157          27.800  
  22374161.991          33.900  
  23807504.209          23.400  
  21488601.452          37.700  
  20961817.236          31.700  
  21484463.115          40.800  
  23168763.100          28.200  
  20174948.973          31.900  
  24950641.034          30.800  
 16 12 26  6 19 51.3997755  0  9G10G12G13G15G18G20G21G24G25
  22884678.568          26.500  
  22373560.608          39.500  
  23807960.192          24.000  
  21488896.447          38.200  
  20961518.942          29.200  
  21484994.348          37.800  
  23169116.855          31.500  
  20175096.174          30.100  
  24949921.832          30.000  
 16 12 26  6 19 52.3997755  0  9G10G12G13G15G18G20G21G24G25
  22884110.162          29.900  
  22372955.025          41.200  
  23808458.147          26.100  
  21489192.041          40.200  
  20961217.952          32.300  
  21485525.881          37.000  
  23169455.320          31.100  
  20175237.377          29.300  
  24949187.339          30.400  
 16 12 26  6 19 53.3997755  0  9G10G12G13G15G18G20G21G24G25
  22883546.254          28.400  
  22372349.746          39.800  
  23808985.182          24.800  
  21489481.942          38.800  
  20960906.767          30.100  
  21486049.920          39.000  
  23169792.885          30.400  
  20175369.885          30.000  
  24948467.239          30.700  
 16 12 26  6 19 54.3997755  0  9G10G12G13G15G18G20G21G24G25
  22882968.551          25.100  
  22371746.266          35.800  
  23809395.899          28.000  
  21489779.935          37.300  
  20960612.072          29.000  
  21486580.551          40.400  
  23170129.553          31.600  
  20175514.683          32.000  
  24947742.640          30.400  
 16 12 26  6 19 55.8646492  0  9G10G12G13G15G18G20G21G24G25
  22882131.831          28.900  
  22370861.273          35.200  
  23810056.041          24.800  
  21490209.838          38.400  
  20960174.071          27.000  
  21487356.413          40.900  
  23170626.609          32.300  
  20175702.652          32.100  
  24946698.458          33.100  
 16 12 26  6 19 56.8766244  0  9G10G12G13G15G18G20G21G24G25
  22881635.372          29.500  
  22370324.945          33.600  
  23810580.678          27.100  
  21490566.891          35.200  
  20959936.936          30.400  
  21487961.395          42.000  
  23171037.623          28.600  
  20175912.805          30.800  
  24946030.521          33.900  
 16 12 26  6 19 57.8683684  0  8G12G13G15G18G20G21G24G25
  22369781.423          33.100  
  23811165.273          25.600  
  21490921.846          34.600  
  20959703.400          29.000  
  21488556.482          41.600  
  23171439.946          31.200  
  20176130.754          32.700  
  24945365.283          31.900  
 16 12 26  6 19 58.8810202  0  9G10G12G13G15G18G20G21G24G25
  22880412.221          28.400  
  22369055.329          31.900  
  23811482.457          28.800  
  21491119.409          36.600  
  20959267.502          30.200  
  21488963.600          40.900  
  23171669.591          29.800  
  20176154.443          33.700  
  24944528.864          33.600  
 16 12 26  6 19 59.8728159  0  9G10G12G13G15G18G20G21G24G25
  22879818.032          29.800  
  22368433.857          33.800  
  23811904.861          27.900  
  21491370.033          36.700  
  20958937.728          29.100  
  21489468.151          41.200  
  23171983.468          30.900  
  20176259.366          34.500  
  24943789.873          32.400  
 16 12 26  6 20  0.8647508  0 10G10G12G13G15G18G20G21G24G25G32
  22879259.220          27.200  
  22367840.567          31.900  
  23812387.526          35.000  
  21491691.410          38.000  
  20958664.318          31.900  
  21490016.171          41.000  
  23172345.617          30.000  
  20176420.955          33.600  
  24943113.241          29.600  
  25004250.816          23.100  
 16 12 26  6 20  1.8768822  0  8G10G12G13G15G18G20G21G24
  22878656.633          27.100  
  22367217.297          35.800  
  23812850.406          38.100  
  21491973.815          38.100  
  20958354.332          28.500  
  21490529.714          39.300  
  23172655.301          29.100  
  20176540.572          30.100  
 16 12 26  6 20  2.8683794  0  8G12G13G15G18G20G21G24G25
  22366521.177          30.200  
  23813216.455          36.100  
  21492167.783          33.800  
  20957955.311          31.000  
  21490962.614          38.800  
  23172904.434          31.700  
  20176586.139          28.100  
  24941520.446          24.800  
 16 12 26  6 20  3.8814541  0  9G10G12G13G15G18G20G21G24G25
  22877550.102          32.100  
  22366055.305          36.300  
  23813831.326          38.000  
  21492601.582          37.900  
  20957800.017          31.200  
  21491633.850          38.900  
  23173395.492          31.800  
  20176879.639          29.400  
  24940940.349          30.400  
 16 12 26  6 20  4.8732685  0  9G10G12G13G15G18G20G21G24G25
  22876944.221          31.500  
  22365412.844          39.500  
  23814251.636          39.100  
  21492864.797          39.800  
  20957449.259          29.500  
  21492124.912          33.000  
  23173699.483          33.300  
  20176973.172          29.400  
  24940203.156          29.600  
 16 12 26  6 20  5.8654669  0  9G10G12G13G15G18G20G21G24G25
  22876374.912          29.700  
  22364817.757          33.800  
  23814707.022          34.500  
  21493145.104          35.300  
  20957143.771          30.800  
  21492636.055          36.000  
  23174007.667          29.500  
  20177091.589          29.100  
  24939481.253          26.400  
 16 12 26  6 20  6.8775990  0  9G10G12G13G15G18G20G21G24G25
  22875811.903          31.800  
  22364226.565          36.800  
  23815208.872          31.100  
  21493477.575          37.000  
  20956866.164          24.100  
  21493212.257          31.600  
  23174368.319          24.500  
  20177267.269          29.100  
  24938773.446          33.500  
 16 12 26  6 20  7.8691640  0  9G10G12G13G15G18G20G21G24G25
  22875191.635          27.400  
  22363596.102          38.600  
  23815643.570          36.800  
  21493731.497          38.700  
  20956527.399          30.600  
  21493691.327          29.800  
  23174702.884          28.400  
  20177367.097          32.800  
  24938002.378          31.500  
 16 12 26  6 20  8.8811581  0  8G10G12G13G15G18G20G21G25
  22874642.114          27.800  
  22362987.526          35.200  
  23816160.114          28.100  
  21494044.785          37.000  
  20956256.685          29.100  
  21494249.241          38.200  
  23175067.436          33.700  
  24937299.967          33.200  
 16 12 26  6 20  9.8736522  0  9G10G12G13G15G18G20G21G24G25
  22874013.449          30.900  
  22362355.265          37.200  
  23816600.510          26.000  
  21494300.806          41.100  
  20955918.818          25.200  
  21494743.898          35.000  
  23175396.006          23.900  
  20177627.319          30.600  
  24936555.881          35.600  
 16 12 26  6 20 10.8651743  0  9G10G12G13G15G18G20G21G24G25
  22873454.339          31.000  
  22361755.379          40.000  
  23817034.012          28.600  
  21494591.906          40.700  
  20955605.539          29.900  
  21495276.631          32.000  
  23175685.907          30.500  
  20177771.223          32.700  
  24935802.206          24.700  
 16 12 26  6 20 11.8773432  0  9G10G12G13G15G18G20G21G24G25
  22872873.339          25.500  
  22361124.916          42.400  
  23817476.502          23.000  
  21494867.711          39.200  
  20955284.158          29.600  
  21495778.181          37.800  
  23176020.772          29.600  
  20177867.452          32.300  
  24935060.515          26.800  
 16 12 26  6 20 12.8691991  0  8G10G12G15G18G20G21G24G25
  22872277.955          27.300  
  22360519.336          43.300  
  21495151.317          37.800  
  20954956.788          26.400  
  21496293.826          38.400  
  23176345.451          28.600  
  20178015.853          31.700  
  24934339.215          27.500  
 16 12 26  6 20 13.8816911  0  9G10G12G13G15G18G20G21G24G25
  22871694.555          26.900  
  22359908.356          37.600  
  23818417.850          28.100  
  21495450.208          38.300  
  20954681.576          28.800  
  21496834.050          33.400  
  23176676.420          24.100  
  20178156.454          33.800  
  24933640.997          32.300  
 16 12 26  6 20 14.8725391  0  9G10G12G13G15G18G20G21G24G25
  22871140.541          28.900  
  22359338.450          30.300  
  23818884.329          24.800  
  21495747.002          33.900  
  20954385.681          33.000  
  21497364.986          39.200  
  23177040.070          29.100  
  20178334.228          26.300  
  24932924.796          37.600  
 16 12 26  6 20 15.8652685  0  8G10G12G13G15G18G20G24G25
  22870598.515          31.300  
  22358752.358          38.000  
  23819382.284          27.100  
  21496075.877          40.600  
  20954121.263          29.400  
  21497925.596          42.700  
  20178489.522          29.800  
  24932240.669          35.400  
 16 12 26  6 20 16.8774684  0  8G10G12G13G15G18G20G24G25
  22869996.827          26.700  
  22358128.190          38.600  
  23819857.754          27.600  
  21496373.268          41.400  
  20953810.679          30.800  
  21498453.827          41.500  
  20178622.030          30.200  
  24931498.080          34.000  
 16 12 26  6 20 16.8774684  0  8G10G12G13G15G18G20G24G25
  22869996.827          26.700  
  22358128.190          38.600  
  23819857.754          27.600  
  21496373.268          41.400  
  20953810.679          30.800  
  21498453.827          41.500  
  20178622.030          30.200  
  24931498.080          34.000  
 16 12 26  6 20 18.6802821  0  9G10G12G13G15G18G20G21G24G25
  22868907.384          28.200  
  22356976.986          40.400  
  23820626.122          33.600  
  21496834.050          41.600  
  20953202.099          31.800  
  21499362.800          31.200  
  23178277.312          32.900  
  20178807.604          34.500  
  24930125.035          36.600  
 16 12 26  6 20 19.8733686  0  9G10G12G13G15G18G20G21G24G25
  22868334.480          24.700  
  22356353.420          36.400  
  23821265.581          26.700  
  21497281.343          40.700  
  20952946.675          29.200  
  21500085.601          30.400  
  23178783.364          35.300  
  20179063.324          33.300  
  24929364.760          37.000  
 16 12 26  6 20 20.8650801  0  9G10G12G13G15G18G20G21G24G25
  22867704.615          25.800  
  22355708.263          39.900  
  23821682.890          27.400  
  21497529.869          39.200  
  20952598.914          30.900  
  21500564.370          32.800  
  23179067.266          33.600  
  20179156.260          32.300  
  24928603.285          33.700  
 16 12 26  6 20 21.8772774  0  9G10G12G13G15G18G20G21G24G25
  22867104.135          27.500  
  22355074.506          39.400  
  23822133.184          27.400  
  21497799.387          39.200  
  20952265.550          30.800  
  21501066.522          35.200  
  23179403.034          33.400  
  20179272.884          31.900  
  24927844.515          37.700  
 16 12 26  6 20 22.8691735  0  9G10G12G13G15G18G20G21G24G25
  22866538.425          28.800  
  22354462.929          32.300  
  23822564.580          24.800  
  21498090.182          33.200  
  20951977.146          23.800  
  21501588.759          39.000  
  23179731.007          33.600  
  20179421.577          29.900  
  24927128.907          36.200  
 16 12 26  6 20 23.8808323  0  8G10G12G13G15G20G21G24G25
  22865992.504          28.700  
  22353871.436          37.700  
  23823073.629          30.500  
  21498407.060          36.300  
  21502138.580          35.200  
  23180097.950          33.200  
  20179594.557          30.400  
  24926408.807          37.200  
 16 12 26  6 20 24.8732311  0  9G10G12G13G15G18G20G21G24G25
  22865435.188          29.200  
  22353293.136          39.200  
  23823539.506          31.100  
  21498714.948          40.900  
  20951406.942          28.600  
  21502686.002          26.300  
  23180439.115          32.000  
  20179727.065          31.600  
  24925707.290          36.900  
 16 12 26  6 20 25.8054290  0  8G12G13G15G18G20G21G24G25
  22352670.172          39.800  
  23823918.747          35.400  
  21498934.698          38.300  
  20951068.177          32.300  
  21503126.694          39.700  
  23180708.032          31.800  
  20179811.009          31.100  
  24924970.403          37.500  
 16 12 26  6 20 26.8772956  0  9G10G12G13G15G18G20G21G24G25
  22864260.605          27.500  
  22352074.181          38.400  
  23824467.064          38.100  
  21499304.041          37.700  
  20950788.472          30.200  
  21503743.669          35.900  
  23181127.439          34.700  
  20180017.567          33.100  
  24924253.299          36.800  
 16 12 26  6 20 27.8694707  0  9G10G12G13G15G20G21G24G25G32
  22863626.241          29.400  
  22351426.028          36.300  
  23824866.386          38.000  
  21499526.488          34.300  
  21504211.945          34.500  
  23181409.844          37.700  
  20180105.102          28.500  
  24923485.228          35.600  
  24990925.643          22.700  
 16 12 26  6 20 28.8810524  0  8G10G12G13G15G20G21G24G25
  22863093.211          29.900  
  22350852.828          26.800  
  23825370.937          35.300  
  21499870.649          38.500  
  21504792.344          36.000  
  23181795.376          37.500  
  20180265.491          28.900  
  24922793.610          34.500  
 16 12 26  6 20 29.8737354  0  9G10G12G13G15G18G20G21G24G25
  22862511.011          31.000  
  22350248.143          26.300  
  23825804.139          31.700  
  21500148.256          40.100  
  20949839.324          27.100  
  21505298.989          37.800  
  23182103.560          26.600  
  20180418.386          25.400  
  24922053.119          34.700  
 16 12 26  6 20 30.8651402  0  9G10G12G13G15G18G20G21G24G25
  22861876.953          28.000  
  22349623.377          30.300  
  23826262.521          33.600  
  21500420.170          38.200  
  20949551.229          25.100  
  21505796.346          35.900  
  23182432.436          36.600  
  20180523.916          28.600  
  24921314.735          34.400  
 16 12 26  6 20 31.8773064  0  9G10G12G13G15G18G20G21G24G25
  22861362.808          30.000  
  22349027.391          37.000  
  23826765.576          36.300  
  21500743.946          38.300  
  20949262.830          29.100  
  21506363.858          33.500  
  23182806.281          28.000  
  20180675.310          30.400  
  24920618.017          35.300  
 16 12 26  6 20 32.8694144  0  9G10G12G13G15G18G20G21G24G25
  22860759.925          26.500  
  22348403.519          34.900  
  23827197.272          35.600  
  21501008.059          38.700  
  20948901.575          22.300  
  21506860.910          36.300  
  23183116.262          36.100  
  20180795.223          30.500  
  24919868.831          38.300  
 16 12 26  6 20 33.8211149  0  9G10G12G13G15G18G20G21G24G25
  22860246.378          30.500  
  22347858.200          38.000  
  23827667.647          37.600  
  21501317.748          37.400  
  20948657.844          25.800  
  21507412.228          36.300  
  23183468.220          37.500  
  20180954.116          33.800  
  24919213.488          36.300  
 16 12 26  6 20 34.8730534  0  8G10G12G13G15G20G21G24G25
  22859651.592          31.400  
  22347214.248          28.300  
  23828198.880          26.700  
  21501640.926          39.700  
  21507968.344          35.100  
  23183845.659          36.900  
  20181112.106          32.100  
  24918459.212          36.600  
 16 12 26  6 20 35.8648873  0  8G10G12G15G18G20G21G24G25
  22859026.525          26.000  
  22346573.288          38.400  
  21501871.762          39.800  
  20948018.987          28.900  
  21508439.915          33.200  
  23184114.270          32.500  
  20181198.746          30.800  
  24917670.453          36.300  
 16 12 26  6 20 36.8764403  0  9G10G12G13G15G18G20G21G24G25
  22858481.799          29.600  
  22346012.975          33.200  
  23829094.059          30.200  
  21502220.121          37.900  
  20947760.868          31.300  
  21509012.221          36.400  
  23184523.186          36.700  
  20181404.105          30.700  
  24916994.724          36.000  
 16 12 26  6 20 37.8689518  0  8G10G12G15G18G20G21G24G25
  22857846.241          28.800  
  22345356.432          29.300  
  21502453.064          36.400  
  20947414.005          32.800  
  21509480.497          36.100  
  23184777.113          32.100  
  20181490.745          28.200  
  24916217.064          33.000  
 16 12 26  6 20 38.8815972  0  9G10G12G13G15G18G20G21G24G25
  22857282.633          29.800  
  22344728.966          28.500  
  23829994.939          27.000  
  21502752.256          34.300  
  20947096.529          32.000  
  21510026.118          39.500  
  23185118.578          30.200  
  20181637.044          23.500  
  24915495.161          30.500  
 16 12 26  6 20 39.8723658  0  9G10G12G13G15G18G20G21G24G25
  22856786.777          30.600  
  22344206.428          32.800  
  23830541.458          23.500  
  21503096.715          35.900  
  20946857.291          33.700  
  21510599.920          35.900  
  23185521.495          31.600  
  20181797.433          28.300  
  24914808.635          28.600  
 16 12 26  6 20 40.8648963  0  8G10G12G13G15G18G20G21G24
  22856189.591          25.700  
  22343557.978          37.400  
  23830933.887          30.600  
  21503349.442          38.600  
  20946516.131          30.000  
  21511089.783          41.400  
  23185845.576          27.300  
  20181909.258          31.400  
 16 12 26  6 20 41.8776428  0  7G10G12G15G18G20G24G25
  22855655.959          29.300  
  22343012.353          38.400  
  21503716.385          39.500  
  20946288.584          27.200  
  21511699.860          42.500  
  20182113.413          33.000  
  24913411.304          29.600  
 16 12 26  6 20 42.8688730  0  9G10G12G13G15G18G20G24G25G32
  22855018.603          29.000  
  22342372.598          39.700  
  23831874.938          25.200  
  21503964.614          40.500  
  20945936.033          25.700  
  21512175.330          41.500  
  20182215.344          33.500  
  24912641.139          29.300  
  24983401.453          23.300  
 16 12 26  6 20 43.8812337  0  8G10G12G13G15G18G20G24G25
  22854459.786          29.100  
  22341770.914          37.400  
  23832413.365          24.000  
  21504278.199          40.800  
  20945653.025          30.000  
  21512729.649          42.300  
  20182376.632          32.900  
  24911924.934          28.600  
 16 12 26  6 20 44.8736520  0  9G10G12G13G15G18G20G21G24G25
  22853835.020          28.700  
  22341120.366          38.400  
  23832806.693          23.700  
  21504517.433          42.500  
  20945314.260          27.700  
  21513203.318          42.100  
  23187214.127          30.500  
  20182464.171          32.200  
  24911138.880          26.700  
 16 12 26  6 20 45.8661683  0  9G10G12G13G15G18G20G24G25G32
  22853279.501          28.300  
  22340546.860          38.900  
  23833291.455          29.700  
  21504838.508          41.100  
  20945049.243          31.000  
  21513758.235          43.400  
  20182623.360          32.300  
  24910458.047          33.300  
  24981964.245          25.600  
 16 12 26  6 20 46.8776358  0  7G10G12G13G15G18G20G24
  22852813.628          25.100  
  22340050.707          37.900  
  23833822.989          27.800  
  21505248.327          39.800  
  20944847.484          29.200  
  21514399.792          40.300  
  20182891.073          31.600  
 16 12 26  6 20 47.8686612  0  8G10G12G13G15G18G20G24G25
  22852151.986          23.800  
  22339345.295          29.700  
  23834174.044          29.300  
  21505413.811          36.900  
  20944421.180          29.100  
  21514810.208          40.700  
  20182895.571          29.900  
  24908991.465          26.400  
 16 12 26  6 20 48.8809577  0  8G10G12G13G15G18G20G24G25
  22851543.405          34.300  
  22338700.740          27.300  
  23834651.312          31.700  
  21505712.406          36.400  
  20944123.784          31.800  
  21515347.134          38.900  
  20183053.264          29.900  
  24908265.366          29.800  
 16 12 26  6 20 49.8735685  0  9G10G12G13G15G18G20G21G24G25
  22850939.322          33.200  
  22338108.349          31.100  
  23835114.493          25.600  
  21505994.210          36.200  
  20943801.806          30.800  
  21515863.975          37.900  
  23188882.468          28.500  
  20183176.476          30.200  
  24907529.377          30.100  
 16 12 26  6 20 50.8651699  0  7G10G12G13G15G18G20G24
  22850480.046          25.400  
  22337585.213          30.900  
  23835630.439          27.100  
  21506347.067          37.000  
  20943573.666          26.900  
  21516453.971          39.500  
  20183391.432          30.900  
 16 12 26  6 20 51.8770388  0  8G12G13G15G18G20G21G24G25
  22336922.371          36.400  
  23836028.260          27.300  
  21506608.484          38.400  
  20943233.400          29.700  
  21516943.528          33.800  
  23189565.099          30.000  
  20183505.050          26.900  
  24906108.960          31.800  
 16 12 26  6 20 52.8691095  0  9G10G12G13G15G18G20G21G24G25
  22849208.322          27.300  
  22336295.206          37.300  
  23836471.954          30.200  
  21506868.108          39.100  
  20942909.027          31.400  
  21517436.990          26.100  
  23189872.685          29.800  
  20183595.591          28.900  
  24905345.089          28.600  
 16 12 26  6 20 53.8809457  0  9G10G12G13G15G18G20G21G24G25
  22848714.262          24.000  
  22335710.009          37.900  
  23836977.103          31.600  
  21507195.178          39.300  
  20942626.019          26.900  
  21518023.980          28.100  
  23190248.022          32.900  
  20183770.363          31.800  
  24904645.371          29.000  
 16 12 26  6 20 54.8728911  0  9G10G12G13G15G18G20G21G24G25
  22848074.206          27.300  
  22335091.237          38.700  
  23837405.807          36.400  
  21507468.889          40.700  
  20942317.237          28.800  
  21518527.336          29.600  
  23190571.802          33.700  
  20183884.889          32.100  
  24903906.384          30.200  
 16 12 26  6 20 55.8650524  0  9G10G12G13G15G18G20G21G24G25
  22847527.085          30.900  
  22334501.847          39.800  
  23837881.875          36.300  
  21507769.582          41.400  
  20942037.829          28.200  
  21519060.065          33.400  
  23190914.463          29.500  
  20184034.481          32.500  
  24903196.776          29.600  
 16 12 26  6 20 56.8770941  0  9G10G12G13G15G18G20G21G24G25
  22846946.089          29.400  
  22333891.168          36.700  
  23838360.944          31.800  
  21508063.675          40.000  
  20941738.933          27.000  
  21519592.493          31.400  
  23191266.718          31.700  
  20184187.074          29.200  
  24902465.581          27.200  
 16 12 26  6 20 57.8689459  0  8G10G12G13G15G18G20G21G24
  22846439.740          26.600  
  22333320.965          31.300  
  23838856.504          34.200  
  21508400.944          34.600  
  20941473.921          26.900  
  21520162.404          38.100  
  23191714.311          26.700  
  20184373.849          30.400  
 16 12 26  6 20 58.8793459  0  8G12G13G15G18G20G21G24G25
  22332733.071          35.100  
  23839337.070          35.400  
  21508700.137          34.800  
  20941175.928          31.700  
  21520706.825          38.700  
  23192001.210          30.800  
  20184512.054          34.500  
  24901060.756          24.100  
 16 12 26  6 20 59.8728550  0  8G10G12G13G15G18G20G21G24
  22845238.772          28.000  
  22332081.323          35.100  
  23839747.190          37.100  
  21508957.658          32.700  
  20940807.484          29.400  
  21521189.790          38.100  
  23192286.015          30.100  
  20184616.982          33.600  
 16 12 26  6 21  0.8649462  0 10G10G12G13G15G18G20G21G24G25G32
  22844670.663          31.000  
  22331491.331          31.100  
  23840222.359          29.700  
  21509265.847          32.800  
  20940540.068          30.800  
  21521719.823          38.000  
  23192623.581          28.000  
  20184756.082          32.900  
  24899580.078          25.300  
  24974562.072          24.400  
 16 12 26  6 21  1.8770988  0  8G10G12G13G15G18G20G21G24
  22844092.367          23.100  
  22330919.326          36.300  
  23840702.628          25.700  
  21509588.122          35.300  
  20940271.452          32.800  
  21522295.427          41.400  
  23193022.607          29.400  
  20184931.466          34.700  
 16 12 26  6 21  2.8686121  0  9G10G12G13G15G18G20G21G24G25
  22843416.333          27.200  
  22330194.126          35.700  
  23841059.677          26.600  
  21509742.813          35.400  
  20939843.346          33.200  
  21522689.051          36.700  
  23193240.551          27.400  
  20184938.956          32.100  
  24898086.514          23.300  
 16 12 26  6 21  3.8805681  0  8G10G12G13G15G18G20G24G25
  22842901.887          23.600  
  22329666.195          39.200  
  23841608.897          35.300  
  21510127.150          38.000  
  20939627.496          34.100  
  21523314.720          40.700  
  20185180.891          31.900  
  24897389.496          24.700  
 16 12 26  6 21  4.8723510  0  8G10G12G13G15G18G20G24G25
  22842406.929          28.400  
  22329142.157          25.800  
  23842133.834          29.700  
  21510489.295          32.200  
  20939387.664          32.300  
  21523909.206          37.600  
  20185378.152          33.800  
  24896753.034          28.900  
 16 12 26  6 21  5.8649208  0  8G10G12G13G15G18G20G24G32
  22841804.050          29.200  
  22328513.495          29.800  
  23842586.222          28.800  
  21510777.101          30.200  
  20939080.977          30.800  
  21524416.758          38.800  
  20185505.268          33.300  
  24972022.528          23.200  
 16 12 26  6 21  6.8761746  0  7G10G12G13G15G18G20G24
  22841214.355          27.600  
  22327883.027          38.500  
  23843028.716          24.500  
  21511036.119          32.700  
  20938749.405          30.900  
  21524936.596          38.200  
  20185621.286          33.300  
 16 12 26  6 21  7.8691779  0  8G10G12G13G15G18G20G24G25
  22840616.567          27.900  
  22327260.059          37.900  
  23843452.918          27.600  
  21511321.522          32.300  
  20938440.318          32.900  
  21525444.144          38.600  
  20185748.995          31.000  
  24894601.723          23.400  
 16 12 26  6 21  8.8807716  0  8G10G12G13G15G18G20G24G25
  22840065.551          33.400  
  22326687.456          35.700  
  23843981.158          27.400  
  21511645.598          32.100  
  20938175.005          31.300  
  21526018.248          36.800  
  20185928.872          35.300  
  24893923.896          22.900  
 16 12 26  6 21  9.8716680  0  7G10G12G15G18G20G24G25
  22839549.609          32.600  
  22326129.843          33.300  
  21511983.164          31.200  
  20937916.881          33.800  
  21526588.154          37.500  
  20186119.542          35.100  
  24893270.049          24.500  
 16 12 26  6 21 10.4866678  0  8G10G12G13G15G18G20G24G25
  22839124.500          31.600  
  22325706.235          38.800  
  23844718.342          25.900  
  21512098.584          28.100  
  20937666.554          30.300  
  21526852.569          33.300  
  20186139.623          32.800  
  24892766.096          24.500  
 16 12 26  6 21 11.4066678  0  8G10G12G13G15G18G20G24G25
  22838606.163          29.800  
  22325152.819          40.800  
  23845148.848          26.300  
  21512372.596          24.600  
  20937396.442          33.500  
  21527346.331          37.200  
  20186269.736          31.500  
  24892085.869          23.000  
 16 12 26  6 21 12.8636060  0  6G10G12G15G18G20G24
  22837873.768          33.800  
  22324395.540          37.600  
  21512938.302          29.500  
  20937084.057          32.700  
  21528235.813          35.700  
  20186598.311          32.100  
 16 12 26  6 21 13.8760302  0  7G10G12G13G15G18G20G24
  22837275.981          32.000  
  22323754.886          39.100  
  23846407.676          27.500  
  21513177.836          24.100  
  20936738.996          32.400  
  21528761.945          36.700  
  20186707.135          32.200  
 16 12 26  6 21 13.8760302  0  7G10G12G13G15G18G20G24
  22837275.981          32.000  
  22323754.886          39.100  
  23846407.676          27.500  
  21513177.836          24.100  
  20936738.996          32.400  
  21528761.945          36.700  
  20186707.135          32.200  
 16 12 26  6 21 15.7790390  0  6G10G15G18G20G24G25
  22836116.985          32.500  
  21513701.574          26.900  
  20936114.230          36.600  
  21529707.193          20.700  
  20186923.282          33.700  
  24888934.150          20.100  
 16 12 26  6 21 15.7790390  0  6G10G15G18G20G24G25
  22836116.985          32.500  
  21513701.574          26.900  
  20936114.230          36.600  
  21529707.193          20.700  
  20186923.282          33.700  
  24888934.150          20.100  
 16 12 26  6 21 17.4070669  0  6G10G12G15G18G24G32
  22835126.472          36.200  
  22321526.829          20.100  
  21514153.661          27.000  
  20935575.804          36.500  
  20187110.954          33.400  
  24966260.218          19.800  
 16 12 26  6 21 18.4070669  0 10G10G12G13G15G18G20G21G24G25G32
  22834551.173          31.200  
  22320918.851          19.100  
  23848386.609          24.000  
  21514425.876          23.700  
  20935281.109          37.000  
  21531066.456          19.000  
  23198599.945          16.100  
  20187252.458          32.300  
  24886972.008          19.100  
  24965768.261          20.000  
 16 12 26  6 21 19.4070669  0 10G10G12G13G15G18G20G21G24G25G32
  22833989.660          27.000  
  22320331.856          18.300  
  23848859.680          24.800  
  21514758.045          23.400  
  20934979.517          35.000  
  21531629.767          19.200  
  23198947.405          16.100  
  20187390.664          32.900  
  24886220.432          22.200  
  24965260.713          19.800  
 16 12 26  6 21 20.4070669  0 10G10G12G13G15G18G20G21G24G25G32
  22833396.370          28.900  
  22319734.369          18.400  
  23849303.972          24.800  
  21515011.069          23.800  
  20934678.527          33.500  
  21532133.716          21.700  
  23199286.768          15.900  
  20187530.065          33.200  
  24885511.421          22.900  
  24964762.457          19.400  
 16 12 26  6 21 21.4070669  0 10G10G12G13G15G18G20G21G24G25G32
  22832811.473          27.800  
  22319138.985          17.800  
  23849758.759          22.500  
  21515305.467          24.400  
  20934378.431          35.600  
  21532656.851          22.700  
  23199625.834          14.600  
  20187669.169          31.500  
  24884795.216          21.100  
  24964260.903          19.100  
 16 12 26  6 21 22.4070669  0  9G10G12G13G15G18G20G24G25G32
  22832240.672          31.200  
  22318538.200          17.200  
  23850230.330          22.800  
  21515613.651          25.100  
  20934076.542          35.300  
  21533194.083          26.800  
  20187813.967          32.900  
  24884069.718          20.300  
  24963763.550          18.600  
 16 12 26  6 21 23.4070669  0  9G10G12G13G15G18G20G24G25G32
  22831668.065          31.700  
  22317932.617          16.800  
  23850709.997          23.900  
  21515901.152          22.900  
  20933780.046          36.600  
  21533729.809          23.400  
  20187963.267          33.500  
  24883343.022          20.300  
  24963264.395          18.300  
 16 12 26  6 21 24.4070669  0  9G10G12G13G15G18G20G24G25G32
  22831082.872          29.300  
  22317334.833          16.500  
  23851176.777          25.600  
  21516206.640          25.500  
  20933480.556          36.900  
  21534267.637          20.500  
  20188099.972          33.800  
  24882616.325          20.300  
  24962748.152          21.000  
 16 12 26  6 21 25.4070669  0  9G10G12G13G15G18G20G24G25G32
  22830508.171          29.700  
  22316732.548          16.200  
  23851627.363          25.600  
  21516480.652          24.800  
  20933183.759          36.600  
  21534815.657          20.800  
  20188244.769          34.400  
  24881900.120          15.700  
  24962252.893          20.200  
 16 12 26  6 21 26.4070669  0  9G10G12G13G15G18G20G24G25G32
  22829945.759          29.700  
  22316131.763          16.200  
  23852087.844          25.900  
  21516784.940          25.800  
  20932880.072          37.200  
  21535337.899          19.600  
  20188381.474          32.700  
  24881154.838          18.900  
  24961757.935          18.700  
 16 12 26  6 21 27.4070669  0  9G10G12G13G15G18G20G24G25G32
  22829355.466          28.700  
  22315528.282          15.700  
  23852554.620          26.600  
  21517067.647          25.500  
  20932582.376          36.200  
  21535841.848          21.400  
  20188531.372          33.500  
  24880428.739          18.900  
  24961268.675          17.900  
 16 12 26  6 21 28.4070669  0  9G10G12G13G15G18G20G24G25G32
  22828784.962          31.300  
  22314925.399          15.700  
  23853019.598          25.400  
  21517371.634          26.300  
  20932283.781          36.200  
  21536400.063          24.600  
  20188671.375          34.100  
  24879702.640          18.900  
  24960772.220          17.900  
 16 12 26  6 21 29.4070669  0  8G10G12G13G15G18G20G24G25
  22828202.164          30.400  
  22314323.118          15.700  
  23853507.960          21.300  
  21517663.035          23.800  
  20931983.991          36.700  
  21536923.801          27.500  
  20188813.777          32.900  
  24878956.460          17.900  
 16 12 26  6 21 30.4070669  0  8G10G12G13G15G18G20G24G25
  22827626.564          31.800  
  22313720.535          15.700  
  23853979.234          20.700  
  21517945.140          25.600  
  20931683.598          36.600  
  21537455.330          22.000  
  20188955.277          33.100  
  24878228.860          17.900  
 16 12 26  6 21 31.4070671  0  8G10G12G13G15G18G20G24G25
  22827128.007          27.600  
  22313194.699          15.700  
  23854496.079          25.200  
  21518330.371          24.400  
  20931459.952          36.200  
  21538035.728          18.600  
  20189178.923          33.800  
  24877639.169          16.600  
 16 12 26  6 21 32.4070671  0  8G10G12G13G15G18G20G24G25
  22826550.309          28.100  
  22312578.026          16.100  
  23854981.143          25.300  
  21518619.669          21.900  
  20931160.458          37.000  
  21538611.629          20.800  
  20189325.823          33.300  
  24876840.521          18.000  
 16 12 26  6 21 33.4070671  0  8G10G12G13G15G18G20G24G25
  22825962.416          26.200  
  22311996.729          19.000  
  23855423.034          24.700  
  21518937.150          26.600  
  20930860.969          35.800  
  21539147.957          21.200  
  20189464.627          33.300  
  24876168.386          18.100  
 16 12 26  6 21 34.4070671  0  9G10G12G13G15G18G20G24G25G32
  22825387.714          29.300  
  22311397.741          19.600  
  23855889.514          24.600  
  21519219.556          24.300  
  20930562.374          36.100  
  21539663.602          19.700  
  20189607.326          33.300  
  24875417.408          18.200  
  24957880.719          17.300  
 16 12 26  6 21 35.4070671  0  8G10G12G13G15G18G20G24G25
  22824813.912          30.800  
  22310765.481          20.400  
  23856344.297          23.900  
  21519501.359          27.600  
  20930259.582          35.800  
  21540214.323          19.300  
  20189749.728          32.400  
  24874688.612          18.200  
 16 12 26  6 21 36.4070671  0  8G10G12G13G15G18G20G24G25
  22824235.612          31.000  
  22310159.299          18.800  
  23856807.775          22.300  
  21519808.047          25.500  
  20929962.789          36.000  
  21540748.552          21.600  
  20189889.430          33.200  
  24873990.695          18.400  
 16 12 26  6 21 37.4070671  0  8G10G12G13G15G18G20G24G25
  22823669.902          31.000  
  22309588.494          21.900  
  23857267.959          24.000  
  21520089.253          28.900  
  20929662.396          37.300  
  21541265.393          22.400  
  20190027.636          35.000  
  24873262.201          18.400  
 16 12 26  6 21 38.4070671  0  8G10G12G13G15G18G20G24G25
  22823085.608          32.600  
  22308985.912          23.600  
  23857728.138          24.300  
  21520374.956          30.600  
  20929358.108          36.200  
  21541819.411          23.300  
  20190172.735          35.000  
  24872516.318          23.100  
 16 12 26  6 21 39.4070671  0  8G10G12G13G15G18G20G24G25
  22822507.006          29.700  
  22308377.331          21.000  
  23858220.400          22.500  
  21520683.441          29.100  
  20929061.611          37.100  
  21542337.451          22.300  
  20190318.435          33.700  
  24871774.029          27.100  
 16 12 26  6 21 40.4070671  0  8G10G12G13G15G18G20G24G25
  22821926.909          32.700  
  22307786.144          22.700  
  23858675.184          22.900  
  21520976.640          29.300  
  20928765.119          38.000  
  21542853.694          21.300  
  20190459.036          34.600  
  24871043.135          25.000  
 16 12 26  6 21 41.4070671  0  8G10G12G13G15G18G20G24G25
  22821344.713          37.100  
  22307159.576          22.300  
  23859126.970          23.300  
  21521263.539          29.700  
  20928463.226          38.200  
  21543383.426          20.600  
  20190599.641          34.900  
  24870341.021          22.000  
 16 12 26  6 21 42.4070671  0  8G10G12G13G15G18G20G24G25
  22820768.210          37.800  
  22306565.087          23.300  
  23859588.353          24.800  
  21521555.839          29.700  
  20928164.635          38.700  
  21543923.052          21.400  
  20190742.641          34.300  
  24869577.452          20.800  
 16 12 26  6 21 43.4070671  0  8G10G12G13G15G18G20G24G25
  22820189.312          37.800  
  22305946.917          20.400  
  23860082.408          26.700  
  21521839.440          26.000  
  20927863.942          38.300  
  21544459.982          26.000  
  20190885.044          34.100  
  24868863.045          24.900  
 16 12 26  6 21 44.4070671  0  8G10G12G13G15G18G20G24G25
  22819610.715          38.800  
  22305366.519          21.200  
  23860541.990          24.400  
  21522137.437          28.400  
  20927563.850          38.700  
  21544986.416          28.600  
  20191026.242          35.100  
  24868124.355          25.800  
 16 12 26  6 21 45.4070671  0  7G10G12G15G18G20G24G25
  22819034.212          38.300  
  22304762.737          21.200  
  21522441.424          28.900  
  20927261.059          38.600  
  21545520.048          22.800  
  20191168.946          35.000  
  24867415.645          21.800  
 16 12 26  6 21 46.4070671  0  7G10G12G15G18G20G24G25
  22818456.811          38.000  
  22304158.955          21.200  
  21522724.131          27.500  
  20926963.066          38.500  
  21546065.669          20.700  
  20191308.050          33.600  
  24866646.378          26.900  
 16 12 26  6 21 47.4070671  0  8G10G12G13G15G18G20G24G25
  22817876.412          34.400  
  22303611.232          16.000  
  23861887.162          24.900  
  21523014.027          28.600  
  20926660.575          38.200  
  21546598.101          20.700  
  20191453.450          33.800  
  24865930.475          30.500  
 16 12 26  6 21 48.4070671  0  9G10G12G13G15G18G20G21G24G25
  22817297.514          35.000  
  22303008.047          16.000  
  23862374.023          23.900  
  21523320.714          26.700  
  20926360.483          35.200  
  21547130.533          20.700  
  23208856.446          16.500  
  20191599.146          33.800  
  24865202.281          27.400  
 16 12 26  6 21 49.4070671  0  8G10G12G13G15G18G21G24G25
  22816726.408          30.700  
  22302404.868          16.000  
  23862885.171          26.000  
  21523605.820          28.700  
  20926063.389          35.200  
  23209219.192          16.700  
  20191738.552          35.100  
  24864490.574          26.000  
 16 12 26  6 21 50.4070671  0  8G10G12G13G15G18G21G24G25
  22816152.309          30.900  
  22301801.683          16.000  
  23863353.744          26.900  
  21523896.916          30.100  
  20925760.898          34.400  
  23209548.665          16.300  
  20191882.154          34.500  
  24863749.485          23.000  
 16 12 26  6 21 51.4070671  0  8G10G12G13G15G18G21G24G25
  22815561.418          32.100  
  22301198.504          16.000  
  23863774.355          22.300  
  21524191.912          28.200  
  20925453.011          31.100  
  23209888.028          16.500  
  20192023.352          34.700  
  24863053.968          20.900  
 16 12 26  6 21 52.4070671  0 10G10G12G13G15G18G20G21G24G25G32
  22814986.713          30.200  
  22300595.319          16.000  
  23864235.434          23.200  
  21524491.406          25.900  
  20925161.313          33.300  
  21549450.627          16.900  
  23210232.491          16.600  
  20192163.059          33.800  
  24862323.973          20.900  
  24948916.926          17.500  
 16 12 26  6 21 53.4070671  0  8G10G12G15G18G20G21G24G25
  22814405.717          35.100  
  22299992.139          16.000  
  21524780.403          25.800  
  20924862.421          36.900  
  21549949.180          16.500  
  23210567.959          16.400  
  20192306.360          32.700  
  24861563.400          17.900  
 16 12 26  6 21 54.4070674  0  9G10G12G15G18G20G21G24G25G32
  22813907.159          37.300  
  22299486.389          14.000  
  21525150.950          27.300  
  20924636.376          37.800  
  21550578.147          16.400  
  23210989.168          16.500  
  20192523.109          32.700  
  24860929.635          20.500  
  24947938.100          21.200  
 16 12 26  6 21 55.4070674  0  6G10G13G15G18G24G32
  22813320.767          40.900  
  23865679.234          26.900  
  21525441.147          26.500  
  20924336.585          37.900  
  20192665.808          35.700  
  24947457.534          21.800  
 16 12 26  6 21 56.4070674  0  6G10G13G15G18G24G32
  22812746.066          38.600  
  23866145.111          22.000  
  21525729.848          24.600  
  20924034.391          34.300  
  20192813.306          34.600  
  24946943.992          20.200  
 16 12 26  6 21 57.4070674  0  7G10G15G18G20G21G24G32
  22812166.566          40.100  
  21526030.838          23.800  
  20923737.899          36.600  
  21552001.561          17.700  
  23212016.553          19.100  
  20192953.610          34.100  
  24946471.518          20.300  
 16 12 26  6 21 58.4070674  0  9G10G12G15G18G20G21G24G25G32
  22811591.564          39.200  
  22297057.768          16.700  
  21526331.531          22.900  
  20923439.003          38.300  
  21552551.980          19.700  
  23212349.626          19.000  
  20193095.110          31.700  
  24858013.856          16.100  
  24945954.377          20.700  
 16 12 26  6 21 59.4070674  0  9G10G12G15G18G20G21G24G25G32
  22811011.165          38.200  
  22296453.388          16.700  
  21526629.825          23.900  
  20923138.911          38.200  
  21553086.511          20.100  
  23212686.293          19.700  
  20193229.716          32.400  
  24857278.164          15.800  
  24945476.507          22.400  
 16 12 26  6 22  0.4070674  0  8G10G15G18G20G21G24G25G32
  22810439.762          35.000  
  21526899.340          24.000  
  20922838.222          36.700  
  21553607.548          23.900  
  23213052.939          22.800  
  20193377.214          32.800  
  24856552.666          14.700  
  24944987.844          22.300  
 16 12 26  6 22  1.4070674  0 10G10G12G13G15G18G20G21G24G25G32
  22809858.761          34.700  
  22295286.296          18.200  
  23868450.817          24.000  
  21527198.231          21.400  
  20922542.925          36.300  
  21554145.974          24.400  
  23213370.717          27.800  
  20193524.712          33.400  
  24855850.854          14.400  
  24944502.780          19.100  
 16 12 26  6 22  2.4070674  0  9G10G13G15G18G20G21G24G25G32
  22809274.768          31.800  
  23868923.888          22.700  
  21527508.815          22.100  
  20922238.934          34.400  
  21554652.323          27.600  
  23213710.084          27.000  
  20193665.915          34.600  
  24855153.237          14.300  
  24943990.137          18.600  
 16 12 26  6 22  3.4070674  0  9G10G13G15G18G20G21G24G25G32
  22808699.465          34.300  
  23869356.789          20.500  
  21527772.932          22.900  
  20921935.248          35.000  
  21555189.851          31.400  
  23214040.753          35.100  
  20193805.320          34.600  
  24854431.335          14.600  
  24943452.308          20.200  
 16 12 26  6 22  4.4070674  0  8G10G15G18G20G21G24G25G32
  22808116.370          37.900  
  21528055.639          23.300  
  20921638.751          37.800  
  21555719.587          31.800  
  23214379.819          38.900  
  20193954.018          32.100  
  24853714.829          14.400  
  24942965.146          17.100  
 16 12 26  6 22  5.4070674  0  9G10G13G15G18G20G21G24G25G32
  22807537.472          37.700  
  23870301.134          24.100  
  21528386.007          22.900  
  20921337.761          36.700  
  21556250.519          31.700  
  23214724.579          36.700  
  20194090.422          32.100  
  24852977.640          14.600  
  24942459.992          22.600  
 16 12 26  6 22  6.4070674  0  9G10G13G15G18G20G21G24G25G32
  22806958.570          38.100  
  23870772.407          22.400  
  21528667.213          22.300  
  20921038.865          36.000  
  21556786.249          30.800  
  23215059.749          34.100  
  20194233.723          33.000  
  24852252.745          14.400  
  24941950.647          21.900  
 16 12 26  6 22  7.4070674  0 10G10G12G13G15G18G20G21G24G25G32
  22806382.072          36.700  
  22291624.031          18.100  
  23871258.972          22.800  
  21528959.211          22.300  
  20920739.075          36.300  
  21557316.880          28.800  
  23215410.206          30.800  
  20194375.825          33.600  
  24851524.849          14.200  
  24941477.872          16.500  
 16 12 26  6 22  8.4070674  0 10G10G12G13G15G18G20G21G24G25G32
  22805802.873          34.700  
  22290989.668          18.400  
  23871721.250          24.400  
  21529243.113          18.800  
  20920440.179          37.100  
  21557851.109          31.900  
  23215740.875          26.700  
  20194519.126          32.900  
  24850800.250          14.200  
  24940967.327          20.200  
 16 12 26  6 22  9.4070674  0 10G10G12G13G15G18G20G21G24G25G32
  22805220.376          35.900  
  22290375.695          19.200  
  23872146.058          24.500  
  21529539.309          23.400  
  20920140.388          36.900  
  21558382.944          32.400  
  23216090.734          24.700  
  20194660.028          33.500  
  24850070.255          14.200  
  24940465.773          19.100  
 16 12 26  6 22 10.4070676  0 10G10G12G13G15G18G20G21G24G25G32
  22804718.520          36.200  
  22289854.056          20.100  
  23872683.882          22.500  
  21529887.668          23.400  
  20919914.046          36.600  
  21558996.315          32.600  
  23216508.946          25.900  
  20194876.777          34.000  
  24849417.006          14.200  
  24940016.386          17.300  
 16 12 26  6 22 11.4070676  0  9G10G12G15G18G20G21G24G25G32
  22804141.721          34.700  
  22289222.991          24.900  
  21530218.637          21.100  
  20919616.349          36.500  
  21559529.947          32.400  
  23216881.286          23.600  
  20195023.075          34.000  
  24848687.312          14.200  
  24939508.236          17.500  
 16 12 26  6 22 12.4070676  0  9G10G12G15G18G20G21G24G25G32
  22803563.120          36.300  
  22288630.900          25.300  
  21530484.557          23.200  
  20919316.856          37.000  
  21560063.876          32.300  
  23217211.357          22.300  
  20195163.379          33.000  
  24847975.003          14.800  
  24939030.366          19.800  
 16 12 26  6 22 13.4070676  0 10G10G12G13G15G18G20G21G24G25G32
  22802982.721          37.300  
  22288023.223          29.000  
  23874082.116          23.900  
  21530750.769          21.400  
  20919017.065          37.000  
  21560598.406          32.900  
  23217515.946          19.000  
  20195305.481          33.400  
  24847243.512          14.800  
  24938482.049          17.400  
 16 12 26  6 22 14.4070676  0 10G10G12G13G15G18G20G21G24G25G32
  22802403.823          37.700  
  22287408.949          28.600  
  23874528.506          21.700  
  21531073.048          20.400  
  20918716.075          36.600  
  21561122.144          32.400  
  23217894.886          20.900  
  20195447.281          33.700  
  24846512.016          14.800  
  24937980.796          17.400  
 16 12 26  6 22 15.4070676  0  9G10G12G15G18G20G21G24G25G32
  22801818.927          37.000  
  22286807.562          30.300  
  21531351.854          23.400  
  20918415.382          37.600  
  21561657.573          33.200  
  23218215.665          22.900  
  20195586.687          32.100  
  24845802.407          16.100  
  24937501.727          18.800  
 16 12 26  6 22 16.4070676  0  9G10G12G15G18G20G21G24G25G32
  22801240.627          36.600  
  22286204.382          28.500  
  21531647.448          22.200  
  20918115.290          36.900  
  21562192.104          33.800  
  23218546.333          22.700  
  20195729.988          32.800  
  24845070.314          16.100  
  24936968.697          19.400  
 16 12 26  6 22 17.4070676  0 10G10G12G13G15G18G20G21G24G25G32
  22800661.729          32.300  
  22285605.997          29.500  
  23875891.664          21.600  
  21531918.463          24.500  
  20917815.496          35.900  
  21562725.134          34.000  
  23218892.895          23.400  
  20195874.188          35.800  
  24844338.522          16.100  
  24936466.541          19.400  
 16 12 26  6 22 18.4070676  0 10G10G12G13G15G18G20G21G24G25G32
  22800080.431          30.900  
  22284997.416          29.500  
  23876369.534          24.000  
  21532208.062          25.900  
  20917510.610          34.200  
  21563255.468          33.000  
  23219238.854          22.900  
  20196013.292          36.400  
  24843606.428          16.100  
  24936022.851          18.900  
 16 12 26  6 22 19.4070676  0 10G10G12G13G15G18G20G21G24G25G32
  22799500.033          31.800  
  22284399.628          30.200  
  23876831.215          25.200  
  21532503.957          25.400  
  20917212.914          32.900  
  21563788.498          33.300  
  23219577.022          23.400  
  20196153.893          36.200  
  24842874.335          16.100  
  24935517.401          17.700  
 16 12 26  6 22 20.4070676  0 10G10G12G13G15G18G20G21G24G25G32
  22798925.332          31.200  
  22283788.954          30.100  
  23877279.105          27.400  
  21532799.852          25.900  
  20916912.521          33.900  
  21564320.032          33.600  
  23219911.887          23.000  
  20196302.591          36.300  
  24842099.973          14.100  
  24935001.455          21.600  
 16 12 26  6 22 21.4070679  0 10G10G12G13G15G18G20G21G24G25G32
  22798416.584          28.100  
  22283264.915          29.300  
  23877827.125          27.000  
  21533151.508          23.700  
  20916689.773          34.500  
  21564923.512          33.300  
  23220342.990          19.300  
  20196513.341          35.600  
  24841444.024          14.100  
  24934573.951          16.600  
 16 12 26  6 22 22.4070679  0 10G10G12G13G15G18G20G21G24G25G32
  22797839.182          34.900  
  22282664.130          30.000  
  23878285.804          23.900  
  21533462.393          27.500  
  20916389.682          34.900  
  21565458.942          33.200  
  23220672.464          25.000  
  20196652.747          36.600  
  24840711.032          14.100  
  24934066.704          19.200  
 16 12 26  6 22 23.4070679  0 10G10G12G13G15G18G20G21G24G25G32
  22797256.986          37.300  
  22282051.653          30.500  
  23878735.195          27.800  
  21533740.301          23.100  
  20916093.190          36.800  
  21565988.975          33.600  
  23221001.631          22.300  
  20196801.444          34.500  
  24839978.341          14.100  
  24933564.849          19.200  
 16 12 26  6 22 24.4070679  0 10G10G12G13G15G18G20G21G24G25G32
  22796678.385          38.500  
  22281449.970          29.800  
  23879192.076          29.100  
  21534056.280          24.800  
  20915789.800          37.000  
  21566525.604          33.700  
  23221356.290          21.900  
  20196942.045          33.400  
  24839245.645          14.100  
  24933074.689          17.000  
 16 12 26  6 22 25.4070679  0 10G10G12G13G15G18G20G21G24G25G32
  22796097.088          38.700  
  22280862.378          30.200  
  23879659.755          27.300  
  21534336.889          23.600  
  20915493.605          37.800  
  21567058.935          33.100  
  23221690.557          21.100  
  20197078.750          33.100  
  24838519.550          14.400  
  24932557.247          24.300  
 16 12 26  6 22 26.4070679  0 10G10G12G13G15G18G20G21G24G25G32
  22795518.787          39.900  
  22280254.399          31.500  
  23880122.635          27.500  
  21534629.184          25.900  
  20915190.813          38.200  
  21567589.565          33.300  
  23222029.920          22.500  
  20197224.451          31.200  
  24837786.855          14.400  
  24932076.380          21.100  
 16 12 26  6 22 27.4070679  0 10G10G12G13G15G18G20G21G24G25G32
  22794942.590          40.700  
  22279641.325          30.500  
  23880575.621          28.600  
  21534905.295          27.700  
  20914892.519          37.900  
  21568120.200          32.600  
  23222358.796          25.100  
  20197364.755          31.400  
  24837054.465          14.400  
  24931534.655          26.000  
 16 12 26  6 22 28.4070679  0 10G10G12G13G15G18G20G21G24G25G32
  22794360.691          40.400  
  22279041.740          31.800  
  23881034.300          29.200  
  21535203.589          29.200  
  20914592.126          37.700  
  21568654.129          32.800  
  23222699.359          23.700  
  20197509.853          31.700  
  24836321.770          14.400  
  24931034.903          24.400  
 16 12 26  6 22 29.4070679  0 10G10G12G13G15G18G20G21G24G25G32
  22793780.593          39.900  
  22278440.955          30.900  
  23881482.492          29.600  
  21535485.990          28.600  
  20914291.734          37.600  
  21569187.460          32.500  
  23223041.422          18.900  
  20197652.853          31.600  
  24835589.380          14.400  
  24930535.146          24.300  
 16 12 26  6 22 30.4070679  0 10G10G12G13G15G18G20G21G24G25G32
  22793203.794          43.200  
  22277850.064          27.000  
  23881961.862          25.400  
  21535776.789          29.300  
  20913991.342          38.900  
  21569729.787          28.200  
  23223423.058          18.100  
  20197797.952          33.300  
  24834868.376          14.200  
  24930035.996          29.500  
 16 12 26  6 22 31.4070679  0  9G10G12G13G15G18G20G21G24G32
  22792623.395          42.600  
  22277239.385          27.700  
  23882417.544          27.500  
  21536072.086          32.400  
  20913695.150          40.100  
  21570309.583          23.400  
  23223751.031          21.600  
  20197940.656          35.400  
  24929527.544          29.600  
 16 12 26  6 22 32.4070682  0  9G10G12G13G15G18G20G21G24G32
  22792120.645          39.200  
  22276724.045          29.000  
  23882948.480          27.100  
  21536433.340          31.500  
  20913470.610          39.100  
  21570877.396          26.700  
  23224133.269          22.100  
  20198155.908          32.400  
  24929097.349          29.100  
 16 12 26  6 22 33.4070682  0  9G10G12G13G15G18G20G21G24G32
  22791542.646          41.500  
  22276134.956          26.000  
  23883397.871          26.200  
  21536725.339          28.000  
  20913171.116          41.300  
  21571403.830          23.100  
  23224475.634          21.900  
  20198297.111          35.700  
  24928579.906          22.200  
 16 12 26  6 22 34.4070682  0  9G10G12G13G15G18G20G21G24G32
  22790961.048          39.500  
  22275537.169          27.300  
  23883875.139          23.900  
  21537026.329          24.400  
  20912872.521          37.100  
  21571942.858          27.600  
  23224818.893          24.300  
  20198440.111          35.500  
  24928155.098          17.400  
 16 12 26  6 22 35.4070682  0  9G10G12G13G15G18G20G21G24G32
  22790384.846          40.500  
  22274899.211          25.900  
  23884329.023          25.400  
  21537307.535          30.900  
  20912573.328          38.800  
  21572469.890          24.400  
  23225161.558          24.600  
  20198586.410          35.700  
  24927598.685          16.400  
 16 12 26  6 22 36.4070682  0  8G10G12G15G18G20G21G24G32
  22789802.349          40.400  
  22274329.304          26.900  
  21537595.036          33.000  
  20912271.736          39.900  
  21573027.507          24.700  
  23225495.228          24.800  
  20198727.612          33.300  
  24927196.361          18.200  
 16 12 26  6 22 37.4070682  0  8G10G12G15G18G20G21G24G32
  22789227.648          33.000  
  22273707.234          28.900  
  21537886.433          32.500  
  20911976.443          39.600  
  21573554.840          23.800  
  23225832.192          26.100  
  20198873.911          35.800  
  24926695.409          18.200  
 16 12 26  6 22 38.4070682  0  9G10G12G13G15G18G20G21G24G32
  22788642.154          30.100  
  22273116.344          28.300  
