     2.11           OBSERVATION DATA    G (GPS)             RINEX VERSION / TYPE
AndroidGNSSReceiver RITSUMEIKAN KUBOLAB 1508137119006       PGM / RUN BY / DATE
shamu                                                       MARKER NAME
GNSSLogger+R        KUBOLAB                                 OBSERVER / AGENCY
0                   Android Receiver                        REC # / TYPE / VERS
0                   Android Anttena                         ANT # / TYPE
        0.0000        0.0000        0.0000                  APPROX POSITION XYZ
        0.0000        0.0000        0.0000                  ANTENNA: DELTA H/E/N
1     0                                                     WAVELENGTH FACT L1/2
2         C1     S1                                         # / TYPES OF OBSERV
1.000                                                       INTERVAL
  2017    10    16     6    59    0.3950339     GPS         TIME OF FIRST OBS
                                                            END OF HEADER
 17 10 16  6 59  0.3950338  0  8G 2G 5G13G15G20G21G29G30
  21739020.789          39.400  
  20645684.890          35.800  
  20261135.108          34.600  
  21501470.042          35.200  
  21412213.433          27.200  
  25240980.433          28.400  
  23273766.307          26.600  
  22681462.750          23.200  
 17 10 16  6 59  1.3950338  0  8G 2G 5G13G15G20G21G29G30
  21739548.424          41.600  
  20645790.417          37.300  
  20261135.108          36.000  
  21501095.901          35.800  
  21411800.919          31.200  
  25240433.611          28.900  
  23274102.074          28.700  
  22681808.111          20.800  
 17 10 16  6 59  2.3950338  0  8G 2G 5G13G15G20G21G29G30
  21740085.652          41.000  
  20645905.537          39.600  
  20261096.735          35.800  
  21500712.167          36.600  
  21411378.811          30.600  
  25239819.636          28.800  
  23274485.809          30.000  
  22682153.472          21.100  
 17 10 16  6 59  3.3950338  0  9G 2G 5G13G15G20G21G24G29G30
  21740622.880          40.900  
  20645982.284          39.900  
  20261096.735          34.300  
  21500405.179          32.200  
  21410995.077          29.700  
  25239282.408          29.300  
  25108352.249          16.500  
  23274869.543          31.200  
  22682383.713          24.500  
 17 10 16  6 59  4.3950338  0 10G 2G 5G 7G13G15G20G21G24G29G30
  21741160.108          41.400  
  20645982.284          37.500  
  24971435.835          25.600  
  20261019.988          34.800  
  21500021.445          34.500  
  21410534.595          29.600  
  25238668.433          26.900  
  25107584.781          16.600  
  23275176.531          29.900  
  22682690.700          25.700  
 17 10 16  6 59  5.3950338  0  9G 2G 5G13G15G20G21G24G29G30
  21741774.083          42.900  
  20646289.271          37.500  
  20261173.481          35.000  
  21499714.457          34.700  
  21410381.102          27.700  
  25238207.952          27.400  
  25106970.806          16.200  
  23275637.012          33.300  
  22683151.181          24.900  
 17 10 16  6 59  6.3950336  0  9G 2G 5G13G15G20G21G24G29G30
  21742234.564          41.700  
  20646289.271          37.900  
  20261019.988          35.400  
  21499253.976          34.500  
  21409767.127          28.700  
  25237440.484          25.000  
  25106049.843          16.000  
  23275790.506          33.000  
  22683304.675          25.000  
 17 10 16  6 59  7.3950336  0 10G 2G 5G 7G13G15G20G21G24G29G30
  21742695.045          43.400  
  20646289.271          36.500  
  24972970.772          29.500  
  20260866.494          36.400  
  21498793.495          35.000  
  21409306.645          31.800  
  25236980.002          29.600  
  25105435.868          16.000  
  23276250.987          35.300  
  22683611.662          24.900  
 17 10 16  6 59  8.3950336  0  9G 2G 5G13G15G20G21G24G29G30
  21743309.020          42.400  
  20646442.765          34.100  
  20260866.494          31.400  
  21498486.507          32.700  
  21408999.658          28.600  
  25236366.027          27.200  
  25104668.400          15.800  
  23276557.974          33.100  
  22683918.650          26.000  
 17 10 16  6 59  9.3950336  0 10G 2G 5G 7G13G15G20G21G24G29G30
  21743922.995          40.900  
  20646749.753          39.400  
  24974352.216          28.400  
  20261173.481          34.300  
  21498333.014          32.100  
  21408692.670          27.900  
  25235905.546          29.500  
  25104207.918          15.400  
  23277018.455          34.000  
  22684532.625          28.700  
 17 10 16  6 59 10.3950336  0 10G 2G 5G 7G13G15G20G21G24G29G30
  21744354.696          40.800  
  20646634.632          38.900  
  24974649.610          28.200  
  20260895.274          33.800  
  21497776.599          34.100  
  21408193.816          25.900  
  25235195.638          31.200  
  25103210.209          14.900  
  23277325.443          30.000  
  22684542.218          36.300  
 17 10 16  6 59 11.3950336  0 10G 2G 5G 7G13G15G20G21G24G29G30
  21744882.331          40.000  
  20646749.753          41.900  
  24975196.431          30.300  
  20260866.494          35.600  
  21497412.051          38.500  
  21407771.708          28.100  
  25234639.223          29.200  
  25102481.114          14.600  
  23277709.177          30.300  
  22684877.986          38.400  
 17 10 16  6 59 12.3950336  0 10G 2G 5G 7G13G15G20G21G24G29G30
  21745457.933          41.300  
  20646826.499          41.300  
  24975733.659          29.100  
  20260866.494          35.900  
  21497028.317          38.300  
  21407387.974          26.800  
  25234063.621          27.200  
  25101752.019          14.400  
  23278016.165          24.500  
  22685146.600          42.000  
 17 10 16  6 59 13.3950334  0 10G 2G 5G 7G13G15G20G21G24G29G30
  21745918.414          40.500  
  20646826.499          41.200  
  24976194.141          29.200  
  20260789.747          35.400  
  21496644.583          37.900  
  21406927.492          28.800  
  25233449.646          28.500  
  25100984.550          14.400  
  23278323.152          24.900  
  22685376.840          42.700  
 17 10 16  6 59 14.3950334  0 10G 2G 5G 7G13G15G20G21G24G29G30
  21746532.389          38.000  
  20647056.740          42.600  
  24976808.116          25.400  
  20260866.494          36.000  
  21496337.595          37.500  
  21406543.758          25.300  
  25232989.165          29.000  
  25100370.575          14.400  
  23278706.887          23.500  
  22685760.575          43.200  
 17 10 16  6 59 15.3950334  0  9G 2G 5G13G15G20G21G24G29G30
  21746839.376          42.400  
  20647056.740          42.000  
  20260713.000          36.700  
  21495877.114          35.800  
  21406083.277          25.600  
  25232221.696          30.000  
  25099449.613          14.400  
  23279013.874          24.600  
  22685914.068          42.400  
 17 10 16  6 59 16.3950334  0 10G 2G 5G 7G13G15G20G21G24G29G30
  21747606.845          36.600  
  20647210.234          42.600  
  24977882.572          24.900  
  20260866.494          36.600  
  21495570.126          37.000  
  21405776.289          24.400  
  25231761.215          29.100  
  25098835.638          14.400  
  23279474.355          23.200  
  22686374.550          42.200  
 17 10 16  6 59 17.3950334  0  9G 2G 5G13G15G20G21G24G29G30
  21747913.833          38.000  
  20647210.234          42.500  
  20260559.507          36.800  
  21495109.645          36.100  
  21405315.808          25.800  
  25230993.746          28.100  
  25097914.675          14.400  
  23279781.343          26.100  
  22686681.537          44.400  
 17 10 16  6 59 18.3950334  0  9G 2G 5G13G15G20G21G24G29G30
  21748681.301          39.600  
  20647517.221          42.800  
  20260713.000          36.100  
  21494956.152          37.600  
  21405008.821          28.500  
  25230686.759          24.500  
  25097454.194          14.400  
  23280241.824          26.400  
  22687142.018          45.400  
 17 10 16  6 59 19.3950334  0  9G 2G 5G13G15G20G21G24G29G30
  21749141.782          38.300  
  20647363.728          43.400  
  20260559.507          37.700  
  21494342.177          37.200  
  21404394.846          28.300  
  25230072.784          27.900  
  25096533.232          14.000  
  23280395.318          31.600  
  22687295.512          45.600  
 17 10 16  6 59 20.3950334  0  9G 2G 5G13G15G20G21G24G29G30
  21749679.011          39.300  
  20647574.781          42.300  
  20260645.847          36.700  
  21494092.749          39.100  
  21404145.418          29.800  
  25229420.436          32.100  
  25095871.290          14.000  
  23280884.579          31.400  
  22687631.280          45.100  
 17 10 16  6 59 21.3950334  0  9G 2G 5G13G15G20G21G24G29G30
  21750216.239          36.300  
  20647670.715          41.900  
  20260636.253          35.400  
  21493728.202          37.200  
  21403742.497          29.200  
  25228844.834          28.200  
  25095151.788          14.000  
  23281239.533          32.600  
  22687947.861          44.300  
 17 10 16  6 59 22.3950331  0  9G 2G 5G13G15G20G21G24G29G30
  21750676.720          39.400  
  20647670.715          39.200  
  20260559.507          35.700  
  21493267.720          37.500  
  21403243.643          31.100  
  25228154.112          30.100  
  25094307.572          14.000  
  23281546.521          34.500  
  22688216.475          44.100  
 17 10 16  6 59 23.3950331  0  9G 2G 5G13G15G20G21G24G29G30
  21751213.948          35.600  
  20647824.209          42.200  
  20260482.760          35.500  
  21492960.733          35.600  
  21402859.908          30.800  
  25227616.884          27.800  
  25093616.851          14.000  
  23281930.255          30.900  
  22688523.462          42.100  
 17 10 16  6 59 24.3950331  0  9G 2G 5G13G15G20G21G24G29G30
  21751751.176          37.700  
  20647824.209          41.700  
  20260559.507          36.100  
  21492500.252          35.800  
  21402552.921          31.200  
  25227002.909          21.000  
  25092849.382          14.300  
  23282237.243          31.900  
  22688830.450          31.900  
 17 10 16  6 59 25.3950331  0 10G 2G 5G 7G13G15G20G21G24G29G30
  21752365.151          36.200  
  20647977.702          42.900  
  24982640.878           0.000  
  20260406.013          37.400  
  21492193.264          38.800  
  21402092.440          32.100  
  25226542.428          22.700  
  25092081.913          18.600  
  23282544.230          36.600  
  22689137.437          28.200  
 17 10 16  6 59 26.3950331  0 10G 2G 5G 7G13G15G20G21G24G29G30
  21752825.632          34.000  
  20648131.196          43.100  
  24983101.359          21.700  
  20260406.013          36.800  
  21491886.277          37.800  
  21401631.958          31.400  
  25225928.453          22.300  
  25091467.938          18.500  
  23283004.711          33.800  
  22689444.424          27.600  
 17 10 16  6 59 27.3950331  0 10G 2G 5G 7G13G15G20G21G24G29G30
  21753439.607          36.700  
  20648131.196          42.700  
  24983561.840          21.100  
  20260406.013          36.900  
  21491425.796          35.100  
  21401324.971          30.800  
  25225314.478          24.600  
  25090700.470          18.500  
  23283311.699          38.600  
  22689751.412          27.500  
 17 10 16  6 59 28.3950331  0 10G 2G 5G 7G13G15G20G21G24G29G30
  21753900.088          39.100  
  20648284.690          41.900  
  24984175.815          23.700  
  20260406.013          36.400  
  21491118.808          36.900  
  21400864.490          33.500  
  25224700.503          26.500  
  25089933.001          18.500  
  23283772.180          32.200  
  22690058.399          25.900  
 17 10 16  6 59 29.3950331  0  9G 2G 5G 7G13G15G20G21G29G30
  21754360.570          39.900  
  20648284.690          41.700  
  24984789.790          25.700  
  20260559.507          36.800  
  21490658.327          37.400  
  21400404.009          29.800  
  25224240.022          21.800  
  23284079.167          29.700  
  22690365.387          25.700  
 17 10 16  6 59 30.3950331  0  9G 2G 5G 7G13G15G20G21G29G30
  21754993.731          42.400  
  20648505.337          39.400  
  24985211.898          23.500  
  20260396.419          35.200  
  21490389.713          36.900  
  21400106.614          28.700  
  25223626.047          29.400  
  23284443.715          30.800  
  22690739.528          25.600  
 17 10 16  6 59 31.3950331  0  8G 2G 5G13G15G20G21G29G30
  21755550.146          40.300  
  20648591.677          42.500  
  20260367.639          37.400  
  21490044.352          39.100  
  21399713.287          25.700  
  25223050.446          28.300  
  23284808.263          30.200  
  22691056.109          24.700  
 17 10 16  6 59 32.3950331  0  9G 2G 5G 7G13G15G20G21G29G30
  21756049.001          37.800  
  20648745.171          43.400  
  24986324.727          25.500  
  20260329.266          37.400  
  21489660.618          35.300  
  21399329.552          30.900  
  25222474.844          30.300  
  23285153.624          32.600  
  22691363.096          24.900  
 17 10 16  6 59 33.3950331  0  9G 2G 5G 7G13G15G20G21G29G30
  21756586.229          36.000  
  20648821.918          43.600  
  24986785.209          27.000  
  20260329.266          37.200  
  21489276.883          30.500  
  21398945.818          28.000  
  25221937.616          27.600  
  23285537.358          29.600  
  22691670.084          27.600  
 17 10 16  6 59 34.3950331  0 10G 2G 5G 7G13G15G20G21G24G29G30
  21757123.457          39.000  
  20648898.665          43.800  
  24987399.184          27.300  
  20260252.519          37.200  
  21488969.896          35.300  
  21398562.084          30.100  
  25221323.641          25.800  
  25085635.176          14.400  
  23285921.092          30.700  
  22692053.818          27.500  
 17 10 16  6 59 35.3950329  0 10G 2G 5G 7G13G15G20G21G24G29G30
  21757737.432          40.400  
  20649052.159          42.100  
  24987859.665          30.300  
  20260252.519          37.200  
  21488509.414          34.600  
  21398101.603          28.200  
  25220709.666          30.600  
  25084867.707          15.300  
  23286228.080          32.100  
  22692360.806          26.500  
 17 10 16  6 59 36.3950329  0 10G 2G 5G 7G13G15G20G21G24G29G30
  21758044.419          39.700  
  20648898.665          43.400  
  24988320.146          27.800  
  20260099.025          38.000  
  21488048.933          36.300  
  21397641.121          28.400  
  25220095.691          29.100  
  25083946.745          15.300  
  23286535.067          32.600  
  22692514.299          28.400  
 17 10 16  6 59 37.3950329  0 10G 2G 5G 7G13G15G20G21G24G29G30
  21758811.888          41.300  
  20649205.652          42.100  
  24988934.121          28.900  
  20260252.519          37.000  
  21487895.440          37.300  
  21397334.134          29.700  
  25219635.210          31.500  
  25083332.770          15.900  
  23286995.548          34.300  
  22692974.780          28.400  
 17 10 16  6 59 38.3950329  0 10G 2G 5G 7G13G15G20G21G24G29G30
  21759118.875          41.200  
  20649205.652          41.300  
  24989394.602          29.300  
  20260099.025          35.800  
  21487281.465          37.400  
  21396720.159          31.200  
  25218867.741          29.000  
  25082565.301          15.400  
  23287149.042          32.500  
  22693128.274          32.100  
 17 10 16  6 59 39.3950329  0 10G 2G 5G 7G13G15G20G21G24G29G30
  21759886.344          39.100  
  20649512.640          41.500  
  24990008.577          28.400  
  20260252.519          36.900  
  21486974.477          34.800  
  21396413.171          31.100  
  25218407.260          27.600  
  25081797.833          16.000  
  23287763.017          31.300  
  22693435.262          37.300  
 17 10 16  6 59 40.3950329  0 10G 2G 5G 7G13G15G20G21G24G29G30
  21760308.452          38.100  
  20649435.893          42.900  
  24990507.432          27.400  
  20260146.992          36.800  
  21486686.676          36.700  
  21396058.217          30.200  
  25217812.472          23.600  
  25081116.704          16.300  
  23287983.664          29.800  
  22693809.403          44.200  
 17 10 16  6 59 41.3950329  0 10G 2G 5G 7G13G15G20G21G24G29G30
  21760845.680          39.100  
  20649551.013          42.200  
  24991044.660          27.500  
  20260137.399          36.800  
  21486322.129          36.600  
  21395645.703          30.300  
  25217256.057          22.400  
  25080378.016          16.600  
  23288376.992          33.200  
  22694125.984          43.200  
 17 10 16  6 59 42.3950329  0 10G 2G 5G 7G13G15G20G21G24G29G30
  21761421.282          39.600  
  20649666.134          41.800  
  24991543.514          26.400  
  20260099.025          36.700  
  21485976.768          37.800  
  21395261.968          30.700  
  25216718.829          27.200  
  25079648.920          16.600  
  23288760.726          34.300  
  22694432.971          43.000  
 17 10 16  6 59 43.3950329  0 10G 2G 5G 7G13G15G20G21G24G29G30
  21761958.510          41.200  
  20649742.880          40.700  
  24992080.743          27.400  
  20260099.025          35.600  
  21485593.033          38.100  
  21394878.234          29.300  
  25216104.854          25.900  
  25078881.452          17.400  
  23289067.714          34.200  
  22694739.958          43.000  
 17 10 16  6 59 44.3950329  0 10G 2G 5G 7G13G15G20G21G24G29G30
  21762342.244          41.300  
  20649819.627          41.100  
  24992617.971          26.800  
  20259945.532          36.800  
  21485132.552          37.700  
  21394417.753          32.400  
  25215490.879          23.000  
  25078113.983          17.400  
  23289297.955          36.000  
  22694970.199          43.500  
 17 10 16  6 59 45.3950329  0 10G 2G 5G 7G13G15G20G21G24G29G30
  21763109.713          42.200  
  20649973.121          40.400  
  24993231.946          29.700  
  20260099.025          36.400  
  21484979.059          39.500  
  21394110.765          31.500  
  25215030.398          23.600  
  25077653.502          17.200  
  23289911.929          36.500  
  22695430.680          42.900  
 17 10 16  6 59 46.3950329  0 10G 2G 5G 7G13G15G20G21G24G29G30
  21763416.700          41.100  
  20649973.121          41.000  
  24993692.427          29.000  
  20259945.532          36.200  
  21484365.084          35.600  
  21393650.284          31.300  
  25214262.929          25.300  
  25076732.539          17.200  
  23290065.423          38.200  
  22695584.174          43.300  
 17 10 16  6 59 47.3950329  0 10G 2G 5G 7G13G15G20G21G24G29G30
  21764184.169          40.800  
  20650280.109          40.800  
  24994306.402          26.900  
  20260099.025          35.900  
  21484211.590          41.100  
  21393343.297          31.000  
  25213955.942          23.000  
  25076118.564          17.200  
  23290679.398          37.100  
  22696044.655          43.900  
 17 10 16  6 59 48.3950329  0 10G 2G 5G 7G13G15G20G21G24G29G30
  21764491.156          40.300  
  20650126.615          41.200  
  24994766.883          27.600  
  20259945.532          35.900  
  21483751.109          40.500  
  21392882.815          30.600  
  25213188.473          24.500  
  25075197.602          17.200  
  23290832.892          34.900  
  22696198.149          36.000  
 17 10 16  6 59 49.3950326  0 10G 2G 5G 7G13G15G20G21G24G29G30
  21764798.144          39.700  
  20650126.615          41.500  
  24995227.364          25.900  
  20259638.544          36.900  
  21483290.627          42.500  
  21392115.347          28.000  
  25212574.498          23.900  
  25074430.133          17.200  
  23291139.879          34.000  
  22696505.136          28.700  
 17 10 16  6 59 50.3950326  0 10G 2G 5G 7G13G15G20G21G24G29G30
  21765632.766          40.500  
  20650366.449          42.200  
  24995774.186          25.900  
  20259897.565          36.500  
  21482983.640          41.100  
  21392029.006          29.700  
  25212056.457          25.500  
  25073787.378          17.200  
  23291552.394          35.800  
  22696917.651          21.400  
 17 10 16  6 59 51.3950326  0  9G 2G 5G13G15G20G21G24G29G30
  21766179.587          40.000  
  20650471.976          41.300  
  20259868.785          37.600  
  21482638.279          40.400  
  21391616.492          29.700  
  25211461.668          25.600  
  25073048.690          17.200  
  23291907.348          34.000  
  22697234.232          24.200  
 17 10 16  6 59 52.3950326  0  9G 2G 5G13G15G20G21G24G29G30
  21766716.816          36.200  
  20650587.096          43.300  
  20259868.785          37.400  
  21482292.918          40.900  
  21391194.384          36.300  
  25210886.067          24.600  
  25072281.221          13.000  
  23292291.082          36.600  
  22697579.593          22.200  
 17 10 16  6 59 53.3950326  0  8G 2G 5G13G15G20G21G24G29
  21767254.044          37.100  
  20650663.843          41.900  
  20259868.785          35.900  
  21481909.184          39.600  
  21390810.650          40.200  
  25210272.092          26.300  
  25071513.752          13.000  
  23292674.817          33.500  
 17 10 16  6 59 54.3950326  0  9G 2G 5G 7G13G15G20G21G24G29
  21767868.019          36.200  
  20650740.590          42.900  
  24997990.251          19.700  
  20259792.038          35.000  
  21481602.196          42.400  
  21390426.916          35.600  
  25209658.117          24.900  
  25070746.284          13.000  
  23292981.804          32.600  
 17 10 16  6 59 55.3950326  0 10G 2G 5G 7G13G15G20G21G24G29G30
  21768328.500          37.000  
  20650894.084          42.200  
  24998604.226          21.100  
  20259792.038          36.100  
  21481141.715          41.800  
  21389966.434          37.700  
  25209197.636          27.800  
  25070132.309          13.000  
  23293442.285          36.000  
  22698500.555          24.900  
 17 10 16  6 59 56.3950326  0 10G 2G 5G 7G13G15G20G21G24G29G30
  21768788.981          35.900  
  20650894.084          41.700  
  24999064.708          25.400  
  20259792.038          38.700  
  21480834.728          42.700  
  21389659.447          35.200  
  25208583.661          27.500  
  25069364.840          15.100  
  23293749.273          38.900  
  22698807.543          23.100  
 17 10 16  6 59 57.3950326  0 10G 2G 5G 7G13G15G20G21G24G29G30
  21769402.956          36.600  
  20651047.577          41.200  
  24999525.189          23.900  
  20259792.038          37.200  
  21480527.740          40.100  
  21389198.966          35.700  
  25207969.686          24.700  
  25068597.371          15.100  
  23294056.260          36.000  
  22699114.530          24.300  
 17 10 16  6 59 58.3950326  0  9G 2G 5G 7G13G15G20G21G24G29
  21770016.931          38.600  
  20651201.071          41.400  
  25000139.164          24.600  
  20259792.038          37.100  
  21480067.259          37.800  
  21388891.978          38.300  
  25207355.711          27.700  
  25067983.396          15.100  
  23294516.742          34.700  
 17 10 16  6 59 59.3950326  0  9G 2G 5G 7G13G15G20G21G24G29
  21770323.918          36.900  
  20651047.577          42.600  
  25000446.151          22.700  
  20259638.544          38.400  
  21479606.778          39.100  
  21388431.497          34.500  
  25206741.736          28.100  
  25067062.434          15.100  
  23294516.742          35.100  
 17 10 16  7  0  0.3950326  0 10G 2G 5G 7G13G15G20G21G24G29G30
  21771024.234          36.400  
  20651364.158          41.500  
  25001213.620          24.200  
  20259734.478          37.200  
  21479357.350          35.300  
  21388038.169          35.800  
  25206281.255          26.300  
  25066477.239          15.100  
  23295197.870          34.100  
  22700121.833           0.000  
 17 10 16  7  0  1.3950326  0 10G 2G 5G 7G13G15G20G21G24G29G30
  21771551.868          35.800  
  20651469.685          42.000  
  25001712.475          22.800  
  20259715.291          36.400  
  21478992.803          37.900  
  21387625.655          31.100  
  25205667.280          25.900  
  25065757.737          15.100  
  23295629.571          33.700  
  22700419.227          26.000  
 17 10 16  7  0  2.3950326  0 10G 2G 5G 7G13G15G20G21G24G29G30
  21772089.096          35.700  
  20651584.805          41.900  
  25002211.329          23.400  
  20259715.291          36.700  
  21478609.068          36.900  
  21387280.294          32.600  
  25205130.052          25.600  
  25064990.268          15.100  
  23295974.932          35.000  
  22700726.214          23.800  
 17 10 16  7  0  3.3950326  0  9G 2G 5G 7G13G15G20G21G29G30
  21772626.324          35.300  
  20651661.552          42.400  
  25002825.304          24.600  
  20259715.291          37.000  
  21478302.081          38.900  
  21386819.813          29.500  
  25204516.077          25.000  
  23296281.920          34.100  
  22701033.202          27.500  
 17 10 16  7  0  4.3950326  0 10G 2G 5G 7G13G15G20G21G24G29G30
  21773240.299          38.800  
  20651815.046          41.200  
  25003362.532          25.000  
  20259638.544          35.900  
  21477918.347          37.800  
  21386436.078          33.300  
  25203978.849          28.300  
  25063532.078          22.100  
  23296665.654          36.400  
  22701416.936          26.400  
 17 10 16  7  0  5.3950324  0 10G 2G 5G 7G13G15G20G21G24G29G30
  21773547.287          38.700  
  20651661.552          41.100  
  25003669.520          24.200  
  20259485.050          36.400  
  21477457.865          37.800  
  21385822.103          28.600  
  25203211.380          23.200  
  25062611.115          18.600  
  23296819.148          38.500  
  22701570.430          28.500  
 17 10 16  7  0  6.3950324  0 10G 2G 5G 7G13G15G20G21G24G29G30
  21774314.756          39.500  
  20651968.540          42.800  
  25004436.988          25.000  
  20259638.544          36.800  
  21477150.878          37.000  
  21385668.610          32.100  
  25202750.899          24.600  
  25062150.634          18.000  
  23297433.123          39.900  
  22702030.911          32.900  
 17 10 16  7  0  7.3950324  0 10G 2G 5G 7G13G15G20G21G24G29G30
  21774621.743          34.000  
  20651968.540          42.800  
  25004743.976          23.700  
  20259485.050          36.900  
  21476690.397          36.800  
  21385054.635          28.100  
  25202136.924          24.000  
  25061229.672          18.100  
  23297740.110          37.600  
  22702184.405          39.100  
 17 10 16  7  0  8.3950324  0  9G 2G 5G13G15G20G21G24G29G30
  21775389.212          38.600  
  20652122.033          42.200  
  20259638.544          36.600  
  21476536.903          35.400  
  21384901.141          27.800  
  25201676.442          25.000  
  25060615.697          17.100  
  23298200.591          34.700  
  22702644.886          43.600  
 17 10 16  7  0  9.3950324  0 10G 2G 5G 7G13G15G20G21G24G29G30
  21775849.693          40.500  
  20651968.540          40.500  
  25005971.926          23.000  
  20259331.557          36.300  
  21475922.928          34.500  
  21384440.660          29.800  
  25200908.974          24.600  
  25059694.734          16.800  
  23298200.591          33.600  
  22702644.886          39.900  
 17 10 16  7  0 10.3950324  0  9G 2G 5G13G15G20G21G24G29G30
  21776338.954          41.900  
  20652294.714          39.200  
  20259485.050          35.400  
  21475663.907          36.500  
  21383970.585          27.200  
  25200419.712          27.800  
  25059061.573          17.200  
  23298785.786          34.400  
  22703182.114          35.100  
 17 10 16  7  0 11.3950324  0 10G 2G 5G 7G13G15G20G21G24G29G30
  21776885.776          41.600  
  20652390.647          38.100  
  25007084.755          23.900  
  20259485.050          36.200  
  21475308.953          36.600  
  21383596.444          31.200  
  25199872.891          28.300  
  25058351.664          16.900  
  23299083.180          38.300  
  22703489.102          30.600  
 17 10 16  7  0 12.3950324  0  9G 2G 5G13G15G20G21G24G29G30
  21777384.630          39.500  
  20652505.768          39.200  
  20259485.050          36.200  
  21474925.219          41.100  
  21383212.710          33.300  
  25199297.289          26.000  
  25057622.569          16.800  
  23299428.541          41.400  
  22703796.089          33.000  
 17 10 16  7  0 13.3950324  0 10G 2G 5G 7G13G15G20G21G24G29G30
  21777998.605          40.200  
  20652582.515          38.600  
  25008120.838          24.400  
  20259408.303          36.300  
  21474541.484          40.900  
  21382752.229          34.700  
  25198683.315          21.800  
  25056855.100          16.700  
  23299812.276          43.000  
  22704103.077          32.100  
 17 10 16  7  0 14.3950324  0 10G 2G 5G 7G13G15G20G21G24G29G30
  21778612.580          38.600  
  20652736.008          37.000  
  25008734.813          26.900  
  20259485.050          36.200  
  21474234.497          39.800  
  21382445.241          31.700  
  25198146.086          26.700  
  25056164.378          16.700  
  23300196.010          44.600  
  22704486.811          31.800  
 17 10 16  7  0 15.3950324  0 10G 2G 5G 7G13G15G20G21G24G29G30
  21778919.568          38.800  
  20652736.008          35.600  
  25009195.294          24.400  
  20259331.557          33.800  
  21473774.016          37.600  
  21381984.760          28.700  
  25197532.112          24.600  
  25055396.910          16.600  
  23300502.997          38.900  
  22704793.798          29.100  
 17 10 16  7  0 16.3950324  0 10G 2G 5G 7G13G15G20G21G24G29G30
  21779687.036          37.600  
  20653042.996          36.200  
  25009809.269          26.500  
  20259485.050          34.600  
  21473620.522          30.800  
  21381677.772          31.200  
  25197071.630          25.500  
  25054782.935          16.700  
  23300963.479          35.800  
  22705254.280          30.000  
 17 10 16  7  0 17.3950324  0 10G 2G 5G 7G13G15G20G21G24G29G30
  21779994.024          37.500  
  20652889.502          37.000  
  25010269.751          25.400  
  20259331.557          36.400  
  21473006.547          35.300  
  21381063.798          34.700  
  25196304.162          30.000  
  25053861.972          16.700  
  23301270.466          36.200  
  22705407.773          30.300  
 17 10 16  7  0 18.3950324  0  9G 2G 5G 7G13G15G20G21G29G30
  21780761.493          36.000  
  20653196.490          37.700  
  25010883.725          25.100  
  20259485.050          37.600  
  21472853.053          42.200  
  21380910.304          36.100  
  25195843.680          26.700  
  23301730.947          38.500  
  22705868.254          31.400  
 17 10 16  7  0 19.3950324  0  9G 2G 5G 7G13G15G20G21G29G30
  21781068.480          42.400  
  20653196.490          35.200  
  25011190.713          25.100  
  20259331.557          33.900  
  21472239.078          39.800  
  21380449.823          36.400  
  25195076.212          30.600  
  23301884.441          42.100  
  22706021.748          30.300  
 17 10 16  7  0 20.3950324  0  9G 2G 5G 7G13G15G20G21G29G30
  21781749.609          39.300  
  20653302.017          34.700  
  25011823.875          25.000  
  20259331.557          32.800  
  21472028.024          38.900  
  21379989.341          31.300  
  25194654.104          27.100  
  23302354.516          40.000  
  22706386.296          31.600  
 17 10 16  7  0 21.3950324  0  9G 2G 5G 7G13G15G20G21G29G30
  21782296.430          38.100  
  20653388.357          35.000  
  25012418.663          24.400  
  20259293.183          34.200  
  21471663.477          43.800  
  21379567.234          34.100  
  25194078.502          28.100  
  23302728.657          40.600  
  22706712.470          29.000  
 17 10 16  7  0 22.3950324  0  9G 2G 5G 7G13G15G20G21G29G30
  21782833.658          34.000  
  20653503.477          31.200  
  25012955.891          23.100  
  20259254.810          34.900  
  21471318.116          43.200  
  21379221.873          35.000  
  25193541.274          29.400  
  23303112.391          39.700  
  22707019.458          27.300  
 17 10 16  7  0 23.3950324  0 10G 2G 5G 7G13G15G20G21G24G29G30
  21783370.886          39.700  
  20653580.224          30.800  
  25013416.372          25.500  
  20259254.810          35.900  
  21470934.381          40.900  
  21378761.391          34.300  
  25192927.299          26.900  
  25049640.894          15.600  
  23303419.378          36.800  
  22707403.192          29.100  
 17 10 16  7  0 24.3950324  0 10G 2G 5G 7G13G15G20G21G24G29G30
  21783984.861          39.300  
  20653810.465          32.900  
  25014107.094          26.800  
  20259331.557          35.800  
  21470704.141          42.600  
  21378454.404          34.400  
  25192466.818          24.700  
  25048950.173          16.100  
  23303879.860          33.900  
  22707710.179          29.000  
 17 10 16  7  0 25.3950324  0 10G 2G 5G 7G13G15G20G21G24G29G30
  21784445.342          39.900  
  20653656.971          34.200  
  25014414.081          27.300  
  20259178.063          32.900  
  21470090.166          43.300  
  21377840.429          33.100  
  25191699.349          27.900  
  25048029.210          16.200  
  23304186.847          31.200  
  22707863.673          28.600  
 17 10 16  7  0 26.3950324  0 10G 2G 5G 7G13G15G20G21G24G29G30
  21785059.317          40.500  
  20653963.958          34.500  
  25015181.550          24.000  
  20259331.557          33.700  
  21469936.672          42.100  
  21377686.935          32.900  
  25191238.868          30.400  
  25047415.235          16.400  
  23304647.328          28.100  
  22708324.154          28.600  
 17 10 16  7  0 27.3950324  0 10G 2G 5G 7G13G15G20G21G24G29G30
  21785519.798          41.300  
  20653963.958          33.500  
  25015488.538          26.500  
  20259178.063          35.500  
  21469476.191          41.300  
  21377072.960          34.600  
  25190624.893          27.300  
  25046647.767          16.000  
  23304800.822          28.100  
  22708477.648          30.800  
 17 10 16  7  0 28.3950324  0 10G 2G 5G 7G13G15G20G21G24G29G30
  21786133.773          41.700  
  20654117.452          34.300  
  25016256.006          25.900  
  20259331.557          35.600  
  21469169.203          39.200  
  21376919.467          33.800  
  25190164.412          25.900  
  25046033.792          16.500  
  23305414.797          23.200  
  22708938.129          31.000  
 17 10 16  7  0 29.3950322  0 10G 2G 5G 7G13G15G20G21G24G29G30
  21786594.255          42.000  
  20654117.452          34.100  
  25016716.488          29.800  
  20259024.569          34.900  
  21468555.228          42.400  
  21376458.985          35.800  
  25189550.437          27.900  
  25045266.323          16.700  
  23305568.291          22.400  
  22709091.623          32.100  
 17 10 16  7  0 30.3950322  0 10G 2G 5G 7G13G15G20G21G24G29G30
  21787093.109          35.500  
  20654232.572          34.800  
  25017100.222          29.300  
  20259082.129          34.700  
  21468334.581          45.000  
  21375912.164          35.800  
  25188802.155          29.100  
  25044383.734          16.400  
  23305942.432          21.400  
  22709513.731          31.400  
 17 10 16  7  0 31.3950322  0  9G 2G 5G 7G13G15G20G21G24G30
  21787630.337          25.200  
  20654347.693          34.500  
  25017637.450          22.800  
  20259062.943          33.800  
  21467979.627          45.500  
  21375538.023          38.900  
  25188245.740          27.100  
  25043654.639          16.100  
  22709820.718          30.000  
 17 10 16  7  0 32.3950322  0  9G 2G 5G 7G13G15G20G21G24G30
  21788205.939          23.900  
  20654424.439          34.100  
  25018174.678          25.100  
  20259024.569          35.400  
  21467634.266          40.400  
  21375154.289          32.900  
  25187631.765          26.000  
  25042887.170          16.000  
  22710166.079          32.600  
 17 10 16  7  0 33.3950322  0 10G 2G 5G 7G13G15G20G21G24G29G30
  21788743.167          20.800  
  20654501.186          33.400  
  25018711.906          22.300  
  20259024.569          34.300  
  21467250.532          36.200  
  21374693.807          31.600  
  25187017.790          26.600  
  25042196.448          16.000  
  23307026.481          22.300  
  22710473.067          31.500  
 17 10 16  7  0 34.3950322  0 10G 2G 5G 7G13G15G20G21G24G29G30
  21789203.648          20.600  
  20654577.933          33.200  
  25019172.387          24.500  
  20259024.569          34.000  
  21466866.797          40.900  
  21374310.073          34.500  
  25186480.562          24.300  
  25041428.979          16.000  
  23307410.216          20.900  
  22710780.054          29.800  
 17 10 16  7  0 35.3950322  0 10G 2G 5G 7G13G15G20G21G24G29G30
  21789817.623          18.500  
  20654731.427          33.200  
  25019786.362          23.800  
  20259024.569          34.600  
  21466559.810          43.100  
  21373849.592          33.800  
  25185866.587          26.000  
  25040661.511          16.000  
  23307717.203          20.800  
  22711087.042          33.600  
 17 10 16  7  0 36.3950322  0 10G 2G 5G 7G13G15G20G21G24G29G30
  21790431.598          18.500  
  20654884.921          34.600  
  25020400.337          22.900  
  20259024.569          34.800  
  21466099.329          38.100  
  21373542.604          31.800  
  25185252.612          26.500  
  25040047.536          16.000  
  23308177.684          23.300  
  22711394.029          34.000  
 17 10 16  7  0 37.3950322  0 10G 2G 5G 7G13G15G20G21G24G29G30
  21790892.079          16.600  
  20654884.921          36.200  
  25020860.818          22.400  
  20259024.569          34.000  
  21465792.341          35.600  
  21373082.123          32.000  
  25184792.131          27.000  
  25039280.067          16.000  
  23308484.672          23.600  
  22711701.017          32.700  
 17 10 16  7  0 38.3950322  0  9G 5G 7G13G15G20G21G24G29G30
  20655038.414          35.800  
  25021321.300          24.100  
  20259024.569          34.400  
  21465485.354          42.400  
  21372775.136          37.000  
  25184178.156          27.800  
  25038512.598          16.000  
  23308791.659          23.500  
  22712008.004          31.500  
 17 10 16  7  0 39.3950322  0  8G 5G 7G13G15G20G21G24G30
  20655038.414          33.700  
  25021935.275          23.200  
  20259024.569          33.500  
  21465178.366          43.800  
  21372161.161          38.900  
  25183717.675          34.300  
  25037898.623          16.000  
  22712468.485          29.200  
 17 10 16  7  0 40.3950322  0  9G 2G 5G 7G13G15G20G21G24G30
  21792522.950           0.000  
  20655230.282          34.800  
  25022443.723          23.000  
  20258919.042          33.800  
  21464698.698          37.400  
  21371911.733          35.700  
  25183017.360          26.900  
  25037073.595          16.000  
  22712689.133          33.100  
 17 10 16  7  0 41.3950322  0 10G 2G 5G 7G13G15G20G21G24G29G30
  21793079.365          20.000  
  20655345.402          31.000  
  25022971.357          25.700  
  20258909.449          36.300  
  21464334.151          39.700  
  21371508.812          32.800  
  25182451.352          32.300  
  25036325.313          16.000  
  23309942.862           0.000  
  22713005.713          32.500  
 17 10 16  7  0 42.3950322  0 10G 2G 5G 7G13G15G20G21G24G29G30
  21793578.220          20.000  
  20655422.149          35.600  
  25023546.959          22.800  
  20258871.075          35.100  
  21463950.416          39.600  
  21371086.705          32.100  
  25181875.750          32.100  
  25035596.217          16.000  
  23310249.850          22.900  
  22713312.701          30.600  
 17 10 16  7  0 43.3950322  0 10G 2G 5G 7G13G15G20G21G24G29G30
  21794115.448          19.200  
  20655498.896          35.400  
  25024084.187          23.200  
  20258871.075          35.500  
  21463643.429          40.300  
  21370702.970          35.900  
  25181261.775          29.700  
  25034905.496          16.000  
  23310633.584          22.300  
  22713696.435          28.600  
 17 10 16  7  0 44.3950322  0  9G 2G 5G 7G13G15G20G21G24G30
  21794729.423          18.600  
  20655652.389          35.700  
  25024544.668          22.600  
  20258871.075          35.700  
  21463182.948          39.600  
  21370319.236          37.500  
  25180647.800          29.900  
  25034214.774          16.000  
  22714003.423          27.300  
 17 10 16  7  0 45.3950322  0  9G 5G 7G13G15G20G21G24G29G30
  20655805.883          33.200  
  25025158.643          23.200  
  20258871.075          34.800  
  21462875.960          37.600  
  21369858.755          39.600  
  25180187.319          32.400  
  25033447.305          16.000  
  23311401.053           0.000  
  22714310.410          28.900  
 17 10 16  7  0 46.3950322  0  8G 5G 7G13G15G20G21G24G30
  20655805.883          31.400  
  25025772.618          20.700  
  20258871.075          36.000  
  21462568.973          32.600  
  21369551.767          36.400  
  25179573.344          34.700  
  25032679.836          16.000  
  22714617.398          28.200  
 17 10 16  7  0 47.3950322  0  9G 2G 5G 7G13G15G20G21G24G30
  21796264.360          21.800  
  20655959.377          36.200  
  25026233.099          21.700  
  20258871.075          36.600  
  21462108.491          31.000  
  21369091.286          34.700  
  25178959.369          35.600  
  25031912.368          16.000  
  22714924.385          28.800  
 17 10 16  7  0 48.3950322  0  9G 2G 5G 7G13G15G20G21G24G30
  21796878.335          21.300  
  20656112.871          36.300  
  25026693.581          22.100  
  20258871.075          35.200  
  21461801.504          34.700  
  21368630.805          37.300  
  25178345.394          38.400  
  25031144.899          16.000  
  22715231.373          30.500  
 17 10 16  7  0 49.3950322  0  9G 2G 5G 7G13G15G20G21G24G30
  21797338.816          21.000  
  20656266.364          36.700  
  25027154.062          24.100  
  20258717.582          36.700  
  21461494.517          32.300  
  21368170.324          34.500  
  25177884.913          35.700  
  25030530.924          16.000  
  22715538.360          32.600  
 17 10 16  7  0 50.3950322  0  9G 2G 5G 7G13G15G20G21G24G30
  21797924.011          21.400  
  20656237.584          35.200  
  25027825.597          24.400  
  20258775.142          35.700  
  21461082.002          32.100  
  21367911.303          33.600  
  25177232.565          32.500  
  25029753.862          16.000  
  22715902.908          28.800  
 17 10 16  7  0 51.3950322  0  8G 2G 5G 7G13G15G20G21G30
  21798490.019          19.800  
  20656343.111          35.900  
  25028382.012          21.700  
  20258755.955          34.800  
  21460727.048          30.300  
  21367517.975          32.400  
  25176656.963          30.400  
  22716229.082          30.100  
 17 10 16  7  0 52.3950322  0  9G 2G 5G 7G13G15G20G21G29G30
  21799027.247          24.000  
  20656419.858          36.500  
  25028919.240          20.300  
  20258717.582          37.000  
  21460343.313          34.400  
  21367095.867          32.900  
  25176119.735          28.300  
  23313856.953          21.500  
  22716536.069          31.100  
 17 10 16  7  0 53.3950322  0  8G 2G 5G 7G13G15G20G21G30
  21799564.476          23.500  
  20656573.352          37.500  
  25029456.468          21.300  
  20258717.582          36.400  
  21459959.579          34.200  
  21366712.133          37.000  
  25175505.760          27.300  
  22716843.057          30.200  
 17 10 16  7  0 54.3950322  0  8G 2G 5G 7G13G15G20G21G30
  21800101.704          22.500  
  20656573.352          36.100  
  25029916.949          21.800  
  20258717.582          35.400  
  21459652.592          37.800  
  21366328.399          40.000  
  25174968.532          28.900  
  22717226.791          27.900  
 17 10 16  7  0 55.3950322  0  8G 2G 5G 7G13G15G20G21G30
  21800715.679          22.000  
  20656726.846          35.600  
  25030530.924          22.300  
  20258717.582          33.700  
  21459192.110          40.400  
  21365867.917          38.500  
  25174354.557          30.600  
  22717533.779          29.800  
 17 10 16  7  0 56.3950322  0  7G 5G 7G13G15G20G21G30
  20656880.339          33.600  
  25030991.405          21.300  
  20258717.582          32.600  
  21458885.123          44.100  
  21365560.930          39.700  
  25173740.582          30.000  
  22717840.766          27.500  
 17 10 16  7  0 57.3950322  0  7G 5G 7G13G15G20G21G30
  20656880.339          34.400  
  25031605.380          20.300  
  20258717.582          32.800  
  21458578.135          44.800  
  21365100.449          40.100  
  25173126.607          33.100  
  22718147.754          29.000  
 17 10 16  7  0 58.3950322  0  8G 2G 5G 7G13G15G20G21G30
  21802250.616          24.100  
  20657033.833          34.900  
  25032065.861          20.200  
  20258717.582          34.800  
  21458117.654          42.900  
  21364639.968          39.400  
  25172666.126          30.900  
  22718454.741          29.600  
 17 10 16  7  0 59.3950322  0  8G 5G 7G13G15G20G21G29G30
  20657187.327          34.700  
  25032679.836          23.600  
  20258717.582          32.300  
  21457810.667          44.100  
  21364179.486          39.900  
  25172052.151          31.600  
  23316312.852          26.800  
  22718915.222          27.200  
 17 10 16  7  1  0.3950322  0  8G 5G 7G13G15G20G21G29G30
  20657244.887          34.700  
  25033217.064          21.900  
  20258612.055          33.500  
  21457446.119          42.400  
  21363901.279          38.500  
  25171438.176          32.700  
  23316811.707          28.300  
  22719126.276          27.600  
 17 10 16  7  1  1.3950322  0  8G 5G 7G13G15G20G21G29G30
  20657340.821          36.600  
  25033754.293          21.600  
  20258602.461          35.600  
  21457081.572          37.800  
  21363488.764          37.000  
  25170862.574          34.900  
  23317195.441          25.600  
  22719452.450          29.600  
 17 10 16  7  1  2.3950322  0  8G 5G 7G13G15G20G21G29G30
  20657417.567          34.800  
  25034291.521          24.000  
  20258564.088          36.000  
  21456736.211          40.900  
  21363105.030          33.600  
  25170286.973          36.900  
  23317540.802          28.200  
  22719759.438          28.200  
 17 10 16  7  1  3.3950322  0  8G 5G 7G13G15G20G21G29G30
  20657571.061          35.700  
  25034828.749          24.300  
  20258564.088          35.800  
  21456352.476          41.300  
  21362721.296          37.400  
  25169672.998          33.500  
  23317924.537          31.000  
  22720066.425          27.900  
 17 10 16  7  1  4.3950322  0  8G 5G 7G13G15G20G21G29G30
  20657647.808          36.000  
  25035442.724          24.400  
  20258564.088          34.300  
  21455968.742          39.900  
  21362337.561          39.600  
  25169135.770          36.100  
  23318308.271          27.500  
  22720450.160          27.600  
 17 10 16  7  1  5.3950322  0  7G 5G 7G13G15G20G21G30
  20657801.302          33.500  
  25035903.205          22.900  
  20258564.088          33.100  
  21455661.754          43.700  
  21361877.080          40.900  
  25168521.795          34.000  
  22720757.147          27.600  
 17 10 16  7  1  6.3950322  0  7G 5G 7G13G15G20G21G30
  20657801.302          34.100  
  25036363.686          21.700  
  20258564.088          33.500  
  21455201.273          45.700  
  21361416.599          41.500  
  25167907.820          29.700  
  22721064.135          31.400  
 17 10 16  7  1  7.3950322  0  7G 5G 7G13G15G20G21G30
  20657954.795          33.000  
  25036977.661          21.400  
  20258564.088          33.000  
  21454894.286          46.500  
  21361109.612          42.200  
  25167447.339          30.500  
  22721371.122          30.600  
 17 10 16  7  1  8.3950322  0  8G 5G 7G13G15G20G21G29G30
  20658108.289          34.400  
  25037438.142          23.600  
  20258564.088          34.200  
  21454587.298          46.300  
  21360649.130          40.900  
  25166833.364          33.600  
  23319689.715          27.800  
  22721678.110          28.900  
 17 10 16  7  1  9.3950322  0  8G 5G 7G13G15G20G21G29G30
  20658108.289          33.400  
  25037898.623          25.500  
  20258410.594          33.700  
  21454126.817          46.200  
  21360188.649          42.200  
  25166219.389          32.200  
  23319996.702          30.400  
  22721985.097          29.700  
 17 10 16  7  1 10.3950322  0  8G 5G 7G13G15G20G21G29G30
  20658242.596          32.800  
  25038579.752          24.300  
  20258468.154          34.500  
  21453829.423          44.800  
  21359891.255          41.100  
  25165643.787          30.900  
  23320457.183          35.200  
  22722330.458          29.900  
 17 10 16  7  1 11.3950322  0  8G 5G 7G13G15G20G21G29G30
  20658338.530          30.700  
  25039126.573          24.500  
  20258448.968          31.700  
  21453474.469          45.800  
  21359497.927          41.600  
  25165068.186          32.200  
  23320802.544          40.800  
  22722637.445          27.500  
 17 10 16  7  1 12.3950322  0  9G 2G 5G 7G13G15G20G21G29G30
  21809848.556          23.300  
  20658415.277          31.300  
  25039587.055          23.900  
  20258410.594          33.800  
  21453129.108          43.300  
  21359114.193          41.400  
  25164454.211          27.800  
  23321147.905          46.100  
  22722982.806          29.900  
 17 10 16  7  1 13.3950322  0  8G 5G 7G13G15G20G21G29G30
  20658568.770          32.000  
  25040201.030          23.100  
  20258410.594          31.600  
  21452745.373          45.400  
  21358653.712          42.800  
  25163916.983          29.700  
  23321531.640          40.500  
  22723289.794          28.500  
 17 10 16  7  1 14.3950322  0  8G 5G 7G13G15G20G21G29G30
  20658722.264          32.900  
  25040661.511          22.400  
  20258410.594          33.300  
  21452438.386          44.100  
  21358346.724          41.900  
  25163303.008          31.200  
  23321838.627          34.800  
  22723673.528          30.100  
 17 10 16  7  1 15.3950322  0  9G 2G 5G 7G13G15G20G21G29G30
  21811460.240           0.000  
  20658722.264          34.200  
  25041275.486          25.900  
  20258410.594          35.400  
  21451977.905          45.400  
  21357886.243          40.200  
  25162689.033          33.300  
  23322299.108          30.600  
  22723980.516          30.500  
 17 10 16  7  1 16.3950322  0  9G 2G 5G 7G13G15G20G21G29G30
  21812074.215          26.000  
  20658875.758          35.100  
  25041735.967          25.400  
  20258410.594          35.300  
  21451670.917          45.800  
  21357425.762          42.600  
  25162228.552          32.000  
  23322606.096          26.400  
  22724287.503          31.200  
 17 10 16  7  1 17.3950322  0  9G 2G 5G 7G13G15G20G21G29G30
  21812688.190          24.900  
  20658875.758          33.600  
  25042349.942          24.800  
  20258410.594          33.200  
  21451363.930          44.100  
  21357118.774          42.600  
  25161614.577          30.900  
  23323066.577          30.800  
  22724594.491          28.300  
 17 10 16  7  1 18.3950322  0  8G 5G 7G13G15G20G21G29G30
  20659029.252          32.800  
  25042810.423          23.100  
  20258410.594          33.600  
  21450903.449          43.000  
  21356658.293          41.800  
  25161000.602          29.800  
  23323373.564          29.400  
  22724901.478          29.700  
 17 10 16  7  1 19.3950322  0  9G 2G 5G 7G13G15G20G21G29G30
  21813609.153          24.500  
  20659029.252          33.000  
  25043424.398          24.700  
  20258410.594          33.000  
  21450442.967          43.500  
  21356197.812          41.200  
  25160386.627          31.200  
  23323680.552          25.500  
  22725361.959          29.700  
 17 10 16  7  1 20.3950322  0 10G 2G 5G 7G13G15G20G21G24G29G30
  21814232.721          24.900  
  20659249.899          32.200  
  25043952.033          24.700  
  20258324.254          33.700  
  21450222.320          41.000  
  21355871.638          40.700  
  25159849.399          30.700  
  25004763.163          20.100  
  23324121.846          28.200  
  22725544.233          27.300  
 17 10 16  7  1 21.3950322  0 10G 2G 5G 7G13G15G20G21G24G29G30
  21814760.356          30.300  
  20659336.239          32.300  
  25044498.854          24.400  
  20258333.847          34.400  
  21449867.366          40.300  
  21355468.717          41.300  
  25159273.797          27.500  
  25004014.881          20.100  
  23324486.394          27.100  
  22725899.187          24.800  
 17 10 16  7  1 22.3950322  0 10G 2G 5G 7G13G15G20G21G24G29G30
  21815297.584          35.600  
  20659489.733          33.000  
  25045036.082          23.700  
  20258333.847          32.900  
  21449522.005          42.000  
  21355046.609          41.300  
  25158698.196          29.800  
  25003209.039          20.100  
  23324831.755          30.900  
  22726206.175          27.600  
 17 10 16  7  1 23.3950322  0 10G 2G 5G 7G13G15G20G21G24G29G30
  21815834.812          36.600  
  20659566.480          32.600  
  25045573.310          28.100  
  20258257.100          32.300  
  21449138.271          42.700  
  21354662.875          41.700  
  25158084.221          28.400  
  25002518.317          20.100  
  23325215.489          29.800  
  22726513.162          25.400  
 17 10 16  7  1 24.3950322  0  9G 2G 5G 7G13G15G20G21G24G30
  21816372.040          34.000  
  20659643.227          33.300  
  25046033.792          27.000  
  20258257.100          32.800  
  21448754.536          41.800  
  21354202.393          40.700  
  25157470.246          24.600  
  25001674.101          20.100  
  22726896.897          24.200  
 17 10 16  7  1 25.3950322  0  8G 2G 5G 7G13G15G20G21G30
  21816986.015          37.000  
  20659796.720          30.900  
  25046647.767          25.200  
  20258257.100          31.100  
  21448447.549          40.500  
  21353895.406          40.700  
  25157009.765          21.900  
  22727203.884          27.300  
 17 10 16  7  1 26.3950322  0  9G 2G 5G 7G13G15G20G21G29G30
  21817446.496          38.400  
  20659796.720          32.600  
  25047108.248          26.300  
  20258257.100          33.900  
  21447987.068          41.500  
  21353434.925          41.200  
  25156395.790          19.500  
  23326289.945          25.800  
  22727510.872          28.700  
 17 10 16  7  1 27.3950322  0  9G 2G 5G 7G13G15G20G21G29G30
  21818060.471          37.800  
  20659950.214          33.400  
  25047722.223          25.600  
  20258257.100          32.700  
  21447680.080          41.400  
  21353127.937          41.000  
  25155781.815          18.100  
  23326750.427          22.500  
  22727817.859          30.100  
 17 10 16  7  1 28.3950322  0  9G 2G 5G 7G13G15G20G21G29G30
  21818520.952          35.200  
  20660103.708          31.500  
  25048182.704          27.200  
  20258257.100          31.200  
  21447373.093          40.100  
  21352667.456          40.900  
  25155321.333          21.500  
  23327057.414          25.800  
  22728124.847          31.300  
 17 10 16  7  1 29.3950322  0  9G 2G 5G 7G13G15G20G21G29G30
  21819134.927          35.300  
  20660257.202          31.200  
  25048643.185          24.200  
  20258103.607          32.700  
  21447066.105          41.300  
  21352206.975          41.300  
  25154553.865          19.800  
  23327364.402          24.000  
  22728431.834          37.700  
 17 10 16  7  1 30.3950322  0  9G 2G 5G 7G13G15G20G21G29G30
  21819672.155          34.800  
  20660257.202          31.600  
  25049314.720          25.300  
  20258189.947          33.900  
  21446615.217          40.600  
  21351871.207          40.800  
  25154074.197          19.800  
  23327767.323          22.700  
  22728786.788          34.600  
 17 10 16  7  1 31.3950322  0  9G 2G 5G 7G13G15G20G21G29G30
  21820209.383          34.600  
  20660372.322          31.300  
  25049871.135          24.600  
  20258180.354          32.500  
  21446260.263          39.500  
  21351477.879          40.600  
  25153479.409          19.800  
  23328131.870          25.800  
  22729122.556          36.700  
 17 10 16  7  1 32.3950322  0  8G 2G 5G 7G13G15G20G29G30
  21820746.611          36.000  
  20660487.442          31.700  
  25050408.363          26.000  
  20258180.354          36.900  
  21445914.902          39.900  
  21351055.772          37.900  
  23328515.605          21.700  
  22729429.543          31.000  
 17 10 16  7  1 33.3950322  0  8G 2G 5G 7G13G15G20G29G30
  21821283.840          35.600  
  20660564.189          32.700  
  25050945.591          28.100  
  20258180.354          37.600  
  21445531.168          40.500  
  21350672.037          37.700  
  23328899.339          22.900  
  22729736.531          35.600  
 17 10 16  7  1 34.3950322  0  8G 2G 5G 7G13G15G20G29G30
  21821897.814          35.900  
  20660717.683          29.700  
  25051406.072          24.500  
  20258103.607          33.400  
  21445224.180          40.000  
  21350211.556          40.500  
  23329206.327          26.200  
  22730120.265          37.800  
 17 10 16  7  1 35.3950322  0  8G 2G 5G 7G13G15G20G29G30
  21822358.296          36.500  
  20660717.683          29.200  
  25052020.047          24.700  
  20258103.607          35.700  
  21444763.699          39.600  
  21349904.569          38.400  
  23329666.808          29.700  
  22730427.253          37.100  
 17 10 16  7  1 36.3950322  0  8G 2G 5G 7G13G15G20G29G30
  21822972.271          37.000  
  20660871.177          31.400  
  25052480.529          26.000  
  20258103.607          36.300  
  21444456.712          41.400  
  21349444.087          37.500  
  23329973.795          27.900  
  22730734.240          36.000  
 17 10 16  7  1 37.3950322  0  8G 2G 5G 7G13G15G20G29G30
  21823432.752          35.300  
  20661024.670          33.300  
  25053094.504          26.800  
  20258103.607          35.900  
  21444149.724          39.100  
  21349137.100          40.000  
  23330280.783          28.000  
  22731041.228          34.900  
 17 10 16  7  1 38.3950322  0  8G 2G 5G 7G13G15G20G29G30
  21824046.727          34.300  
  20661024.670          31.100  
  25053554.985          26.500  
  20258103.607          34.300  
  21443689.243          37.800  
  21348676.619          40.500  
  23330741.264          22.800  
  22731348.215          38.400  
 17 10 16  7  1 39.3950322  0  8G 2G 5G 7G13G15G20G29G30
  21824660.702          35.100  
  20661178.164          32.900  
  25054168.960          27.100  
  20258103.607          33.900  
  21443382.255          40.900  
  21348216.138          41.000  
  23331048.251          23.100  
  22731808.696          35.000  
 17 10 16  7  1 40.3950322  0  8G 2G 5G 7G13G15G20G29G30
  21825121.183          34.200  
  20661264.504          33.000  
  25054677.408          27.200  
  20258065.233          36.400  
  21443008.114          39.600  
  21347861.183          36.700  
  23331431.986          25.400  
  22732019.750          36.800  
 17 10 16  7  1 41.3950322  0  8G 2G 5G 7G13G15G20G29G30
  21825658.411          34.100  
  20661370.031          33.800  
  25055205.042          25.900  
  20258065.233          36.400  
  21442653.160          40.600  
  21347448.669          37.600  
  23331815.720          22.300  
  22732345.924          34.900  
 17 10 16  7  1 42.3950322  0  8G 2G 5G 7G13G15G20G29G30
  21826195.639          33.200  
  20661485.151          32.600  
  25055780.644          27.100  
  20258026.860          38.200  
  21442307.799          40.900  
  21347064.934          38.400  
  23332199.454          23.000  
  22732652.912          35.100  
 17 10 16  7  1 43.3950322  0  8G 2G 5G 7G13G15G20G29G30
