     2.11           OBSERVATION DATA    G (GPS)             RINEX VERSION / TYPE
AndroidGNSSReceiver RITSUMEIKAN KUBOLAB 1547197317222       PGM / RUN BY / DATE
flounder                                                    MARKER NAME
GRitzLogger         KUBOLAB                                 OBSERVER / AGENCY
0                   Android Receiver                        REC # / TYPE / VERS
0                   Android Anttena                         ANT # / TYPE
        0.0000        0.0000        0.0000                  APPROX POSITION XYZ
        0.0000        0.0000        0.0000                  ANTENNA: DELTA H/E/N
1     0                                                     WAVELENGTH FACT L1/2
3         L1    C1    S1                                    # / TYPES OF OBSERV
1.000                                                       INTERVAL
  2019     1    11     8    57   15.9998607     GPS         TIME OF FIRST OBS
                                                            END OF HEADER
 19  1 11  8 57 15.9998607  0  6G 3G14G16G23G26G32
     74251.074    24965835.702          39.374  
     71750.179    21328368.666          40.406  
   -133715.142    21880152.578          46.405  
   -265405.283    24982113.544          38.720  
    -65759.495    20720150.035          46.262  
    114725.365    22864102.911          42.048  
 19  1 11  8 57 16.9998607  0  6G 3G14G16G23G26G32
     75585.728    24966088.434          40.129  
     74079.065    21328813.559          40.057  
   -135836.055    21879748.763          45.524  
   -268665.281    24981501.670          39.296  
    -66537.916    20720002.231          45.530  
    118111.596    22864747.156          40.507  
 19  1 11  8 57 17.9998607  0  6G 3G14G16G23G26G32
     76920.600    24966342.352          38.409  
     76408.175    21329258.156          40.874  
   -137956.948    21879344.040          45.674  
   -271925.268    24980877.790          39.149  
    -67316.232    20719847.849          46.791  
    121497.853    22865396.217          39.931  
 19  1 11  8 57 18.9998607  0  8G 3G14G16G22G23G26G31G32
     78256.446    24966587.894          37.861  
     78738.407    21329694.063          40.090  
   -140076.782    21878938.130          44.885  
      4931.474    25478540.462          29.848  
   -275184.299    24980268.620          40.037  
    -68093.568    20719702.436          46.381  
      -116.000    20549250.647          37.304  
    124884.914    22866035.366          37.077  
 19  1 11  8 57 19.9998607  0  8G 3G14G16G22G23G26G31G32
     79594.184    24966843.313          38.247  
     81070.757    21330136.548          40.046  
   -142194.742    21878534.001          44.935  
      6569.428    25478842.665          33.347  
   -278441.654    24979650.149          39.912  
    -68869.017    20719557.949          45.531  
      -228.912    20549230.858          36.711  
    128273.886    22866684.113          37.011  
 19  1 11  8 57 20.9998607  0  8G 3G14G16G22G23G26G31G32
     80933.409    24967096.934          39.503  
     83404.487    21330579.940          40.715  
   -144311.452    21878138.579          44.895  
      8208.887    25479155.949          38.989  
   -281697.713    24979022.378          41.977  
    -69643.206    20719410.145          46.628  
      -340.639    20549205.084          38.151  
    131663.801    22867324.780          36.543  
 19  1 11  8 57 21.9998607  0  8G 3G14G16G22G23G26G31G32
     82273.026    24967347.868          39.552  
     85738.796    21331024.537          40.084  
   -146427.556    21877738.655          45.401  
      9848.778    25479465.027          39.007  
   -284953.561    24978408.409          42.945  
    -70416.916    20719262.342          46.699  
      -451.744    20549193.689          40.929  
    135054.378    22867969.932          38.141  
 19  1 11  8 57 22.9998607  0  8G 3G14G16G22G23G26G31G32
     83613.409    24967606.288          39.269  
     88074.070    21331467.930          39.598  
   -148543.044    21877337.527          46.495  
     11488.993    25479790.002          34.918  
   -288208.572    24977788.141          42.554  
    -71189.862    20719113.945          46.446  
      -562.138    20549165.804          40.681  
    138445.461    22868621.977          37.472  
 19  1 11  8 57 23.9998607  0  8G 3G14G16G22G23G26G31G32
     84955.018    24967865.599          39.718  
     90410.527    21331913.120          38.546  
   -150657.305    21876934.915          46.096  
     13130.423    25480116.182          32.164  
   -291462.589    24977161.260          42.484  
    -71961.716    20718965.252          45.661  
      -671.474    20549153.222          39.965  
    141837.613    22869251.546          35.526  
 19  1 11  8 57 24.9998607  0  8G 3G14G16G22G23G26G31G32
     86297.469    24968125.816          39.959  
     92748.087    21332360.718          38.958  
   -152770.746    21876535.288          46.538  
     14772.434    25480436.359          31.887  
   -294715.987    24976541.899          44.192  
    -72732.730    20718818.356          46.133  
      -779.975    20549123.539          41.414  
    145230.584    22869902.701          35.699  
 19  1 11  8 57 25.9998607  0  8G 3G14G16G22G23G26G31G32
     87640.910    24968373.156          39.109  
     95086.783    21332806.501          39.428  
   -154883.245    21876128.174          46.261  
     16415.193    25480750.532          33.317  
   -297968.448    24975926.727          44.047  
    -73502.788    20718673.257          45.168  
      -887.504    20549110.050          40.843  
    148624.371    22870545.741          34.454  
 19  1 11  8 57 26.9998607  0  8G 3G14G16G22G23G26G31G32
     88985.662    24968636.968          39.932  
     97426.703    21333247.503          38.271  
   -156994.362    21875721.043          44.890  
     18059.284    25481028.741          35.792  
   -301220.300    24975307.645          45.264  
    -74271.912    20718526.658          45.898  
      -994.720    20549079.460          39.591  
    152019.187    22871187.595          32.535  
 19  1 11  8 57 27.9998607  0  8G 3G14G16G22G23G26G31G32
     90330.141    24968893.294          40.581  
     99766.684    21333688.487          36.767  
   -159105.912    21875316.931          44.229  
     19702.634    25481348.324          34.861  
   -304471.974    24974686.487          45.166  
    -75041.000    20718377.354          44.277  
     -1101.138    20549068.972          39.830  
    155413.943    22871828.559          30.280  
 19  1 11  8 57 28.9998607  0  8G 3G14G16G22G23G26G31G32
     91674.456    24969149.010          35.941  
    102108.846    21334146.573          38.944  
   -161217.215    21874924.493          42.773  
     21345.993    25481657.106          34.124  
   -307724.481    24974070.704          44.363  
    -75809.856    20718235.257          43.456  
     -1206.625    20549041.087          37.635  
    158810.876    22872491.702          33.759  
 19  1 11  8 57 29.9998607  0  8G 3G14G16G22G23G26G31G32
     93020.350    24969393.348          34.610  
    104451.518    21334591.466          39.629  
   -163327.293    21874525.476          45.033  
     22990.177    25481979.987          37.036  
   -310975.579    24973455.828          45.625  
    -76577.427    20718080.561          43.471  
     -1311.398    20549024.596          37.405  
    162208.098    22873147.639          33.872  
 19  1 11  8 57 30.9998607  0  8G 3G14G16G22G23G26G31G32
     94367.214    24969655.363          32.132  
    106794.708    21335042.048          37.877  
   -165436.137    21874119.863          45.385  
     24635.642    25482266.293          36.939  
   -314225.442    24972832.855          46.358  
    -77344.086    20717944.467          44.703  
     -1415.651    20549004.511          39.913  
    165605.251    22873783.210          30.869  
 19  1 11  8 57 31.9998607  0  8G 3G14G16G22G23G26G31G32
     95714.610    24969912.579          31.882  
    109138.212    21335473.453          38.933  
   -167544.881    21873717.531          44.509  
     26281.082    25482584.969          35.952  
   -317474.489    24972216.496          45.587  
    -78110.249    20717795.773          45.155  
     -1518.884    20548979.941          38.898  
    169002.713    22874427.158          27.386  
 19  1 11  8 57 32.9998607  0  7G 3G14G16G22G23G26G31
     97062.821    24970178.503          31.766  
    111482.450    21335926.739          39.825  
   -169652.982    21873313.716          43.511  
     27927.074    25482897.049          37.656  
   -320722.967    24971604.011          44.536  
    -78875.750    20717649.471          45.813  
     -1621.747    20548959.245          38.227  
 19  1 11  8 57 33.9998607  0  7G 3G14G16G22G23G26G31
     98411.818    24970419.543          33.829  
    113827.413    21336367.445          39.645  
   -171760.215    21872917.683          44.823  
     29573.692    25483226.230          38.497  
   -323970.965    24970975.053          42.483  
    -79640.650    20717503.761          46.593  
     -1724.152    20548936.455          38.344  
 19  1 11  8 57 34.9998607  0  7G 3G14G16G22G23G26G31
     99761.376    24970674.962          33.853  
    116173.103    21336817.730          39.928  
   -173866.935    21872512.367          45.383  
     31220.706    25483533.214          39.102  
   -327218.548    24970352.673          42.372  
    -80405.005    20717361.071          46.574  
     -1826.127    20548911.885          38.062  
 19  1 11  8 57 35.9998607  0  7G 3G14G16G22G23G26G31
    101111.408    24970947.167          32.817  
    118519.558    21337262.920          40.641  
   -175973.054    21872113.350          45.725  
     32868.074    25483848.888          38.941  
   -330465.757    24969738.408          42.801  
    -81168.909    20717215.362          45.959  
     -1927.462    20548891.189          36.468  
 19  1 11  8 57 36.9998607  0  8G 3G14G16G22G23G26G31G32
    102461.801    24971200.196          32.864  
    120866.484    21337709.000          40.215  
   -178078.854    21871710.721          44.731  
     34515.592    25484160.985          39.219  
   -333712.880    24969124.440          44.279  
    -81932.522    20717072.671          46.082  
     -2028.707    20548870.808          36.415  
        10.1311   22877666.721          36.734  
 19  1 11  8 57 37.9998607  0  8G 3G14G16G22G23G26G31G32
    103812.323    24971466.102          31.037  
    123213.456    21338154.801          39.818  
   -180184.670    21871311.408          43.753  
     36162.979    25484469.174          38.615  
   -336959.825    24968505.062          45.064  
    -82695.987    20716929.963          46.343  
     -2129.867    20548854.928          35.360  
      3409.303    22878312.763          36.295  
 19  1 11  8 57 38.9998607  0  8G 3G14G16G22G23G26G31G32
    105163.040    24971711.644          29.411  
    125560.892    21338602.085          40.179  
   -182290.288    21870909.076          44.650  
     37810.331    25484779.753          39.148  
   -340206.772    24967887.795          45.613  
    -83459.320    20716783.364          45.961  
     -2230.672    20548836.640          35.471  
      6808.664    22878963.028          35.204  
 19  1 11  8 57 39.9998607  0  8G 3G14G16G22G23G26G31G32
    106513.881    24971965.562          30.534  
    127908.597    21339052.981          39.833  
   -184395.750    21870504.353          44.654  
     39457.700    25485094.537          39.450  
   -343453.661    24967272.309          45.368  
    -84222.558    20716639.470          45.272  
     -2331.499    20548824.634          35.340  
     10207.993    22879610.868          35.328  
 19  1 11  8 57 40.9998607  0  8G 3G14G16G22G23G26G31G32
    107865.117    24972224.890          31.650  
    130256.620    21339496.967          39.892  
   -186501.048    21870107.430          44.864  
     41105.047    25485414.103          38.585  
   -346700.432    24966655.042          45.090  
    -84985.567    20716492.574          45.482  
     -2432.017    20548801.251          35.432  
     13607.447    22880249.738          35.226  
 19  1 11  8 57 41.9998607  0  8G 3G14G16G22G23G26G31G32
    109216.716    24972478.808          33.661  
    132605.446    21339945.751          38.968  
   -188605.456    21869712.916          43.324  
     42752.720    25485722.291          37.954  
   -349946.981    24966038.072          43.955  
    -85747.637    20716342.676          44.790  
     -2531.809    20548781.166          34.816  
     17007.358    22880902.079          34.107  
 19  1 11  8 57 42.9998607  0  8G 3G14G16G22G23G26G31G32
    110568.626    24972726.444          33.743  
    134954.256    21340392.442          38.267  
   -190710.145    21869313.585          43.082  
     44400.687    25486033.778          35.055  
   -353193.338    24965418.101          43.850  
    -86510.386    20716199.672          43.990  
     -2632.525    20548770.975          36.935  
     20407.228    22881529.536          31.433  
 19  1 11  8 57 43.9998607  0  8G 3G14G16G22G23G26G31G32
    111920.861    24972995.649          32.635  
    137303.425    21340842.745          37.016  
   -192814.610    21868913.957          46.217  
     46048.279    25486350.063          34.619  
   -356439.677    24964798.130          45.152  
    -87272.692    20716051.275          45.920  
     -2732.505    20548746.388          39.274  
     23807.074    22882198.979          29.911  
 19  1 11  8 57 44.9998607  0  8G 3G14G16G22G23G26G31G32
    113272.699    24973250.771          31.134  
    139652.819    21341289.121          39.139  
   -194919.188    21868514.644          46.080  
     47695.612    25486657.344          35.915  
   -359686.168    24964181.753          45.536  
    -88035.105    20715904.676          45.230  
     -2832.293    20548733.213          39.615  
     27206.851    22882815.652          28.249  
 19  1 11  8 57 45.9998607  0  8G 3G14G16G22G23G26G31G32
    114625.326    24973542.172          28.737  
    142002.827    21341733.718          40.832  
   -197023.367    21868114.109          44.599  
     49343.276    25486981.726          36.828  
   -362932.387    24963566.877          45.755  
    -88797.051    20715755.075          43.007  
     -2931.793    20548717.612          38.303  
     30607.099    22883476.702          29.260  
 19  1 11  8 57 46.9998607  0  8G 3G14G16G22G23G26G31G32
    115978.330    24973850.953          26.106  
    144353.399    21342188.506          40.705  
   -199126.901    21867711.201          44.826  
     50991.342    25487290.804          37.383  
   -366178.025    24962950.204          45.513  
    -89558.466    20715607.272          42.642  
     -3030.746    20548698.120          37.873  
     34007.556    22884115.257          29.930  
 19  1 11  8 57 47.9998607  0  7G14G16G22G23G26G31G32
    146704.796    21342636.994          40.911  
   -201229.623    21867303.773          44.386  
     52639.981    25487605.903          37.291  
   -369423.128    24962335.625          45.435  
    -90319.140    20715460.690          42.245  
     -3129.174    20548675.348          37.257  
     37408.723    22884764.004          30.250  
 19  1 11  8 57 48.9998607  0  7G14G16G22G23G26G31G32
    149056.654    21343075.884          38.662  
   -203331.904    21866909.556          45.808  
     54289.004    25487931.175          38.046  
   -372667.868    24961711.762          45.382  
    -91079.484    20715329.377          42.127  
     -3227.364    20548655.559          39.160  
     40809.941    22885413.658          31.858  
 19  1 11  8 57 49.9998607  0  7G14G16G22G23G26G31G32
    151408.732    21343520.777          36.346  
   -205434.236    21866506.927          45.230  
     55937.746    25488233.063          37.213  
   -375912.694    24961096.886          46.048  
    -91839.819    20715180.073          41.343  
     -3325.548    20548634.881          37.200  
     44211.113    22886101.982          29.583  
 19  1 11  8 57 50.9998607  0  7G14G16G22G23G26G31G32
    153761.339    21343976.769          38.441  
   -207536.930    21866105.799          44.390  
     57585.902    25488550.239          36.836  
   -379157.975    24960477.822          46.081  
    -92599.970    20715040.681          42.344  
     -3422.921    20548619.891          36.465  
     47612.727    22886723.751          30.665  
 19  1 11  8 57 51.9998607  0  7G14G16G22G23G26G31G32
    156114.795    21344416.270          39.175  
   -209638.595    21865704.391          42.303  
     59234.873    25488844.031          33.592  
   -382402.499    24959857.554          45.170  
    -93359.569    20714891.080          45.853  
     -3520.183    20548614.778          37.679  
     51014.713    22887384.783          36.069  
 19  1 11  8 57 52.9998607  0  7G14G16G22G23G26G31G32
    158468.305    21344870.447          37.893  
   -211739.882    21865307.451          42.091  
     60884.098    25489176.510          32.043  
   -385646.609    24959240.270          45.902  
    -94118.872    20714749.279          45.721  
     -3617.186    20548580.017          36.060  
     54416.729    22888022.448          35.321  
 19  1 11  8 57 53.9998607  0  7G14G16G22G23G26G31G32
    160822.223    21345323.437          39.192  
   -213841.013    21864906.044          44.205  
     62533.326    25489493.388          34.114  
   -388890.530    24958621.503          46.261  
    -94877.919    20714605.367          45.348  
     -3713.996    20548567.715          35.084  
     57818.874    22888657.409          35.591  
 19  1 11  8 57 54.9998607  0  7G14G16G22G23G26G31G32
    163176.560    21345764.736          40.000  
   -215941.948    21864507.010          43.554  
     64182.570    25489806.968          32.626  
   -392134.428    24958007.220          45.796  
    -95636.872    20714456.377          43.177  
     -3810.619    20548533.844          34.838  
     61221.101    22889305.266          35.634  
 19  1 11  8 57 55.9998607  0  7G14G16G22G23G26G31G32
    165531.321    21346213.224          40.348  
   -218042.711    21864107.086          43.944  
     65831.744    25490118.158          34.100  
   -395378.274    24957390.547          45.712  
    -96395.513    20714305.573          40.576  
     -3906.739    20548514.055          33.045  
     64623.579    22889958.515          37.380  
 19  1 11  8 57 56.9998607  0  7G14G16G22G23G26G31G32
    167886.563    21346665.900          39.388  
   -220143.121    21863704.771          44.182  
     67481.197    25490416.156          34.898  
   -398621.726    24956771.186          45.731  
    -97153.852    20714163.772          40.788  
     -4002.674    20548521.245          34.303  
     68026.229    22890617.750          38.827  
 19  1 11  8 57 57.9998607  0  7G14G16G22G23G26G31G32
    170242.031    21347108.699          40.358  
   -222243.582    21863304.253          44.756  
     69130.202    25490744.726          35.101  
   -401865.304    24956152.105          45.754  
    -97912.107    20714022.286          42.480  
     -4098.405    20548501.770          36.963  
     71428.857    22891263.809          39.719  
 19  1 11  8 57 58.9998607  0  7G14G16G22G23G26G31G32
    172597.773    21347564.080          40.910  
   -224343.723    21862905.219          45.045  
     70779.599    25491049.005          35.516  
   -405108.521    24955534.542          44.251  
    -98669.973    20713879.875          42.470  
     -4193.841    20548469.383          37.275  
     74831.381    22891889.469          37.307  
 19  1 11  8 57 59.9998607  0  7G14G16G22G23G26G31G32
    174953.941    21348003.878          41.832  
   -226443.675    21862509.797          45.957  
     72428.792    25491371.590          33.679  
   -408351.567    24954925.355          42.831  
    -99427.632    20713738.074          45.953  
     -4288.821    20548457.988          35.202  
     78234.182    22892544.219          38.898  
 19  1 11  8 58  0.9998607  0  8G 3G14G16G22G23G26G31G32
      4092.894    24977371.116          35.848  
    177310.503    21348458.369          41.246  
   -228543.416    21862106.575          46.122  
     74077.858    25491687.561          32.605  
   -411594.451    24954292.191          39.844  
   -100185.173    20713597.164          44.267  
     -4383.806    20548432.511          36.409  
     81637.230    22893192.075          42.105  
 19  1 11  8 58  1.9998607  0  8G 3G14G16G22G23G26G31G32
      5451.379    24977636.743          37.068  
    179668.161    21348902.966          42.455  
   -230641.848    21861710.857          46.508  
     75728.422    25492004.143          33.717  
   -414836.794    24953683.021          39.742  
   -100941.859    20713453.862          42.750  
     -4478.239    20548415.723          37.826  
     85041.096    22893840.822          42.588  
 19  1 11  8 58  2.9998607  0  8G 3G14G16G22G23G26G31G32
      6811.378    24977903.261          36.126  
    182027.171    21349350.250          41.125  
   -232738.809    21861309.432          44.417  
     77380.468    25492319.835          34.542  
   -418078.528    24953067.552          45.240  
   -101697.599    20713306.373          42.265  
     -4572.4781   20548407.627          35.807  
     88446.127    22894488.068          39.511  
 19  1 11  8 58  3.9998607  0  8G 3G14G16G22G23G26G31G32
      8171.088    24978152.380          34.113  
    184386.362    21349805.334          38.667  
   -234836.336    21860915.807          44.696  
     79031.521    25492625.318          32.883  
   -421320.067    24952455.364          47.250  
   -102453.127    20713156.179          43.098  
     -4665.856    20548377.647          36.383  
     91851.023    22895135.628          33.711  
 19  1 11  8 58  4.9998607  0  8G 3G14G16G22G23G26G31G32
      9530.732    24978404.204          33.066  
    186745.604    21350240.926          39.427  
   -236933.678    21860515.272          42.915  
     80682.594    25492948.793          33.105  
   -424561.276    24951833.298          47.121  
   -103208.797    20713022.476          44.045  
     -4759.162    20548366.566          37.280  
     95255.781    22895792.175          34.715  
 19  1 11  8 58  5.9998607  0  8G 3G14G16G22G23G26G31G32
     10890.747    24978685.711          32.807  
    189105.538    21350701.106          40.224  
   -239030.675    21860113.551          42.263  
     82333.664    25493267.172          37.174  
   -427802.157    24951221.127          46.122  
   -103963.685    20712875.266          44.491  
     -4851.573    20548340.478          37.568  
     98660.923    22896441.219          39.053  
 19  1 11  8 58  6.9998607  0  9G 3G14G16G22G23G26G29G31G32
     12251.449    24978956.119          33.168  
    191466.140    21351149.611          40.534  
   -241127.084    21859713.330          42.656  
     83985.259    25493583.161          35.383  
   -431042.582    24950601.156          44.953  
   -104718.087    20712739.171          43.477  
        11.5001   22367866.341          34.833  
     -4943.648    20548330.584          35.938  
    102066.425    22897080.979          38.432  
 19  1 11  8 58  7.9998607  0  9G 3G14G16G22G23G26G29G31G32
     13612.521    24979210.945          31.004  
    193827.278    21351597.785          40.624  
   -243223.123    21859313.406          42.563  
     85636.957    25493889.552          36.598  
   -434282.983    24949987.187          45.764  
   -105472.255    20712591.071          43.532  
      2310.560    22368292.946          34.939  
     -5035.385    20548316.501          34.527  
    105472.238    22897728.521          36.605  
 19  1 11  8 58  8.9998607  0  9G 3G14G16G22G23G26G29G31G32
     14973.792    24979443.888          32.523  
    196188.765    21352047.774          39.956  
   -245318.976    21858914.093          43.440  
     87288.683    25494194.128          35.206  
   -437523.136    24949371.107          44.919  
   -106226.074    20712444.472          43.126  
      4610.391    22368738.136          32.007  
     -5126.787    20548288.005          34.518  
    108878.050    22898370.393          37.142  
 19  1 11  8 58  9.9998607  0  9G 3G14G16G22G23G26G29G31G32
     16335.695    24979726.599          32.167  
    198550.664    21352495.372          39.805  
   -247414.372    21858514.762          44.178  
     88940.864    25494523.309          34.500  
   -440762.996    24948755.324          45.250  
   -106979.748    20712302.061          43.525  
      6910.318    22369185.437          31.539  
     -5218.285    20548274.516          34.128  
    112284.154    22899027.533          36.717  
 19  1 11  8 58 10.9998607  0  9G 3G14G16G22G23G26G29G31G32
     17698.409    24979986.520          31.646  
    200913.620    21352947.752          39.697  
   -249508.841    21858116.635          44.357  
     90593.764    25494836.592          35.565  
   -444002.327    24948135.667          45.288  
   -107732.365    20712161.761          43.890  
      9211.123    22369628.830          31.131  
     -5308.941    20548262.231          32.471  
    115691.066    22899675.983          37.298  
 19  1 11  8 58 11.9998607  0  9G 3G14G16G22G23G26G29G31G32
     19061.573    24980222.150          31.093  
    203277.132    21353390.551          37.851  
   -251602.929    21857721.807          43.216  
     92246.709    25495166.052          35.268  
   -447241.316    24947518.086          46.920  
   -108484.724    20712017.570          45.520  
     11512.640    22370044.337          30.952  
     -5399.319    20548249.632          31.597  
    119098.208    22900329.825          35.562  
 19  1 11  8 58 12.9998607  0  9G 3G14G16G22G23G26G29G31G32
     20424.572    24980489.557          32.819  
    205640.682    21353844.745          38.968  
   -253697.222    21857323.994          44.883  
     93899.334    25495473.647          34.111  
   -450479.986    24946907.713          46.812  
   -109236.937    20711869.173          45.313  
     13814.325    22370502.126          31.739  
     -5488.889    20548235.847          33.537  
    122505.128    22900969.585          35.266  
 19  1 11  8 58 13.9998607  0  9G 3G14G16G22G23G26G29G31G32
     21788.309    24980736.286          35.035  
    208005.043    21354293.233          39.169  
   -255790.773    21856924.663          44.747  
     95552.556    25495789.636          35.207  
   -453718.461    24946289.539          44.985  
   -109988.731    20711728.874          46.229  
     16116.766    22370920.338          30.888  
     -5578.485    20548213.371          34.521  
    125912.763    22901629.430          34.027  
 19  1 11  8 58 14.9998607  0  9G 3G14G16G22G23G26G29G31G32
     23152.367    24980993.223          34.947  
    210369.907    21354741.721          39.092  
   -257884.085    21856525.036          44.824  
     97205.845    25496110.406          35.478  
   -456956.705    24945676.757          45.980  
   -110740.186    20711588.556          45.923  
     18419.796    22371368.215          29.459  
     -5667.698    20548189.987          36.093  
    129320.490    22902263.187          34.468  
 19  1 11  8 58 15.9998607  0  9G 3G14G16G22G23G26G29G31G32
     24516.755    24981251.329          35.479  
    212735.042    21355195.898          40.018  
   -259977.116    21856128.706          44.895  
     98859.253    25496409.607          34.005  
   -460194.827    24945055.895          45.805  
   -111491.431    20711445.255          44.344  
     20723.275    22371812.219          29.809  
     -5756.653    20548174.387          36.163  
    132728.388    22902915.843          34.269  
 19  1 11  8 58 16.9998607  0  9G 3G14G16G22G23G26G29G31G32
     25881.585    24981517.550          35.869  
    215100.850    21355641.995          40.306  
   -262069.656    21855730.283          45.298  
    100512.755    25496730.081          35.220  
   -463432.614    24944442.520          46.030  
   -112242.289    20711301.954          45.367  
     23027.229    22372252.017          28.941  
     -5845.257    20548153.412          37.787  
    136136.635    22903556.196          33.298  
 19  1 11  8 58 17.9998607  0  9G 3G14G16G22G23G26G29G31G32
     27246.347    24981780.175          35.452  
    217466.994    21356094.986          40.420  
   -264162.197    21855331.563          44.722  
    102166.276    25497031.376          34.990  
   -466670.303    24943823.439          45.556  
   -112992.934    20711155.965          45.151  
     25331.801    22372697.800          30.459  
     -5933.483    20548137.811          38.311  
    139544.917    22904211.836          33.916  
 19  1 11  8 58 18.9998607  0  9G 3G14G16G22G23G26G29G31G32
     28611.561    24982035.594          34.757  
    219833.558    21356541.362          40.583  
   -266254.367    21854931.936          45.273  
    103819.928    25497370.137          37.442  
   -469907.814    24943210.064          45.024  
   -113743.310    20711016.852          43.683  
     27636.691    22373134.596          32.055  
     -6021.534    20548128.824          38.392  
    142953.466    22904869.883          35.721  
 19  1 11  8 58 19.9998607  0  9G 3G14G16G22G23G26G29G31G32
     29977.439    24982305.409          34.189  
    222200.626    21356997.947          40.192  
   -268345.981    21854535.013          44.799  
    105473.987    25497673.527          36.371  
   -473145.040    24942590.407          45.208  
   -114493.303    20710874.162          44.378  
     29941.857    22373567.798          32.642  
     -6109.394    20548100.642          38.522  
    146362.274    22905512.034          34.589  
 19  1 11  8 58 20.9998607  0  9G 3G14G16G22G23G26G29G31G32
     31343.445    24982566.831          32.453  
    224567.846    21357447.046          39.966  
   -270437.490    21854137.794          44.633  
    107127.893    25497975.119          36.604  
   -476382.177    24941976.124          45.955  
   -115243.201    20710729.063          44.138  
     32247.244    22374005.798          31.538  
     -6197.152    20548091.341          38.211  
    149770.925    22906160.484          33.744  
 19  1 11  8 58 21.9998607  0  9G 3G14G16G22G23G26G29G31G32
     32709.571    24982814.153          34.549  
    226935.515    21357900.333          40.127  
   -272528.943    21853732.181          45.035  
    108781.750    25498283.307          34.458  
   -479619.186    24941359.154          46.326  
   -115992.872    20710587.856          46.341  
     34553.014    22374438.389          32.869  
     -6284.549    20548076.962          37.309  
    153179.722    22906814.047          33.282  
 19  1 11  8 58 22.9998607  0  9G 3G14G16G22G23G26G29G31G32
     34075.997    24983075.871          34.820  
    229303.768    21358350.322          38.995  
   -274619.873    21853343.948          44.800  
    110435.910    25498612.174          34.618  
   -482856.063    24940746.076          46.388  
   -116742.175    20710445.148          46.090  
     36859.237    22374861.400          32.120  
     -6371.733    20548054.469          37.193  
    156589.041    22907445.099          32.459  
 19  1 11  8 58 23.9998607  0  9G 3G14G16G22G23G26G29G31G32
     35442.966    24983345.687          33.824  
    231672.872    21358802.998          38.306  
   -276710.412    21852941.616          44.767  
    112090.381    25498923.957          34.148  
   -486092.581    24940130.606          46.399  
   -117491.037    20710304.255          46.610  
     39166.462    22375322.487          31.571  
     -6458.264    20548038.589          36.282  
    159998.831    22908110.336          33.685  
 19  1 11  8 58 24.9998607  0  9G 3G14G16G22G23G26G29G31G32
     36810.706    24983600.512          33.155  
    234042.646    21359247.001          37.969  
   -278800.186    21852551.290          43.978  
    113745.359    25499254.028          33.459  
   -489328.541    24939509.728          44.514  
   -118239.259    20710159.157          46.312  
     41474.297    22375770.678          34.093  
     -6544.212    20548030.789          35.125  
    163409.158    22908756.692          34.640  
 19  1 11  8 58 25.9998607  0  9G 3G14G16G22G23G26G29G31G32
     38178.588    24983871.218          30.131  
    236413.275    21359692.784          36.242  
   -280889.949    21852148.975          43.811  
    115399.950    25499558.028          33.600  
   -492564.815    24938896.056          45.115  
   -118987.344    20710015.245          46.202  
     43782.969    22376203.880          37.192  
     -6629.694    20548017.893          34.832  
    166820.180    22909410.238          33.670  
 19  1 11  8 58 26.9998607  0  9G 3G14G16G22G23G26G29G31G32
     39543.848    24984123.949          36.640  
    238785.672    21360153.575          40.451  
   -282981.144    21851751.145          40.310  
    117058.7581   25499883.893          31.302  
   -495804.234    24938283.885          43.831  
   -119736.733    20709879.150          44.514  
     46092.2631   22376632.876          35.462  
     -6715.3031   20547988.821          35.355  
    170233.319    22910052.999          37.739  
 19  1 11  8 58 27.9998607  0  9G 3G14G16G22G23G26G29G31G32
     40912.614    24984377.867          37.795  
    241156.333    21360602.063          40.550  
   -285069.8141   21851346.422          39.171  
    118714.3971   25500201.976          31.611  
   -499038.414    24937664.507          39.716  
   -120483.592    20709727.752          44.330  
     48402.383    22377095.150          32.736  
     -6800.025    20547974.425          36.640  
    173643.567    22910706.842          38.785  
 19  1 11  8 58 28.9998607  0  9G 3G14G16G22G23G26G29G31G32
     42283.224    24984645.292          35.900  
    243528.859    21361053.849          40.861  
   -287156.857    21850963.285          42.868  
    120371.390    25500496.675          30.847  
   -502272.322    24937048.444          42.653  
   -121229.428    20709589.250          43.283  
     50710.8151   22377513.362          32.092  
     -6884.130    20547960.046          35.519  
    177055.330    22911351.400          37.491  
 19  1 11  8 58 29.9998607  0  9G 3G14G16G22G23G26G29G31G32
     43651.083    24984904.305          37.376  
    245902.782    21361508.340          40.314  
   -289245.813    21850561.563          43.389  
    122026.131    25500820.446          31.013  
   -505509.540    24936431.160          45.182  
   -121976.909    20709450.137          46.014  
     53021.3831   22377973.245          31.604  
     -6968.659    20547948.040          34.811  
    180469.5141   22912000.740          35.185  
 19  1 11  8 58 30.9998607  0  9G 3G14G16G22G23G26G29G31G32
     45017.684    24985168.432          35.624  
    248277.535    21361964.925          39.520  
   -291335.326    21850165.548          45.616  
    123681.161    25501146.015          29.268  
   -508747.850    24935819.582          46.019  
   -122724.816    20709303.538          45.196  
     55332.6321   22378391.754          34.329  
     -7052.576    20547931.567          35.733  
    183884.2841   22912651.895          35.764  
 19  1 11  8 58 31.9998607  0  9G 3G14G16G22G23G26G29G31G32
     46384.406    24985426.852          36.628  
    250653.419    21362411.615          40.235  
   -293424.645    21849766.514          45.728  
    125334.5961   25501452.999          28.877  
   -511986.350    24935200.519          45.586  
   -123472.354    20709160.847          43.525  
     57644.8561   22378840.556          33.118  
     -7136.0001   20547914.466          34.090  
    187299.993    22913304.847          36.147  
 19  1 11  8 58 32.9998607  0  9G 3G14G16G22G23G26G29G31G32
     47752.214    24985685.866          38.404  
    253029.248    21362863.995          40.413  
   -295513.179    21849367.794          44.662  
    126988.919    25501750.107          30.702  
   -515223.902    24934585.049          43.196  
   -124219.258    20709022.031          45.292  
     59961.9961   22379274.944          33.488  
     -7219.020    20547906.683          33.115  
    190715.3391   22913963.192          35.189  
 19  1 11  8 58 33.9998607  0  9G 3G14G16G22G23G26G29G31G32
     49120.098    24985949.678          37.115  
    255405.802    21363317.282          40.939  
   -297601.349    21848967.277          45.621  
    128643.6981   25502106.859          28.141  
   -518461.542    24933965.968          43.155  
   -124966.187    20708876.042          45.671  
     62271.2181   22379721.635          31.644  
     -7302.373    20547879.094          33.894  
    194131.362    22914602.341          36.693  
 19  1 11  8 58 34.9998607  0  9G 3G14G16G22G23G26G29G31G32
     50488.833    24986201.816          38.068  
    257782.997    21363766.974          40.681  
   -299689.007    21848569.447          44.924  
    130298.886    25502394.351          29.619  
   -521698.416    24933349.591          43.344  
   -125712.161    20708739.337          44.913  
     64583.8481   22380158.431          30.423  
     -7385.0811   20547875.796          33.548  
    197546.8771   22915250.494          34.392  
 19  1 11  8 58 35.9998607  0  9G 3G14G16G22G23G26G29G31G32
     51857.939    24986471.614          38.521  
    260160.446    21364219.947          40.729  
   -301776.349    21848177.323          44.448  
    131954.0831   25502694.443          33.020  
   -524935.179    24932738.014          41.931  
   -126458.023    20708593.942          45.039  
     66894.2551   22380599.730          29.920  
     -7466.6131   20547853.914          31.810  
    200961.9951   22915909.746          35.037  
 19  1 11  8 58 36.9998607  0  9G 3G14G16G22G23G26G29G31G32
     53226.554    24986732.146          39.509  
    262538.136    21364674.141          40.029  
   -303864.093    21847777.992          44.606  
    133608.3091   25503010.135          35.205  
   -528172.401    24932119.543          43.006  
   -127204.2591   20708449.733          43.554  
     69205.9081   22381047.014          29.063  
     -7548.9171   20547838.331          31.431  
    204378.2521   22916552.804          34.581  
 19  1 11  8 58 37.9998607  0  9G 3G14G16G22G23G26G29G31G32
     54595.424    24986986.657          40.917  
    264915.827    21365127.724          40.115  
   -305951.646    21847378.365          44.381  
    135262.755    25503339.298          36.924  
   -531409.549    24931505.278          39.859  
   -127950.295    20708309.730          44.857  
     71514.9511   22381467.023          28.632  
     -7631.4711   20547813.150          32.293  
    207794.314    22917206.943          34.874  
 19  1 11  8 58 38.9998607  0  9G 3G14G16G22G23G26G29G31G32
     55964.443    24987253.174          38.372  
    267294.087    21365578.010          41.093  
   -308038.975    21846986.241          44.101  
    136917.326    25503654.083          35.476  
   -534646.865    24930890.105          38.576  
   -128696.139    20708170.635          44.905  
     73829.2701   22381915.214          31.711  
     -7713.4901   20547805.350          33.991  
    211210.6451   22917859.895          35.804  
 19  1 11  8 58 39.9998607  0  9G 3G14G16G22G23G26G29G31G32
     57334.009    24987507.407          37.307  
    269672.815    21366034.595          40.331  
   -310125.856    21846583.629          44.522  
    138571.5381   25503963.178          31.474  
   -537883.810    24930272.821          41.851  
   -129441.687    20708025.536          44.972  
     76143.9071   22382351.417          35.868  
     -7795.2781   20547786.154          33.269  
    214627.209    22918499.952          36.528  
 19  1 11  8 58 40.9998607  0  9G 3G14G16G22G23G26G29G31G32
     58703.481    24987770.329          38.154  
    272051.369    21366479.191          39.673  
   -312213.090    21846190.301          40.627  
    140224.817    25504302.533          29.468  
   -541120.615    24929656.462          40.363  
   -130187.315    20707885.219          43.236  
     78458.6481   22382794.217          32.835  
     -7878.1141   20547764.569          32.157  
    218043.3721   22919154.405          34.244  
 19  1 11  8 58 41.9998607  0  9G 3G14G16G22G23G26G29G31G32
     60073.587    24988033.548          35.993  
    274430.642    21366938.778          40.438  
   -314299.682    21845794.269          40.926  
    141878.9721   25504589.135          27.975  
   -544357.568    24929035.287          40.345  
   -130932.705    20707741.621          43.697  
     80773.378    22383239.407          35.464  
     -7960.3951   20547766.069          31.749  
    221459.5141   22919800.447          33.950  
 19  1 11  8 58 42.9998607  0  9G 3G14G16G22G23G26G29G31G32
     61444.6251   24988296.453          35.961  
    276810.790    21367388.156          40.494  
   -316385.889    21845392.251          40.214  
    143533.7121   25504905.420          27.939  
   -547594.482    24928426.414          42.765  
   -131677.529    20707598.320          42.851  
     83089.5541   22383684.893          34.491  
     -8041.3101   20547743.297          33.654  
    224873.6811   22920455.790          35.109  
 19  1 11  8 58 43.9998607  0  9G 3G14G16G22G23G26G29G31G32
     62814.8421   24988550.685          35.912  
    279190.674    21367841.443          40.645  
   -318471.996    21844999.813          39.167  
    145188.4931   25505218.407          28.854  
   -550830.698    24927810.037          43.249  
   -132421.9731   20707461.911          43.548  
     85405.159    22384133.381          32.245  
     -8122.3181   20547726.510          33.284  
    228290.5031   22921106.944          35.406  
 19  1 11  8 58 44.9998607  0  9G 3G14G16G22G23G26G29G31G32
     64185.686    24988813.904          38.233  
    281571.569    21368298.638          40.373  
   -320557.5521   21844602.000          41.925  
    146843.9861   25505543.679          27.316  
   -554066.975    24927189.455          44.986  
   -133165.801    20707319.518          42.430  
     87721.4091   22384574.383          32.167  
     -8203.434    20547712.113          35.265  
    231708.1351   22921759.897          35.748  
 19  1 11  8 58 45.9998607  0  9G 3G14G16G22G23G26G29G31G32
     65557.179    24989069.323          36.454  
    283953.3921   21368749.220          40.568  
   -322642.610    21844196.370          40.989  
    148498.8661   25505850.367          28.239  
   -557302.649    24926577.877          44.769  
   -133909.487    20707176.216          43.874  
     90041.3761   22384997.394          32.418  
     -8282.0541   20547701.015          34.925  
    235126.2371   22922415.833          33.864  
 19  1 11  8 58 46.9998607  0  9G 3G14G16G22G23G26G29G31G32
     66929.110    24989334.043          36.802  
    286335.721    21369199.506          40.753  
   -324727.175    21843808.748          42.853  
    150155.3781   25506181.939          28.813  
   -560538.039    24925962.112          44.727  
   -134652.656    20707038.011          45.692  
     92359.3401   22385447.976          33.151  
     -8366.7221   20547691.417          34.322  
    238544.651    22923054.999          37.188  
 19  1 11  8 58 47.9998607  0  9G 3G14G16G22G23G26G29G31G32
     68301.181    24989596.966          37.524  
    288719.181    21369657.888          40.443  
   -326811.165    21843409.121          42.032  
    151810.927    25506484.717          29.825  
   -563773.465    24925345.735          44.767  
   -135395.363    20706892.319          44.628  
     94679.1241   22385880.881          33.431  
     -8446.0951   20547670.739          34.312  
    241964.1151   22923707.952          34.590  
 19  1 11  8 58 48.9998607  0  9G 3G14G16G22G23G26G29G31G32
     69673.991    24989851.774          36.056  
    291102.3901   21370111.472          39.779  
   -328894.686    21843013.088          41.529  
    153467.509    25506803.411          27.722  
   -567008.027    24924731.470          44.268  
   -136137.5921   20706752.612          43.525  
     96998.8381   22386327.868          35.493  
     -8522.6881   20547648.856          35.876  
    245383.0801   22924356.995          34.171  
 19  1 11  8 58 49.9998607  0  9G 3G14G16G22G23G26G29G31G32
     71047.040    24990126.091          36.947  
    293486.684    21370559.070          39.631  
   -330977.842    21842620.964          40.814  
    155123.8171   25507113.990          29.247  
   -570242.673    24924114.186          44.548  
   -136879.478    20706610.812          42.631  
     99318.4421   22386760.162          36.096  
     -8604.2571   20547631.162          33.507  
    248802.791    22925015.340          33.730  
 19  1 11  8 58 50.9998607  0  9G 3G14G16G22G23G26G29G31G32
     72420.061    24990379.712          38.993  
    295870.7081   21371020.139          40.229  
   -333061.220    21842216.538          41.293  
    156779.943    25507432.666          30.910  
   -573477.046    24923500.811          44.199  
   -137621.8111   20706471.699          44.007  
    101639.2931   22387211.355          36.025  
     -8682.6721   20547620.971          34.384  
    252222.0361   22925652.098          33.456  
 19  1 11  8 58 51.9998607  0  9G 3G14G16G22G23G26G29G31G32
     73793.617    24990640.244          39.407  
    298255.678    21371469.238          40.404  
   -335144.059    21841825.915          42.230  
    158436.091    25507745.059          30.319  
   -576711.534    24922884.434          44.641  
   -138363.446    20706329.305          44.675  
    103960.510    22387656.545          35.498  
     -8759.9791   20547604.794          34.961  
    255641.9641   22926312.536          35.330  
 19  1 11  8 58 52.9998607  0  9G 3G14G16G22G23G26G29G31G32
     75167.340    24990909.745          37.993  
    300641.413    21371926.713          40.212  
   -337226.825    21841426.287          41.328  
    160092.478    25508055.045          33.518  
   -579945.980    24922269.576          44.497  
   -139104.352    20706186.004          43.190  
    106281.3261   22388093.342          34.991  
     -8836.9781   20547596.383          35.260  
    259062.3501   22926966.989          35.184  
 19  1 11  8 58 53.9998607  0  9G 3G14G16G22G23G26G29G31G32
     76541.550    24991159.772          36.974  
    303026.5891   21372377.609          40.127  
   -339309.3021   21841030.272          42.169  
    161749.210    25508374.611          35.402  
   -583179.553    24921647.807          45.488  
   -139845.577    20706046.594          43.936  
    108597.4831   22388546.332          32.658  
     -8912.4841   20547575.408          35.437  
    262480.5881   22927611.845          35.465  
 19  1 11  8 58 54.9998607  0  9G 3G14G16G22G23G26G29G31G32
     77916.208    24991429.291          40.119  
    305413.1541   21372832.693          39.124  
   -341390.890    21840633.943          42.004  
    163406.006    25508685.207          34.739  
   -586413.137    24921036.526          44.594  
   -140586.2171   20705907.795          43.565  
    110916.6491   22389005.918          30.137  
     -8989.7281   20547573.314          35.350  
    265901.0671   22928264.483          36.392  
 19  1 11  8 58 55.9998607  0  9G 3G14G16G22G23G26G29G31G32
     79291.196    24991688.618          38.693  
    307799.5781   21373288.685          40.006  
   -343471.946    21840238.207          44.151  
    165063.1541   25509008.979          32.783  
   -589646.579    24920423.447          44.610  
   -141327.3631   20705763.290          42.728  
    113236.7721   22389439.102          29.183  
     -9066.4861   20547546.319          34.842  
    269321.6921   22928912.340          35.580  
 19  1 11  8 58 56.9998607  0  9G 3G14G16G22G23G26G29G31G32
     80666.380    24991952.727          37.868  
    310186.5521   21373739.564          40.433  
   -345552.880    21839843.989          44.347  
    166720.2971   25509334.547          31.760  
   -592879.763    24919805.867          45.278  
   -142067.6341   20705624.787          43.468  
    115558.6641   22389882.198          29.866  
     -9143.8271   20547533.144          32.592  
    272742.4131   22929569.183          35.340  
 19  1 11  8 58 57.9998607  0  8G 3G14G16G22G23G26G31G32
     82041.479    24992209.054          38.695  
    312574.627    21374192.257          40.449  
   -347633.8551   21839447.956          42.906  
    168377.8071   25509644.236          29.488  
   -596113.108    24919193.102          46.643  
   -142807.379    20705483.284          44.937  
     -9219.2411   20547523.546          32.934  
    276163.8391   22930223.933          33.312  
 19  1 11  8 58 58.9998607  0  8G 3G14G16G22G23G26G31G32
     83417.782    24992474.070          38.889  
    314962.5451   21374652.437          40.065  
   -349714.6891   21839050.143          43.035  
    170034.1561   25509958.428          29.719  
   -599345.830    24918575.225          47.014  
   -143546.9731   20705341.780          42.224  
     -9296.0111   20547498.662          35.139  
    279585.0901   22930861.599          35.106  
 19  1 11  8 58 59.9998607  0  8G 3G14G16G22G23G26G31G32
     84793.969    24992737.289          39.564  
    317351.1271   21375103.612          40.548  
   -351795.033    21838655.018          44.097  
    171692.7361   25510267.209          27.951  
   -602578.358    24917962.443          47.012  
   -144286.1191   20705203.888          43.394  
     -9371.4461   20547495.067          34.221  
    283006.4461   22931523.241          35.192  
 19  1 11  8 59  0.9998607  0  8G 3G14G16G22G23G26G31G32
     86170.161    24992996.303          39.222  
    319739.8541   21375561.105          40.123  
   -353876.0081   21838258.392          42.174  
    173352.8041   25510581.697          23.747  
   -605810.914    24917344.287          46.326  
   -145025.6241   20705059.680          43.845  
     -9446.4701   20547480.374          33.772  
    286427.6841   22932173.192          34.114  
 19  1 11  8 59  1.9998607  0  7G 3G14G16G23G26G31G32
     87546.509    24993255.334          39.480  
    322128.3391   21376011.984          39.904  
   -355956.0751   21837865.361          44.441  
   -609043.763    24916729.097          46.757  
   -145765.2451   20704921.177          44.236  
     -9522.7471   20547464.180          34.486  
    289848.7641   22932813.249          35.120  
 19  1 11  8 59  2.9998607  0  7G 3G14G16G23G26G31G32
     88922.918    24993526.632          38.648  
    324518.149    21376467.975          39.711  
   -358035.955    21837466.937          44.004  
   -612276.803    24916114.535          47.138  
   -146504.430    20704778.173          43.907  
     -9597.4481   20547456.084          35.129  
    293270.6721   22933467.684          34.615  
 19  1 11  8 59  3.9998607  0  7G 3G14G16G23G26G31G32
     90299.460    24993786.257          38.836  
    326907.0741   21376925.153          39.992  
   -360116.0921   21837073.610          43.729  
   -615509.292    24915502.957          47.344  
   -147243.8831   20704643.876          44.552  
     -9672.7131   20547434.812          34.731  
    296691.8091   22934129.326          34.811  
 19  1 11  8 59  4.9998607  0  7G 3G14G16G23G26G31G32
     91676.099    24994043.176          39.591  
    329297.3471   21377380.238          39.620  
   -362195.7771   21836676.373          43.464  
   -618742.060    24914887.785          47.573  
   -147982.740    20704497.870          43.311  
     -9748.6141   20547430.310          34.978  
    300113.4501   22934774.182          33.867  
 19  1 11  8 59  5.9998607  0  7G 3G14G16G23G26G31G32
     93053.297    24994309.100          37.980  
    331687.1891   21377834.729          39.486  
   -364275.254    21836281.248          43.064  
   -621974.376    24914271.408          46.694  
   -148721.365    20704359.961          44.431  
     -9822.5571   20547401.534          35.078  
    303535.0501   22935426.523          33.982  
 19  1 11  8 59  6.9998607  0  7G 3G14G16G23G26G31G32
     94430.801    24994561.518          38.442  
    334078.0591   21378288.312          39.205  
   -366354.4841   21835880.730          44.532  
   -625206.604    24913656.235          46.257  
   -149458.864    20704215.770          42.804  
     -9897.4041   20547395.828          33.105  
    306956.2551   22936079.179          33.150  
 19  1 11  8 59  7.9998607  0  7G 3G14G16G23G26G31G32
     95808.026    24994836.132          38.708  
    336468.8611   21378743.693          39.207  
   -368433.4411   21835490.107          42.521  
   -628438.969    24913038.655          47.001  
   -150196.6591   20704077.860          42.148  
     -9971.5111   20547370.944          34.627  
    310376.3571   22936731.520          33.355  
 19  1 11  8 59  8.9998607  0  7G 3G14G16G23G26G31G32
     97185.500    24995095.756          38.664  
    338860.286    21379197.294          39.416  
   -370512.763    21835093.184          44.099  
   -631671.449    24912422.889          47.121  
   -150934.4041   20703939.951          43.246  
    -10042.3961   20547359.549          34.771  
    313798.3101   22937374.875          33.454  
 19  1 11  8 59  9.9998607  0  7G 3G14G16G23G26G31G32
     98563.097    24995355.677          42.715  
    341251.3181   21379649.080          39.256  
   -372591.997    21834698.042          44.103  
   -634903.894    24911812.515          47.117  
   -151672.853    20703794.556          42.328  
    -10114.1931   20547347.561          34.946  
    317220.1501   22938029.921          33.758  
 19  1 11  8 59 10.9998607  0  7G 3G14G16G23G26G31G32
     99940.928    24995618.285          43.580  
    343643.7241   21380105.665          39.504  
   -374669.8891   21834305.918          44.483  
   -638136.224    24911195.842          46.549  
   -152409.8691   20703656.054          43.063  
    -10185.2751   20547340.668          35.764  
    320643.9531   22938677.778          32.897  
 19  1 11  8 59 11.9998607  0  7G 3G14G16G23G26G31G32
    101318.875    24995880.300          43.681  
    346035.6421   21380566.141          39.486  
   -376748.692    21833903.900          45.457  
   -641368.381    24910579.169          45.449  
   -153146.2041   20703517.255          43.252  
    -10256.6301   20547321.787          35.515  
    324064.4731   22939337.327          32.870  
 19  1 11  8 59 12.9998607  0  7G 3G14G16G23G26G31G32
    102696.942    24996142.629          42.966  
    348428.6651   21381015.833          39.609  
   -378827.135    21833509.071          45.643  
   -644600.820    24909966.684          45.139  
   -153877.6261   20703372.453          43.403  
    -10330.5591   20547308.298          35.734  
    327489.4341   22939985.183          32.902  
 19  1 11  8 59 13.9998607  0  7G 3G14G16G23G26G31G32
    104075.239    24996399.252          40.591  
    350821.0841   21381475.402          38.804  
   -380903.9301   21833116.336          43.700  
   -647833.042    24909347.009          46.805  
   -154615.4801   20703233.340          42.638  
    -10403.8781   20547295.105          34.803  
    330909.7591   22940639.026          33.742  
 19  1 11  8 59 14.9998607  0  7G 3G14G16G23G26G31G32
    105453.676    24996663.361          39.144  
    353214.5741   21381931.691          39.339  
   -382981.6461   21832720.025          43.682  
   -651065.387    24908731.540          46.143  
   -155352.2041   20703099.043          42.674  
    -10476.2171   20547279.208          35.149  
    334331.9121   22941285.067          33.367  
 19  1 11  8 59 15.9998607  0  7G 3G14G16G23G26G31G32
    106832.337    24996924.783          38.587  
    355607.4051   21382381.976          39.964  
   -385060.164    21832326.400          45.695  
   -654297.697    24908118.461          46.117  
   -156089.708    20702953.944          43.940  
    -10549.6041   20547261.531          37.244  
    337753.7381   22941942.819          34.421  
 19  1 11  8 59 16.9998607  0  7G 3G14G16G23G26G31G32
    108210.701    24997192.801          36.645  
    358000.8511   21382840.673          40.340  
   -387137.908    21831930.367          44.256  
   -657530.083    24907504.493          46.400  
   -156827.2591   20702810.940          42.121  
    -10622.0911   20547248.635          35.920  
    341178.0731   22942594.863          32.609  
 19  1 11  8 59 17.9998607  0  7G 3G14G16G23G26G31G32
    109589.0501   24997451.815          36.335  
    360394.5851   21383294.256          40.377  
   -389216.541    21831534.945          44.967  
   -660762.745    24906887.209          45.826  
   -157564.6791   20702670.937          42.914  
    -10692.0971   20547230.348          35.224  
    344599.624    22943246.018          32.153  
 19  1 11  8 59 18.9998607  0  7G 3G14G16G23G26G31G32
    110967.639    24997712.643          37.743  
    362788.1901   21383754.436          39.196  
   -391290.9811   21831136.208          41.456  
   -663995.305    24906276.242          47.646  
   -158302.2161   20702530.340          41.035  
    -10762.1001   20547215.358          33.990  
    348021.5231   22943887.279          31.517  
 19  1 11  8 59 19.9998607  0  7G 3G14G16G23G26G31G32
    112346.575    24997976.752          39.279  
    365182.5391   21384205.018          40.168  
   -393368.1841   21830740.786          43.943  
   -667227.721    24905660.162          46.926  
   -159036.5311   20702397.823          42.599  
    -10835.6941   20547213.560          35.972  
    351443.3581   22944542.622          30.882  
 19  1 11  8 59 20.9998607  0  7G 3G14G16G23G26G31G32
    113725.118    24998242.676          37.362  
    367576.0581   21384658.898          39.839  
   -395446.8771   21830348.959          44.449  
   -670460.410    24905046.193          46.463  
   -159774.3181   20702251.521          43.084  
    -10916.4861   20547193.179          35.497  
    354865.8111   22945199.762          32.971  
 19  1 11  8 59 21.9998607  0  7G 3G14G16G23G26G31G32
    115103.503    24998501.393          37.706  
    369970.5001   21385117.891          39.842  
   -397524.1391   21829952.926          43.530  
   -673693.351    24904430.113          46.034  
   -160510.9731   20702108.830          43.560  
    -10988.8891   20547182.674          35.385  
    358287.6051   22945837.131          32.322  
 19  1 11  8 59 22.9998607  0  7G 3G14G16G23G26G31G32
    116482.139    24998767.003          37.885  
    372364.8681   21385570.567          39.497  
   -399598.6311   21829557.504          44.152  
   -676926.564    24903809.845          46.548  
   -161248.3481   20701973.923          44.187  
    -11059.1351   20547165.886          35.325  
    361709.1901   22946502.072          32.851  
 19  1 11  8 59 23.9998607  0  7G 3G14G16G23G26G31G32
    117860.693    24999027.238          39.347  
    374759.2881   21386032.248          39.735  
   -401674.495    21829159.081          43.965  
   -680159.459    24903196.174          46.512  
   -161981.1201   20701833.309          43.160  
    -11131.2971   20547151.507          35.297  
    365130.9361   22947152.913          32.415  
 19  1 11  8 59 24.9998607  0  7G 3G14G16G23G26G31G32
    119239.910    24999296.739          40.398  
    377154.9501   21386481.643          39.763  
   -403752.139    21828769.662          44.620  
   -683392.230    24902583.392          45.827  
   -162717.995    20701692.712          44.166  
    -11201.2291   20547139.816          37.156  
    368552.6061   22947795.360          34.167  
 19  1 11  8 59 25.9998607  0  7G 3G14G16G23G26G31G32
    120619.806    24999556.067          39.800  
    379550.2481   21386943.027          39.813  
   -405829.521    21828370.628          43.518  
   -686624.310    24901968.219          45.218  
   -163454.431    20701551.505          43.718  
    -11273.7011   20547129.607          36.575  
    371974.4991   22948462.708          32.385  
