     2.10           OBSERVATION DATA    M (MIXED)           RINEX VERSION / TYPE
Convert                                 27-Jul-2009 17:54   PGM / RUN BY / DATE 
Signal Strength values S1,S2 are in dBHz                    COMMENT             
                                                            MARKER NAME         
                                                            MARKER NUMBER       
                                                            OBSERVER / AGENCY   
                    NovAtel GPSCard                         REC # / TYPE / VERS 
                                                            ANT # / TYPE        
 -3761094.5791  3636607.0704  3636306.5035                  APPROX POSITION XYZ 
        0.0000        0.0000        0.0000                  ANTENNA: DELTA H/E/N
     1     1                                                WAVELENGTH FACT L1/2
     1     1     7   G02   G03   G04   G06   G07   G08   G11WAVELENGTH FACT L1/2
     1     1     7   G13   G16   G17   G18   G19   G20   G21WAVELENGTH FACT L1/2
     1     1     7   G22   G23   G25   G28   G31   G32   R02WAVELENGTH FACT L1/2
     1     1     7   R03   R07   R08   R09   R11   R13   R15WAVELENGTH FACT L1/2
     1     1     6   R17   R18   R19   R22   R23   R24      WAVELENGTH FACT L1/2
                                                            COMMENT             
                                                            COMMENT             
     8    C1    L1    D1    S1    P2    L2    D2    S2      # / TYPES OF OBSERV 
    30.000                                                  INTERVAL            
  2009    07    27    08    12    30.0000000    GPS         TIME OF FIRST OBS   
  2009    07    27    14    12     0.0000000    GPS         TIME OF LAST OBS    
    15                                                      LEAP SECONDS        
                                                            END OF HEADER       
 09 07 27 08 12 30.0000000  0 16G13G25G07G16G11G06G31G21G03G23G19R24            
                                R13R22R11R23                                    
  23187679.33848 121852098.67148     -1128.22748        45.705    23187679.75543
  94949679.03543      -879.13743        34.987  
  21859286.19049 114871345.31449      1988.80149        48.851    21859286.28346
  89510160.77446      1549.71546        41.681  
  23253442.32948 122197672.72648      3149.11748        46.835    23253441.78746
  95218970.65046      2453.85946        41.889  
  21534117.10549 105141374.42449     -1318.27049        49.871    21534116.20347
  81905963.35447     -1027.22747        43.545  
  25432359.68043 133647968.37243      3809.03143        35.608    25432362.80941
 104141284.89441      2968.09041        26.757  
  20516078.98049  99791561.63149     -1032.05949        50.646    20516079.41748
  77737289.77648      -804.20748        46.536  
  24616436.84148 121339045.68448     -3584.13348        46.423    24616437.50745
  94527519.89545     -2792.83645        39.740  
  24716173.01446 121863213.81046     -2371.85946        41.326    24716174.62142
  94935971.54142     -1848.20742        33.798  
  19897587.16749  96541374.84849      -134.78149        51.165    19897587.10548
  75204679.85348      -105.02348        45.982  
  23443804.51948 115176839.91048     -2602.92648        46.746    23443803.51844
  89725796.04444     -2028.25844        38.284  
  20785063.80149 109226296.88449      1328.82849        49.938    20785061.54048
  85111411.13548      1035.44548        46.830  
  22217438.22507 118806668.14807      2996.80507        45.177    22217442.20005
  92405237.06205      2330.84805        38.947  
  19583218.39209 104573321.34309      1650.85209        49.318    19583223.70408
  81334866.58408      1283.99608        46.202  
  21496566.13808 114750122.87608     -3248.14108        47.531    21496572.66207
  89250123.02007     -2526.33607        45.059  
  24493846.32305 130887639.40005     -4214.13305        39.181    24493853.23801
 101801505.45801     -3277.66401        29.867  
  19432019.23008 103948230.73508       -94.96508        47.574    19432021.11906
  80848646.99006       -73.86306        41.833  
 09 07 27 08 13  0.0000000  0 16G13G25G07G16G11G06G31G21G03G23G19R24            
                                R13R22R11R23                                    
  23194167.71048 121886194.10048     -1144.95748        47.008    23194168.18644
  94976246.84444      -892.18044        37.073  
  21847970.84049 114811882.16749      1975.05949        49.022    21847970.80146
  89463825.85146      1539.00446        41.522  
  23235488.65948 122103325.77348      3140.51248        47.324    23235488.14146
  95145453.56946      2447.14846        41.466  
  21541660.78849 105181015.66549     -1324.78949        50.146    21541659.68147
  81936852.62247     -1032.30947        43.494  
  25410610.45346 133533676.24746      3810.58246        41.466    25410614.20642
 104052226.28342      2969.28942        34.288  
  20521998.91449  99822670.58549     -1042.13349        50.825    20521999.11748
  77761530.50948      -812.05548        46.222  
  24636906.56548 121446615.29748     -3587.47348        46.227    24636907.05445
  94611340.33345     -2795.43845        39.440  
  24729744.73146 121934532.17946     -2382.25046        41.619    24729745.91342
  94991544.27542     -1856.30142        34.336  
  19898394.08849  96545615.38949      -148.18049        51.203    19898394.08548
  75207984.16648      -115.46948        46.219  
  23458683.47848 115255028.02748     -2609.77048        47.594    23458682.21244
  89786721.80244     -2033.59044        38.035  
  20777516.55549 109186636.49649      1314.89549        49.836    20777514.38848
  85080506.96648      1024.59448        46.520  
  22200659.52708 118716943.95208      2984.45308        45.873    22200663.25205
  92335451.60905      2321.24205        39.932  
  19574003.51809 104524115.57609      1629.09009        49.215    19574009.00208
  81296595.43508      1267.07008        46.118  
  21514832.72709 114847631.40009     -3252.55909        47.821    21514839.15507
  89325962.94707     -2529.77307        44.736  
  24517515.82303 131014120.82603     -4218.11703        34.502    24517522.72101
 101899879.73601     -3280.76201        25.595  
  19432601.50008 103951346.31008      -113.05908        47.560    19432603.40406
  80851070.22806       -87.93806        41.576  
 09 07 27 08 13 30.0000000  0 15G13G25G07G16G11G06G31G21G03G23G19R24            
                                R13R22R23                                       
  23200751.09249 121920787.78949     -1161.26649        47.861    23200751.42544
  95003202.95244      -904.88344        37.101  
  21836733.79249 114752830.79549      1961.56249        48.959    21836733.36146
  89417811.78946      1528.48846        41.758  
  23217583.89848 122009234.75348      3132.22348        47.536    23217583.19146
  95072135.91446      2440.69146        41.444  
  21549241.38949 105220851.06049     -1330.95749        50.198    21549240.10946
  81967893.17846     -1037.11346        42.835  
  25388851.77545 133419333.93045      3811.14545        39.721    25388855.40141
 103963128.49441      2969.71941        30.665  
  20527976.31549  99854081.44949     -1051.89849        50.764    20527976.37248
  77786006.51048      -819.66448        46.564  
  24657395.58448 121554285.31248     -3590.33248        46.974    24657396.12845
  94695238.98845     -2797.66445        39.422  
  24743377.38545 122006169.11445     -2393.15645        40.661    24743377.76742
  95047365.28842     -1864.80142        33.662  
  19899277.62549  96550258.35849      -161.33249        51.129    19899277.56248
  75211602.06848      -125.71948        45.987  
  23473600.68348 115333417.30348     -2616.14148        47.351    23473599.53845
  89847804.29345     -2038.55545        39.554  
  20770048.52649 109147391.85249      1301.31249        49.861    20770046.41148
  85049926.73548      1014.00848        46.669  
  22183949.55807 118627587.76407      2972.68007        45.103    22183953.48005
  92265952.39005      2312.12505        40.598  
  19564911.64909 104475566.12809      1607.50809        49.497    19564917.21508
  81258834.74208      1250.28108        46.259  
  21533124.26908 114945273.07208     -3256.75808        47.100    21533130.23907
  89401906.45607     -2533.03907        44.524  
  19433284.62608 103955000.35508      -130.55508        47.262    19433286.61806
  80853912.27406      -101.54306        41.772  
 09 07 27 08 14  0.0000000  0 15G13G25G07G16G11G06G31G21G03G23G19R24            
                                R13R22R23                                       
  23207428.51648 121955876.58448     -1178.39148        46.868    23207429.03343
  95030544.83343      -918.23043        36.441  
  21825575.09549 114694191.89549      1946.96549        48.633    21825574.49346
  89372119.14246      1517.11746        41.326  
  23199728.14648 121915401.37048      3122.87148        47.592    23199727.13546
  94999019.01846      2433.40246        41.422  
  21556858.56149 105260879.70449     -1338.03949        49.790    21556857.21446
  81999084.32046     -1042.63346        42.839  
  25367083.51245 133304922.70655      3813.54345        38.986    25367087.60643
 103873979.98153      2971.60543        35.530  
  20534010.47749  99885791.29549     -1062.51649        50.623    20534010.59848
  77810715.47648      -827.93448        46.466  
  24677903.19948 121662052.59648     -3594.40248        46.791    24677903.61645
  94779213.44445     -2800.84045        40.487  
  24757070.17846 122078121.20246     -2404.25046        41.534    24757069.66143
  95103431.82943     -1873.44143        35.135  
  19900237.35949  96555301.18549      -175.31649        51.049    19900237.06648
  75215531.54848      -136.61348        45.880  
  23488555.22548 115412003.28148     -2623.39848        46.810    23488554.31645
  89909040.06545     -2044.21145        38.964  
  20762659.44049 109108561.41549      1286.73449        49.993    20762657.23048
  85019669.26948      1002.64848        46.788  
  22167307.87107 118538599.32907      2959.71507        44.766    22167312.15705
  92196739.22505      2302.00005        39.944  
  19555943.24409 104427674.84609      1584.77709        49.687    19555948.61608
  81221585.96008      1232.60508        46.067  
  21551439.98108 115043043.77508     -3261.66808        47.515    21551445.60707
  89477950.29707     -2536.85507        44.365  
  19434067.69408 103959189.39208      -149.16008        47.343    19434069.98706
  80857170.42506      -116.01206        41.919  
 09 07 27 08 14 30.0000000  0 15G13G25G07G16G11G06G31G21G03G23G19R24            
                                R13R22R23                                       
  23214199.92948 121991459.37248     -1194.64148        46.951    23214200.11744
  95058271.66344      -930.89544        38.169  
  21814495.46149 114635968.89849      1933.30549        48.815    21814494.98246
  89326750.55546      1506.46946        42.076  
  23181921.99648 121821829.57848      3114.32848        47.278    23181920.83646
  94926105.97446      2426.75046        41.518  
  21564512.60949 105301103.15649     -1344.28949        49.755    21564511.53846
  82030427.25746     -1047.50046        42.666  
  25345306.49444 133190484.08344      3815.28544        38.024    25345310.32243
 103784807.13243      2972.95343        34.860  
  20540101.43249  99917799.71749     -1072.13349        50.860    20540101.56248
  77835657.10448      -835.43448        46.595  
  24698428.96448 121769916.02948     -3597.33648        47.064    24698429.44045
  94863262.81845     -2803.12145        40.695  
  24770822.70746 122150387.62546     -2414.41446        42.299    24770821.37441
  95159743.27941     -1881.36741        29.284  
  19901273.26749  96560744.30349      -188.38749        51.316    19901272.85848
  75219772.94248      -146.79748        46.414  
  23503546.58648 115490783.77748     -2629.55148        46.397    23503545.18144
  89970427.40944     -2049.00444        37.438  
  20755349.40449 109070146.08649      1273.26649        50.269    20755347.00748
  84989735.25048       992.15248        46.996  
  22150735.24106 118449980.47606      2947.57406        42.955    22150739.91305
  92127813.50605      2292.63305        39.912  
  19547098.87109 104380445.59209      1562.99609        49.633    19547103.98508
  81184852.09308      1215.66008        46.017  
  21569779.52808 115140941.87308     -3265.74608        47.376    21569784.89407
  89554093.23507     -2540.02707        43.838  
  19434950.78409 103963912.89609      -166.67609        47.805    19434953.03506
  80860844.27606      -129.63706        41.882  
 09 07 27 08 15  0.0000000  0 15G13G25G07G16G11G06G31G21G03G23G19R24            
                                R13R22R23                                       
  23221064.39048 122027531.54048     -1210.75848        46.679    23221063.96144
  95086379.85744      -943.45344        37.683  
  21803494.86649 114578161.37749      1919.78149        48.843    21803494.70746
  89281705.74446      1495.93446        42.332  
  23164165.72748 121728519.82148      3105.83648        47.586    23164164.55546
  94853397.10646      2420.13346        41.362  
  21572203.44449 105341518.93349     -1350.56649        49.827    21572202.41146
  82061920.05446     -1052.39146        43.194  
  25323520.70045 133075998.73945      3816.57445        39.734    25323523.29941
 103695598.00141      2973.96141        26.584  
  20546248.36549  99950102.63049     -1081.74249        50.816    20546248.53448
  77860828.20748      -842.91848        46.569  
  24718972.13648 121877870.94448     -3600.22348        46.931    24718972.82746
  94947383.48046     -2805.37146        41.224  
  24784634.34847 122222964.20847     -2424.36747        43.401    24784632.03142
  95216296.44942     -1889.12142        33.352  
  19902384.51049  96566583.99049      -201.34849        51.231    19902384.27248
  75224323.35148      -156.89848        46.468  
  23518573.96148 115569752.92348     -2635.56648        45.875    23518572.35844
  90031961.77644     -2053.69144        37.276  
  20748117.87449 109032143.88349      1259.71549        49.989    20748115.46848
  84960123.16048       981.59848        46.823  
  22134231.92507 118361730.40807      2935.25007        45.493    22134236.99805
  92059174.61005      2282.97305        39.874  
  19538378.52809 104333879.43309      1541.03109        49.674    19538383.60008
  81148633.96908      1198.57408        45.904  
  21588141.69108 115238961.76808     -3269.45708        47.160    21588147.16407
  89630330.90707     -2542.91407        43.463  
  19435933.07208 103969166.49008      -184.09408        47.592    19435934.88606
  80864930.40906      -143.18406        41.736  
 09 07 27 08 15 30.0000000  0 15G13G25G07G16G11G06G31G21G03G23G19R24            
                                R13R22R23                                       
  23228022.02848 122064093.91448     -1226.71548        47.121    23228021.52344
  95114870.01244      -955.88744        37.817  
  21792574.58049 114520774.58249      1905.94949        49.241    21792574.52946
  89236988.74146      1485.15246        42.309  
  23146460.37248 121635477.63348      3097.12148        46.920    23146459.29546
  94780896.71446      2413.34046        41.415  
  21579931.55249 105382130.43049     -1356.68849        49.972    21579930.49446
  82093565.35946     -1057.16446        43.213  
  25301726.97146 132961471.94846      3818.66446        41.325    25301729.25442
 103606356.45242      2975.59042        32.334  
  20552451.60449  99982701.52649     -1091.19549        50.821    20552451.89948
  77886229.94848      -850.28148        46.493  
  24739533.14848 121985918.38148     -3602.96948        46.777    24739533.86244
  95031576.09644     -2807.50844        38.103  
  24798504.98846 122295852.08446     -2434.65246        43.212    24798502.07441
  95273092.15141     -1897.14141        31.277  
  19903571.49449  96572822.00749      -214.31249        51.414    19903571.50948
  75229184.14648      -167.00048        46.813  
  23533636.97148 115648910.74048     -2641.34848        46.547    23533635.80244
  90093643.13544     -2058.19544        38.257  
  20740965.25949 108994557.42349      1246.21949        50.054    20740963.20948
  84930835.03548       971.07848        47.113  
  22117798.88508 118273853.16408      2923.25008        45.743    22117803.60605
  91990825.66505      2273.63705        40.139  
  19529783.36809 104287982.45909      1518.98809        49.258    19529788.33608
  81112936.32608      1181.43008        45.598  
  21606527.00908 115337104.07008     -3273.24608        47.278    21606532.66707
  89706663.78807     -2545.86307        43.701  
  19437014.51808 103974951.20608      -201.46108        47.353    19437016.18706
  80869429.64206      -156.69106        41.554  
 09 07 27 08 16  0.0000000  0 15G13G25G07G16G11G06G31G21G03G23G19R24            
                                R13R22R23                                       
  23235072.12148 122101142.54648     -1242.91848        46.829    23235071.75043
  95143739.05043      -968.51243        35.911  
  21781734.67649 114463808.84249      1891.65649        49.632    21781734.32746
  89192599.85846      1474.02046        41.955  
  23128805.87748 121542703.91648      3087.80148        47.161    23128805.27045
  94708605.53745      2406.07845        41.076  
  21587696.78949 105422936.34049     -1363.56649        50.132    21587695.68146
  82125362.15446     -1062.52346        43.081  
  25279925.24645 132846903.80345      3819.46945        39.603    25279927.29541
 103517082.75741      2976.21941        27.831  
  20558710.66249 100015593.24149     -1101.27049        50.891    20558710.97348
  77911859.84648      -858.13748        46.210  
  24760111.00848 122094054.82848     -3606.21948        46.576    24760111.46645
  95115838.33645     -2810.03945        39.717  
  24812433.61147 122369046.92147     -2445.15247        43.483    24812430.25341
  95330127.06941     -1905.31241        31.050  
  19904833.91949  96579455.79049      -227.84449        51.361    19904833.93448
  75234353.34148      -177.53948        46.086  
  23548735.43648 115728252.10748     -2647.81648        47.103    23548734.09744
  90155467.52944     -2063.23844        37.518  
  20733891.57249 108957384.44049      1232.18049        50.287    20733889.42348
  84901869.09048       960.13748        46.672  
  22101435.11007 118186347.80607      2910.37907        44.861    22101439.59205
  91922765.98105      2263.62905        39.066  
  19521313.81809 104242755.69909      1496.22309        49.604    19521318.67108
  81077759.95208      1163.73008        45.781  
  21624934.59609 115435363.89409     -3277.44909        47.912    21624940.85207
  89783088.06107     -2549.13307        44.483  
  19438194.51108 103981263.66608      -219.44508        47.544    19438196.04606
  80874339.34106      -170.68006        41.851  
 09 07 27 08 16 30.0000000  0 15G13G25G07G16G11G06G31G21G03G23G19R24            
                                R13R22R23                                       
  23242214.69448 122138677.64348     -1259.39148        46.739    23242214.34944
  95172987.18144      -981.34444        36.708  
  21770975.60149 114407268.25049      1877.24649        49.512    21770975.02946
  89148542.24946      1462.78946        42.621  
  23111203.21048 121450203.48548      3078.52748        46.445    23111203.17646
  94636527.27846      2398.84846        41.992  
  21595499.39449 105463939.36449     -1370.43449        49.599    21595498.27346
  82157312.55246     -1067.87546        43.201  
  25258116.53745 132732298.76145      3820.55145        40.662    25258118.89241
 103427780.26541      2977.05941        32.179  
  20565025.52849 100048777.98649     -1111.17249        50.939    20565025.77948
  77937718.08248      -865.85248        46.442  
  24780705.38848 122202279.76548     -3609.23048        46.063    24780705.98545
  95200169.39945     -2812.39145        39.472  
  24826420.28246 122442549.00146     -2455.46946        42.513    24826417.16443
  95387401.32943     -1913.35943        35.215  
  19906171.78049  96586485.88949      -241.18049        51.429    19906171.64248
  75239831.34848      -187.93848        46.286  
  23563868.62148 115807775.82248     -2654.06648        47.346    23563866.73244
  90217433.99044     -2068.10944        38.689  
  20726897.00549 108920626.94149      1218.14149        50.065    20726894.56748
  84873226.89048       949.19548        46.720  
  22085141.41708 118099217.79308      2897.64808        45.598    22085145.01204
  91854998.20504      2253.72704        38.327  
  19512970.74109 104198204.28209      1473.45709        49.787    19512975.76308
  81043108.85108      1146.02308        45.933  
  21643364.00808 115533740.66508     -3281.44108        47.643    21643370.68807
  89859603.30107     -2552.23407        44.413  
  19439473.04109 103988103.72509      -237.03109        47.814    19439474.95106
  80879659.38806      -184.35906        41.901  
 09 07 27 08 17  0.0000000  0 15G13G25G07G16G11G06G31G21G03G23G19R24            
                                R13R22R23                                       
  23249449.06847 122176696.36047     -1275.06647        45.506    23249449.49444
  95202612.13444      -993.55944        37.236  
  21760297.39449 114351154.94349      1863.32449        49.119    21760296.93346
  89104817.59246      1451.93846        42.521  
  23093653.18248 121357979.41348      3069.60948        46.303    23093653.54246
  94564664.37346      2391.90246        42.479  
  21603339.32249 105505139.95849     -1376.53149        49.264    21603338.51146
  82189416.89846     -1072.62546        43.306  
  25236301.20645 132617659.16645      3821.87145        39.797    25236303.48141
 103338450.86341      2978.09041        28.198  
  20571395.88349 100082254.42949     -1120.61749        50.726    20571396.01448
  77963803.62248      -873.21148        46.563  
  24801316.24148 122310591.43848     -3611.86348        45.663    24801316.97344
  95284568.07544     -2814.44144        37.827  
  24840464.98946 122516356.50846     -2464.97346        42.659    24840462.90242
  95444913.56142     -1920.81642        33.008  
  19907584.72049  96593911.44749      -253.98049        51.236    19907584.49448
  75245617.49848      -197.90648        46.371  
  23579035.80749 115887478.53049     -2659.48449        47.899    23579033.72544
  90279539.94644     -2072.32844        38.716  
  20719981.13949 108884284.94949      1204.71549        49.635    20719978.73348
  84844908.46648       938.73848        47.119  
  22068918.05507 118012463.91507      2885.41007        44.606    22068921.16805
  91787522.98005      2244.20305        39.305  
  19504754.78109 104154331.46709      1451.08209        49.562    19504759.91408
  81008985.54408      1128.61708        45.861  
  21661814.53408 115632231.56508     -3284.65208        46.745    21661821.33307
  89936207.30107     -2554.73407        44.038  
  19440850.00908 103995469.35508      -254.09408        47.705    19440852.20306
  80885388.22606      -197.62906        42.033  
 09 07 27 08 17 30.0000000  0 16G13G25G07G16G11G06G31G21G03G23G19R24            
                                R13R07R22R23                                    
  23256774.81748 122215194.66448     -1291.47748        46.116    23256775.34643
  95232610.78743     -1006.34443        35.982  
  21749700.66149 114295468.84749      1848.72749        49.792    21749700.07046
  89061425.83746      1440.56646        42.555  
  23076155.97248 121266032.14648      3060.05548        46.104    23076156.42746
  94493017.18146      2384.45746        42.090  
  21611216.35149 105546535.85849     -1383.47749        49.562    21611215.80346
  82221673.41846     -1078.03946        43.231  
  25214479.17045 132502984.92745      3822.54745        40.166    25214481.18842
 103249094.41242      2978.60942        32.493  
  20577821.03249 100116018.76949     -1130.49649        50.919    20577820.99148
  77990113.50248      -880.90648        46.547  
  24821942.78948 122418985.27148     -3614.78548        45.601    24821943.61044
  95369030.71044     -2816.72344        38.432  
  24854567.19146 122590465.42146     -2475.54346        42.686    24854565.70341
  95502660.75041     -1928.99641        30.277  
  19909072.42849  96601728.84449      -267.43849        51.456    19909071.86548
  75251708.97548      -208.39548        46.353  
  23594235.94648 115967355.02848     -2665.75448        47.502    23594234.18645
  90341781.32645     -2077.21545        39.501  
  20713143.83449 108848355.73349      1190.52349        49.701    20713141.68848
  84816911.69548       927.68048        47.310  
  22052764.38907 117926085.06107      2872.87107        44.051    22052768.49105
  91720339.49905      2234.45705        40.539  
  19496665.97609 104111137.72709      1428.22309        49.823    19496671.30208
  80975390.40908      1110.83608        45.815  
  24625675.39446 131823170.22756      2410.53946        42.522  

  21680285.58708 115730831.69908     -3288.68808        47.352    21680292.10207
  90012896.25307     -2557.87107        44.033  
  19442324.22708 104003356.60908      -271.86708        47.278    19442326.83406
  80891522.76806      -211.45306        41.861  
 09 07 27 08 18  0.0000000  0 16G13G25G07G16G11G06G31G21G03G23G19R24            
                                R13R07R22R23                                    
  23264191.41648 122254169.23648     -1307.13748        46.966    23264191.47142
  95262980.56242     -1018.55142        33.971  
  21739185.77249 114240211.23749      1834.80549        50.153    21739184.69846
  89018367.95146      1429.71546        42.271  
  23058711.87948 121174363.76448      3051.06648        47.280    23058712.41545
  94421587.30345      2377.45345        41.088  
  21619130.80149 105588126.62949     -1389.56649        49.993    21619130.30446
  82254081.79646     -1082.78146        42.446  
  25192650.62845 132388277.26545      3823.87545        41.016    25192652.99441
 103159711.93041      2979.64141        31.794  
  20584300.69549 100150068.74549     -1139.74249        51.170    20584300.42048
  78016645.95448      -888.10948        46.283  
  24842584.55548 122527458.44748     -3617.05148        47.507    24842585.29745
  95453555.15645     -2818.48445        41.093  
  24868726.13346 122664872.88746     -2485.07846        42.689    24868725.43143
  95560640.52543     -1936.43043        35.074  
  19910634.47149  96609936.62749      -280.13349        51.609    19910633.69148
  75258104.65748      -218.28548        46.231  
  23609468.23949 116047401.46749     -2671.00449        48.151    23609466.36345
  90404155.13345     -2081.30545        39.299  
  20706385.03649 108812838.48449      1176.98049        49.801    20706382.93948
  84789235.93548       917.12948        46.962  
  22036680.85607 117840081.58607      2860.56207        45.141    22036685.62505
  91653447.98205      2224.88305        40.341  
  19488704.78109 104068625.28209      1405.70309        49.660    19488710.34608
  80942325.18008      1093.31608        45.963  
  24612193.07104 131750994.20604      2400.58604        37.237    24612193.09501
 102473095.09911      1867.11701        31.545  
  21698776.74108 115829537.50808     -3292.01608        47.592    21698782.73907
  90089667.41907     -2560.46107        44.149  
  19443895.51908 104011763.00908      -288.93808        47.502    19443898.18306
  80898061.08606      -224.73406        42.002  
 09 07 27 08 18 30.0000000  0 16G13G25G07G16G11G06G31G21G03G23G19R24            
                                R13R07R22R23                                    
  23271698.20248 122293617.71148     -1322.88348        46.615    23271697.94643
  95293719.59043     -1030.81643        34.950  
  21728752.81249 114185384.11649      1820.07049        50.198    21728751.44946
  88975645.51846      1418.23446        42.458  
  23041321.54048 121082976.65948      3041.30148        47.063    23041321.98745
  94350376.60345      2369.84045        41.095  
  21627082.70849 105629912.71949     -1396.36349        50.068    21627081.86446
  82286642.37646     -1088.07846        43.089  
  25170816.23845 132273538.36245      3824.71545        40.946    25170819.68943
 103070305.16843      2980.15643        34.941  
  20590834.33249 100184402.66549     -1149.47749        51.146    20590833.96548
  78043399.65348      -895.69948        46.408  
  24863241.11148 122636009.21948     -3620.01248        46.421    24863241.79445
  95538140.20045     -2820.78945        39.809  
  24882941.71746 122739576.71446     -2495.31246        42.825    24882941.13243
  95618851.14543     -1944.41043        34.750  
  19912270.31049  96618533.03449      -293.31649        51.325    19912269.58148
  75264803.15748      -228.56248        46.421  
  23624732.39249 116127614.11849     -2676.71949        48.387    23624730.29845
  90466658.48545     -2085.75445        38.907  
  20699704.69849 108777732.78549      1163.01649        50.020    20699702.65348
  84761880.85848       906.24648        46.739  
  22020668.30707 117754454.32907      2847.69907        45.036    22020673.10005
  91586849.04605      2214.87905        40.094  
  19480871.75909 104026796.91509      1382.66809        49.642    19480877.42908
  80909792.01108      1075.41008        45.850  
  24598768.97804 131679134.19104      2389.83604        37.409    24598769.27202
 102417204.09502      1858.77302        32.295  
  21717287.16808 115928346.19208     -3295.57008        47.098    21717292.77907
  90166518.59607     -2563.22707        43.818  
  19445563.53909 104020685.96609      -306.25809        47.839    19445566.22606
  80905001.16106      -238.20306        41.864  
 09 07 27 08 19  0.0000000  0 16G13G25G07G16G11G06G31G21G03G23G19R24            
                                R13R07R22R23                                    
  23279296.01148 122333543.94548     -1339.07048        46.698    23279295.61542
  95324830.92042     -1043.43442        34.050  
  21718402.84649 114130995.28349      1805.57449        49.838    21718401.76646
  88933264.62646      1406.93846        42.411  
  23023986.31048 120991879.59048      3031.61348        46.397    23023986.78846
  94279391.89346      2362.29346        41.553  
  21635072.86049 105671900.26349     -1403.13749        49.946    21635071.59046
  82319359.93346     -1093.35546        42.357  
  25148977.35444 132158776.14744      3825.54344        38.506    25148981.08644
 102980880.23244      2980.94944        36.887  
  20597422.68249 100219024.71649     -1158.90249        51.218    20597422.24248
  78070377.87148      -903.03948        46.465  
  24883912.87848 122744640.74448     -3622.39148        46.246    24883913.50745
  95622788.10045     -2822.64845        39.402  
  24897214.46446 122814581.32946     -2505.49246        42.108    24897213.84041
  95677296.29541     -1952.32841        30.819  
  19913981.00749  96627522.76249      -306.19149        51.630    19913980.37348
  75271808.14248      -238.59048        46.235  
  23640028.33248 116207995.49848     -2682.23048        47.379    23640026.59644
  90529293.27044     -2090.05544        38.345  
  20693103.69249 108743044.20549      1149.27749        50.000    20693101.49848
  84734850.80948       895.53948        46.596  
  22004727.16707 117669210.04207      2835.21907        45.178    22004732.15005
  91520547.97605      2205.17205        39.449  
  19473168.50309 103985661.49409      1359.61709        49.708    19473174.07608
  80877797.79808      1057.47708        45.833  
  24585404.99503 131607598.11003      2378.82003        35.313    24585406.18201
 102361564.62901      1850.19101        31.106  
  21735817.37108 116027260.84108     -3298.95708        47.166    21735822.78707
  90243452.17707     -2565.85907        43.350  
  19447329.03208 104030129.37908      -323.34408        47.526    19447331.49606
  80912346.04606      -251.49206        41.819  
 09 07 27 08 19 30.0000000  0 16G13G25G07G16G11G06G31G21G03G23G19R24            
                                R13R07R22R23                                    
  23286982.33947 122373936.97047     -1354.33647        44.596    23286981.97743
  95356305.99543     -1055.33243        35.530  
  21708134.85549 114077038.41249      1791.22749        49.776    21708134.14746
  88891220.31846      1395.76246        42.853  
  23006705.10847 120901066.89447      3022.07447        45.388    23006705.64346
  94208628.76146      2354.85946        41.627  
  21643099.83949 105714081.32449     -1409.33649        49.870    21643098.36046
  82352228.28046     -1098.18846        42.893  
  25127132.89444 132043984.53044      3826.62144        38.797    25127136.53342
 102891432.33942      2981.78142        32.256  
  20604063.98449 100253924.96849     -1168.13349        51.069    20604063.48848
  78097572.87248      -910.23848        46.637  
  24904598.05047 122853342.78147     -3624.70347        45.024    24904598.64345
  95707490.89745     -2824.44945        39.211  
  24911542.43547 122889876.00247     -2514.81647        43.587    24911541.89642
  95735967.79542     -1959.59842        32.941  
  19915764.86449  96636896.58249      -319.04749        51.525    19915764.14048
  75279112.42448      -248.61348        46.325  
  23655354.17748 116288534.43348     -2687.35948        47.407    23655352.91444
  90592050.81244     -2094.05144        37.609  
  20686580.43349 108708764.20149      1135.74649        49.854    20686578.00248
  84708139.12648       884.99648        46.947  
  21988856.23707 117584341.30007      2822.56207        44.917    21988860.76005
  91454538.97105      2195.32805        39.518  
  19465594.05709 103945213.47909      1336.64109        49.963    19465599.32008
  80846338.22108      1039.60508        45.890  
  24572101.72706 131536383.72406      2368.17606        41.561    24572102.70503
 102306175.94103      1841.91003        34.621  
  21754365.09508 116126270.23608     -3302.01608        47.272    21754370.52106
  90320459.46506     -2568.23806        43.222  
  19449189.65908 104040083.06408      -340.44908        47.652    19449192.24206
  80920087.81106      -264.79306        42.095  
 09 07 27 08 20  0.0000000  0 16G13G25G07G16G11G06G31G21G03G23G19R24            
                                R13R07R22R23                                    
  23294757.79047 122414798.44247     -1369.98447        44.987    23294757.70043
  95388146.07743     -1067.52743        35.040  
  21697950.27249 114023519.52449      1776.53549        49.819    21697949.65446
  88849517.29046      1384.31246        42.660  
  22989479.47548 120810545.53548      3012.44548        46.631    22989480.00845
  94138092.64545      2347.35545        40.963  
  21651164.12549 105756460.22449     -1416.04349        49.377    21651162.90446
  82385250.77446     -1103.41446        43.175  
  25105283.95844 131929169.69144      3827.78144        38.310    25105287.90442
 102801966.34042      2982.68442        32.810  
  20610758.66349 100289105.95349     -1177.45749        51.080    20610758.26948
  78124986.62448      -917.50448        46.289  
  24925297.12447 122962116.94247     -3627.08647        44.823    24925297.94344
  95792249.85644     -2826.29744        38.554  
  24925925.96346 122965462.07546     -2524.26646        41.335    24925925.36842
  95794865.98642     -1966.89842        34.154  
  19917622.07049  96646657.05749      -331.86349        51.307    19917621.56748
  75286717.98848      -258.59448        46.202  
  23670710.45848 116369231.03148     -2692.60248        46.719    23670708.91544
  90654931.21844     -2098.13744        37.101  
  20680135.56549 108674896.41249      1121.93449        49.923    20680133.31448
  84681748.65848       874.23448        46.826  
  21973055.79707 117499852.93907      2809.96907        43.672    21973060.41505
  91388825.89505      2185.53505        38.997  
  19458149.38809 103905459.31009      1313.53109        49.846    19458154.61508
  80815418.30908      1021.63308        45.673  
  24558859.82504 131465497.84504      2357.35504        38.386    24558860.85403
 102251042.48203      1833.50803        34.980  
  21772930.78708 116225375.84008     -3305.11708        47.254    21772936.14906
  90397541.54906     -2570.65206        43.010  
  19451145.99609 104050548.81809      -357.50009        47.991    19451148.73106
  80928227.85506      -278.05506        41.984  
 09 07 27 08 20 30.0000000  0 16G13G25G07G16G11G06G31G21G03G23G19R24            
                                R13R07R22R23                                    
  23302621.85047 122456124.58447     -1385.10247        45.209    23302622.09943
  95420348.22543     -1079.30943        36.175  
  21687849.18849 113970438.96949      1762.09049        49.932    21687848.75446
  88808155.81146      1373.05546        42.914  
  22972309.74948 120720316.72248      3002.71548        46.062    22972309.81646
  94067784.49746      2339.77746        41.799  
  21659265.70349 105799035.66849     -1422.33249        49.475    21659264.95546
  82418426.42346     -1108.31646        42.391  
  25083430.59443 131814332.25143      3828.30143        36.500    25083434.33241
 102712482.80541      2983.09841        29.427  
  20617506.18349 100324564.42649     -1186.47349        51.164    20617505.79448
  78152616.60748      -924.52348        46.665  
  24946009.45847 123070959.88347     -3629.10947        43.991    24946010.36244
  95877062.56444     -2827.88344        36.901  
  24940364.36846 123041336.38746     -2533.98046        42.542    24940363.76942
  95853988.76142     -1974.53542        32.723  
  19919552.24049  96656801.05749      -344.42649        51.522    19919551.94448
  75294622.40248      -268.38748        46.638  
  23686095.47748 116450080.54748     -2697.34448        46.099    23686093.58343
  90717930.75643     -2101.83643        35.017  
  20673768.74649 108641438.60249      1108.55949        50.137    20673766.59948
  84655677.65448       863.80948        46.951  
  21957327.15807 117415744.50907      2797.33607        45.375    21957331.65605
  91323408.23805      2175.79305        39.334  
  19450834.70109 103866400.40309      1290.50809        49.566    19450839.96707
  80785039.15807      1003.72707        45.494  
  24545679.55704 131394943.13704      2346.63704        38.778    24545680.82601
 102196166.64901      1825.16801        31.921  
  21791513.88409 116324573.35009     -3308.05509        47.843    21791519.13006
  90474695.14206     -2572.93406        42.780  
  19453197.63609 104061522.81909      -374.20309        48.122    19453200.29706
  80936763.20406      -291.04706        41.741  
 09 07 27 08 21  0.0000000  0 16G13G25G07G16G11G06G31G21G03G23G19R24            
                                R13R07R22R23                                    
  23310574.83248 122497915.59948     -1400.30948        46.208    23310574.75643
  95452912.64443     -1091.14843        35.053  
  21677832.67849 113917801.54249      1747.23049        50.031    21677832.49246
  88767139.63146      1361.47346        42.650  
  22955196.68048 120630385.63848      2992.85248        46.602    22955196.29645
  93997708.34445      2332.09445        40.631  
  21667405.63249 105841810.89049     -1429.16049        49.517    21667404.74546
  82451757.76246     -1113.63746        41.977  
  25061574.00344 131699477.24544      3828.71144        37.419    25061578.15942
 102622985.50042      2983.41042        33.947  
  20624306.86549 100360301.65849     -1195.77349        51.326    20624306.40948
  78180463.79848      -931.77348        46.278  
  24966734.84347 123179872.17347     -3631.50047        44.444    24966735.87743
  95961929.26143     -2829.74243        36.652  
  24954857.66246 123117499.64446     -2543.73046        41.908    24954856.95143
  95913336.73343     -1982.13343        35.935  
  19921555.90749  96667330.73349      -357.30549        51.404    19921555.58148
  75302827.35548      -278.41848        46.186  
  23701509.73648 116531082.87348     -2702.59448        46.693    23701507.74842
  90781049.41842     -2105.92242        33.493  
  20667480.59749 108608393.44249      1094.67249        50.179    20667478.16148
  84629928.19848       852.99248        47.012  
  21941670.70507 117332019.32307      2784.63707        44.602    21941674.99405
  91258288.70305      2165.82805        40.204  
  19443651.35409 103828042.35309      1266.98009        49.422    19443656.18307
  80755205.11407       985.42607        45.466  
  24532562.27405 131324724.85105      2334.70705        39.933    24532562.91903
 102141552.46003      1815.87903        34.564  
  21810114.31908 116423862.67208     -3311.10208        47.219    21810119.54406
  90551920.16606     -2575.30506        42.580  
  19455344.28809 104073006.10609      -391.03109        47.782    19455346.72706
  80945694.65806      -304.13706        41.837  
 09 07 27 08 21 30.0000000  0 16G13G25G07G16G11G06G31G21G03G23G19R24            
                                R13R07R22R23                                    
  23318615.25048 122540165.88048     -1415.92648        45.889    23318614.33343
  95485834.92843     -1103.32443        34.931  
  21667900.33549 113865606.17149      1732.63349        50.160    21667900.28146
  88726467.91446      1350.10246        43.234  
  22938140.09348 120540751.94748      2983.27048        45.728    22938139.42245
  93927863.92445      2324.62545        40.735  
  21675583.15249 105884782.89449     -1435.43449        49.958    21675581.98446
  82485242.42546     -1118.52346        42.407  
  25039714.28045 131584603.61245      3829.32045        38.969    25039718.06141
 102533473.69341      2983.95341        28.722  
  20631159.68749 100396312.91149     -1204.73849        51.394    20631159.23748
  78208524.51348      -938.76248        46.083  
  24987472.33647 123288848.20947     -3633.35247        44.222    24987473.62944
  96046845.51644     -2831.18844        36.698  
  24969404.86646 123193946.68746     -2552.60946        41.605    24969404.72742
  95972905.83342     -1989.05142        33.903  
  19923632.07949  96678241.60749      -369.80149        51.348    19923631.67948
  75311329.33548      -288.16048        46.031  
  23716951.62948 116612231.47548     -2707.12948        45.923    23716949.67743
  90844282.06643     -2109.45343        35.061  
  20661270.28849 108575757.64849      1081.29749        50.334    20661267.77648
  84604497.71748       842.56648        47.181  
  21926085.09408 117248675.66908      2772.02308        45.784    21926089.60105
  91193465.89205      2156.02005        40.009  
  19436599.22209 103790384.51409      1243.69109        49.659    19436603.93008
  80725915.69308       967.31608        45.569  
  24519508.29303 131254845.26803      2323.40203        35.814    24519508.99201
 102087201.68701      1807.09801        31.131  
  21828730.53208 116523238.11408     -3313.66408        46.651    21828736.07806
  90629212.14506     -2577.29706        42.588  
  19457585.03008 104084993.02208      -407.68008        47.557    19457587.49806
  80955017.81706      -317.09006        41.746  
 09 07 27 08 22  0.0000000  0 16G13G25G07G16G11G06G31G21G03G23G19R24            
                                R13R07R22R23                                    
  23326742.41847 122582874.42047     -1431.02347        45.404    23326741.54143
  95519114.29143     -1115.08643        35.904  
  21658052.55049 113813855.87549      1717.71949        49.917    21658052.47247
  88686143.01747      1338.48047        43.425  
  22921140.85248 120451419.61648      2972.73448        47.003    22921139.96945
  93858254.33245      2316.41845        40.200  
  21683798.55649 105927953.27749     -1442.15649        50.013    21683797.29746
  82518881.67946     -1123.76246        41.992  
  25017851.98145 131469714.77545      3830.03145        40.586    25017855.02042
 102443950.06242      2984.44142        33.796  
  20638064.53249 100432597.63749     -1214.00449        51.367    20638064.15748
  78236798.32048      -945.98048        46.454  
  25008222.00848 123397887.55248     -3635.60248        45.756    25008223.20644
  96131811.20144     -2832.94144        36.765  
  24984005.96746 123270676.34446     -2562.58246        42.613    24984005.92343
  96032695.15943     -1996.77743        34.899  
  19925780.84349  96689533.51849      -382.57049        51.532    19925780.28248
  75320128.21748      -298.10948        46.137  
  23732420.53248 116693524.07048     -2712.07848        45.916    23732419.31143
  90907626.88043     -2113.31243        35.245  
  20655138.08849 108543531.92549      1067.44949        50.433    20655135.36848
  84579386.78548       831.77748        46.974  
  21910571.23507 117165715.31807      2759.19507        45.344    21910575.48005
  91128941.20105      2146.03905        39.970  
  19429679.05909 103753430.90109      1220.10909        49.870    19429684.09608
  80697173.99308       948.97308        45.890  
  24506518.30106 131185309.57406      2312.28506        41.260    24506519.30304
 102033118.33804      1798.44504        37.539  
  21847362.63808 116622698.51708     -3316.67608        46.297    21847368.55206
  90706570.19306     -2579.64106        43.309  
  19459919.73309 104097482.95409      -424.64809        48.095    19459922.39006
  80964732.22506      -330.28506        41.688  
 09 07 27 08 22 30.0000000  0 16G13G25G07G16G11G06G31G21G03G23G19R24            
                                R13R07R22R23                                    
  23334956.43848 122626039.78748     -1446.39148        46.153    23334956.03143
  95552749.62843     -1127.05943        35.619  
  21648289.89049 113762553.89049      1702.64549        49.654    21648290.03147
  88646167.46147      1326.73047        43.704  
  22904199.89448 120362392.83248      2962.37548        47.195    22904198.81345
  93788882.83045      2308.34445        41.105  
  21692051.87749 105971323.75249     -1448.93849        49.818    21692050.19946
  82552676.83346     -1129.04746        42.109  
  24995987.53345 131354814.15045      3830.29345        41.037    24995989.55442
 102354417.19542      2984.64842        33.269  
  20645021.36949 100469155.86749     -1223.06249        51.293    20645020.99948
  78265285.25148      -953.03948        46.545  
  25028983.56147 123506989.14647     -3637.56247        45.313    25028984.56844
  96216825.48444     -2834.47344        38.062  
  24998660.76446 123347688.40746     -2571.75846        42.305    24998660.44643
  96092704.55643     -2003.96943        35.822  
  19928002.17349  96701206.09049      -395.43449        51.407    19928001.41148
  75329223.73848      -308.12948        46.410  
  23747917.36848 116774958.94048     -2716.74648        46.675    23747916.07544
  90971082.55844     -2116.94944        37.166  
  20649083.99449 108511717.14549      1053.70349        50.219    20649081.11348
  84554596.05548       821.06648        46.901  
  21895129.42907 117083140.48207      2746.14107        45.554    21895133.79705
  91064716.37505      2135.88705        40.162  
  19422891.65209 103717185.66809      1196.39809        49.788    19422896.63607
  80668983.25207       930.52707        45.552  
  24493593.31905 131116121.15405      2300.85905        40.769    24493593.70702
 101979305.07102      1789.55902        33.838  
  21866010.64908 116722242.36108     -3319.37908        47.001    21866016.49506
  90783993.15806     -2581.74206        42.758  
  19462348.45209 104110475.07209      -441.23409        48.080    19462351.14806
  80974837.21906      -343.18806        41.679  
 09 07 27 08 23  0.0000000  0 16G13G25G07G16G11G06G31G21G03G23G19R24            
                                R13R07R22R23                                    
  23343256.59948 122669657.14648     -1461.59848        46.570    23343256.46144
  95586737.15744     -1138.90644        37.262  
  21638612.67149 113711699.74149      1687.47349        49.929    21638612.81347
  88606540.85847      1314.91447        43.713  
  22887317.08748 120273671.75248      2952.03948        47.151    22887315.82446
  93719749.53746      2300.28946        41.224  
  21700342.60349 106014892.15049     -1455.86749        49.383    21700340.85546
  82586626.22346     -1134.44146        42.299  
  24974120.89545 131239901.35045      3830.14845        40.196    24974122.68241
 102264874.85841      2984.53141        29.942  
  20652029.31349 100505983.22249     -1232.20349        51.138    20652028.94948
  78293981.88648      -960.16448        46.539  
  25049755.86648 123616148.21848     -3639.83248        45.608    25049756.89944
  96301884.47444     -2836.23044        38.207  
  25013368.49146 123424978.15546     -2581.25046        41.946    25013368.32842
  96152930.27442     -2011.35242        34.411  
  19930295.11749  96713256.13249      -408.10249        51.292    19930294.42848
  75338613.37848      -318.00448        46.344  
  23763440.00247 116856530.25747     -2721.32047        45.183    23763438.50344
  91034644.54844     -2120.51244        37.594  
  20643107.43149 108480310.43849      1039.93849        50.172    20643104.46948
  84530123.31748       810.34048        46.833  
  21879759.24407 117000949.27607      2732.92607        45.408    21879763.51905
  91000789.91505      2125.60905        39.081  
  19416236.83909 103681648.82909      1172.47309        49.703    19416241.68908
  80641343.49208       911.91808        45.745  
  24480733.76904 131047283.98404      2288.23004        36.858    24480734.40601
 101925765.17001      1779.73801        29.658  
  21884673.43808 116821864.48108     -3322.31208        46.496    21884678.74006
  90861477.00206     -2584.02306        42.796  
  19464870.19609 104123964.40209      -458.18409        47.993    19464872.70706
  80985328.92206      -356.36706        41.647  
 09 07 27 08 23 30.0000000  0 16G13G25G07G16G11G06G31G21G03G23G19R24            
                                R13R07R22R23                                    
  23351643.05548 122713726.51148     -1476.67248        46.969    23351642.89943
  95621076.88643     -1150.65243        36.117  
  21629021.63449 113661297.82849      1672.28949        50.073    21629021.53447
  88567266.64247      1303.07847        43.578  
  22870493.24248 120185261.42648      2941.61348        47.296    22870491.91045
  93650858.40345      2292.16845        40.430  
  21708671.28949 106058661.07049     -1462.53149        49.429    21708669.65046
  82620731.84746     -1139.63746        42.036  
  24952252.68946 131124981.14746      3830.45746        42.901    24952253.78041
 102175326.74141      2984.77041        31.491  
  20659088.72549 100543080.73649     -1241.28549        51.300    20659088.24348
  78322889.04448      -967.23848        46.380  
  25070538.98547 123725365.11347     -3641.62147        45.048    25070540.21143
  96386988.45943     -2837.62543        36.099  
  25028129.27346 123502545.77546     -2590.35546        42.768    25028128.90641
  96213372.51841     -2018.46541        31.416  
  19932660.07849  96725684.77049      -420.76249        51.233    19932659.68248
  75348298.03948      -327.86748        46.437  
  23778988.24548 116938237.18348     -2725.98048        46.451    23778987.03444
  91098312.21844     -2124.14544        36.712  
  20637209.01849 108449313.84249      1026.19149        50.473    20637205.95648
  84505970.13748       799.62948        46.785  
  21864461.17307 116919145.12607      2720.27307        44.784    21864465.22605
  90937164.49905      2115.77005        39.221  
  19409715.57509 103646825.15509      1148.64509        49.736    19409720.40407
  80614258.41307       893.39107        45.511  
  24467940.53905 130978802.53205      2276.73805        39.901    24467941.74602
 101872501.78402      1770.79302        32.979  
  21903350.80108 116921564.72708     -3324.82408        46.769    21903356.01006
  90939021.61206     -2585.97706        42.950  
  19467484.87309 104137951.50909      -474.65209        48.162    19467487.22606
  80996207.78406      -369.17606        41.491  
 09 07 27 08 24  0.0000000  0 16G13G25G07G16G11G06G31G21G03G23G19R24            
                                R13R07R22R23                                    
  23360114.81848 122758244.73148     -1491.32848        46.568    23360114.52443
  95655766.36143     -1162.07843        35.929  
  21619516.82849 113611349.29649      1657.64849        49.989    21619516.60147
  88528345.71047      1291.67647        43.937  
  22853728.87748 120097164.33848      2931.54348        46.963    22853727.44145
  93582211.32745      2284.32045        40.445  
  21717038.28549 106102630.40249     -1468.69949        49.334    21717036.76046
  82654993.65646     -1144.44546        41.993  
  24930383.26846 131010055.28246      3831.20346        41.478    24930384.10843
 102085774.25143      2985.35543        35.885  
  20666199.19949 100580446.25349     -1249.67649        51.221    20666198.58248
  78352005.03348      -973.77748        46.327  
  25091332.70748 123834637.33048     -3643.00448        45.679    25091333.90244
  96472135.60844     -2838.70344        37.258  
  25042942.47446 123580388.61446     -2598.78946        42.042    25042941.36841
  96274029.28541     -2024.93841        28.535  
  19935096.64449  96738489.73749      -432.86749        51.249    19935096.66748
  75358275.94448      -337.30148        45.837  
  23794562.10048 117020076.01448     -2729.79748        46.769    23794560.81543
  91162082.68743     -2127.11743        36.191  
  20631388.42749 108418726.32749      1012.94549        50.239    20631385.54248
  84482135.71648       789.30948        47.014  
  21849235.91108 116837728.08708      2707.58608        45.711    21849239.99005
  90873840.17405      2105.89805        39.902  
  19403328.43709 103612716.98909      1125.28909        49.994    19403332.92508
  80587729.83608       875.22308        45.680  
  24455214.97305 130910680.68805      2265.19505        39.423    24455215.99002
 101819518.12602      1761.81602        33.315  
  21922041.88208 117021339.83508     -3326.84408        46.840    21922047.61607
  91016624.45907     -2587.55107        43.479  
  19470192.11609 104152433.51909      -490.76609        47.885    19470194.27306
  81007471.57506      -381.70706        41.477  
 09 07 27 08 24 30.0000000  0 16G13G25G07G16G11G06G31G21G03G23G19R24            
                                R13R07R22R23                                    
  23368670.91448 122803207.16048     -1506.20748        46.526    23368670.55243
  95690801.98943     -1173.67243        36.297  
  21610098.17149 113561854.13949      1642.05949        49.849    21610097.87347
  88489778.05047      1279.52347        43.399  
  22837024.12548 120009381.11548      2920.70348        46.561    22837022.61045
  93513808.82445      2275.87145        40.878  
  21725443.06649 106146798.65249     -1475.61349        49.500    21725441.65845
  82689410.45845     -1149.82845        41.007  
  24908512.60446 130895123.89946      3831.28146        43.140    24908513.52842
 101996217.42342      2985.41442        32.507  
  20673359.93049 100618076.12449     -1258.78949        51.247    20673359.39448
  78381327.00448      -980.87948        45.711  
  25112136.30747 123943959.98447     -3644.98847        44.772    25112137.24443
  96557321.85343     -2840.26243        35.468  
  25057807.34046 123658502.78246     -2608.32846        43.178    25057805.79742
  96334897.46342     -2032.46542        32.887  
  19937604.46049  96751668.26549      -445.65249        51.438    19937604.61848
  75368544.92548      -347.26248        46.091  
  23810159.53348 117102041.50648     -2734.37148        45.941    23810158.20744
  91225951.83044     -2130.68844        36.856  
  20625644.95149 108388545.55149       999.18449        50.202    20625642.39348
  84458618.25348       778.58648        46.606  
  21834083.19007 116756697.13307      2694.58207        45.461    21834086.94705
  90810816.13905      2095.78505        38.999  
  19397075.33009 103579324.74609      1101.00409        49.823    19397079.53907
  80561758.07907       856.33207        45.357  
  24442556.58304 130842920.19204      2252.77304        38.325    24442557.63101
 101766815.54501      1752.15601        31.671  
  21940746.24108 117121185.34808     -3329.40208        46.899    21940752.28706
  91094282.06006     -2589.53906        43.325  
  19472991.18009 104167406.14909      -507.34809        47.844    19472993.07205
  81019116.94705      -394.60905        40.969  
 09 07 27 08 25  0.0000000  0 16G13G25G07G16G11G06G31G21G03G23G19R24            
                                R13R07R22R23                                    
  23377311.97948 122848615.91348     -1521.69948        46.778    23377311.65543
  95726185.40843     -1185.74243        34.999  
  21600766.91849 113512818.74249      1626.15649        50.051    21600766.58246
  88451568.65946      1267.13346        43.319  
  22820380.28248 119921918.89548      2909.34048        46.516    22820378.87646
  93445656.46146      2267.02046        41.243  
  21733886.74049 106191170.17149     -1483.25849        49.617    21733885.17045
  82723985.65945     -1155.78545        41.094  
  24886642.03546 130780193.72046      3829.96946        41.307    24886643.55343
 101906661.58043      2984.39543        34.879  
  20680571.46349 100655973.18849     -1268.44549        51.350    20680571.05648
  78410857.18548      -988.39848        46.019  
  25132950.12947 124053336.46547     -3647.51647        44.341    25132950.88442
  96642550.18342     -2842.22742        33.238  
  25072724.29746 123736890.97446     -2617.96146        41.959    25072723.25942
  96395979.09542     -2039.97342        33.383  
  19940184.05449  96765223.29749      -458.72749        51.604    19940183.88948
  75379107.28648      -357.44948        46.088  
  23825781.15048 117184134.65748     -2739.35948        46.234    23825780.23143
  91289920.47343     -2134.56643        34.894  
  20619979.87649 108358775.40349       984.69549        50.530    20619977.37548
  84435420.74748       767.29748        46.625  
  21819003.19508 116676057.49608      2680.76208        45.883    21819006.65804
  90748096.45004      2085.03104        38.869  
  19390957.41509 103546655.44609      1076.27009        49.822    19390961.63808
  80536348.61608       837.09408        45.773  
  24429967.85104 130775530.38704      2239.02704        38.884    24429968.45501
 101714401.27401      1741.46501        31.609  
  21959464.39808 117221103.24008     -3332.49208        47.048    21959470.37506
  91171995.96606     -2591.94106        43.234  
  19475882.36009 104182871.98309      -524.29309        48.313    19475884.47006
