     2.11           OBSERVATION DATA    M (MIXED)           RINEX VERSION / TYPE
teqc  2007Jun25                         20070904 04:19:58UTCPGM / RUN BY / DATE
MSXP|IAx86-PII|bcc32 5.0|MSWin95->XP|486/DX+                COMMENT
-Unknown-                                                   MARKER NAME
-Unknown-           -Unknown-                               OBSERVER / AGENCY
-Unknown-           U-BLOX              -Unknown-           REC # / TYPE / VERS
-Unknown-           -Unknown-                               ANT # / TYPE
        0.0000        0.0000        0.0000                  APPROX POSITION XYZ
        0.0000        0.0000        0.0000                  ANTENNA: DELTA H/E/N
     1     0                                                WAVELENGTH FACT L1/2
     4    L1    C1    S1    D1                              # / TYPES OF OBSERV
 SNR is mapped to RINEX snr flag value [0-9]                COMMENT
  L1 & L2: min(max(int(snr_dBHz/6), 0), 9)                  COMMENT
  2007     8    29    13    49   26.0010000     GPS         TIME OF FIRST OBS
    14                                                      LEAP SECONDS
                                                            END OF HEADER
 07  8 29 13 49 26.0010000  0  9G20G28G17G11G 4G13G23S29S37
 113669448.350 8  21630579.676          50.000       -2822.539
 116721517.432 8  22211368.431          50.000       -3424.329
 112280742.947 8  21366318.570          48.000         204.899
 124021751.955 7  23600558.329          43.000       -3657.330
 122114131.989 8  23237548.401          49.000         808.599
 132767315.762 7  25264791.530          42.000        1942.709
 127253929.063 8  24215616.549          49.000        1231.246
 199139795.386 7  37895050.042          42.000       -1266.176
 199446665.130 7  37953444.719          43.000       -1263.371
 07  8 29 13 49 27.0010000  0  9G20G28G17G11G 4G13G23S29S37
 113672271.271 8  21631116.864          50.000       -2823.162
 116724942.199 8  22212020.249          50.000       -3425.177
 112280538.253 8  21366279.569          48.000         204.274
 124025409.122 7  23601254.488          43.000       -3657.005
 122113323.731 8  23237394.194          48.000         807.995
 132765372.779 7  25264421.498          42.000        1942.723
 127252698.447 8  24215382.733          49.000        1230.592
 199141061.930 7  37895291.047          42.000       -1266.213
 199447929.058 7  37953685.339          43.000       -1264.103
 07  8 29 13 49 28.0010000  0  9G20G28G17G11G 4G13G23S29S37
 113675094.634 8  21631654.173          50.000       -2823.442
 116728367.125 8  22212672.538          50.000       -3424.230
 112280333.817 8  21366240.550          48.000         204.547
 124029066.272 7  23601950.612          44.000       -3656.920
 122112515.456 8  23237240.248          48.000         808.693
 132763429.362 7  25264052.078          42.000        1944.160
 127251467.803 8  24215148.709          49.000        1231.036
 199142328.116 7  37895531.930          43.000       -1265.006
 199449192.732 7  37953925.733          45.000       -1264.332
 07  8 29 13 49 29.0010000  0  9G20G28G17G11G 4G13G23S29S37
 113677919.566 8  21632191.709          49.000       -2825.971
 116731791.285 8  22213323.624          50.000       -3422.222
 112280130.736 8  21366202.106          49.000         201.746
 124032724.370 7  23602647.259          43.000       -3659.125
 122111707.534 8  23237086.546          48.000         808.452
 132761484.187 7  25263682.710          43.000        1948.053
 127250236.635 8  24214914.510          50.000        1232.250
 199143593.157 6  37895772.848          41.000       -1264.461
 199450455.151 7  37954165.973          42.000       -1259.277
 07  8 29 13 49 30.0010000  0  9G20G28G17G11G 4G13G23S29S37
 113680746.911 8  21632729.541          49.000       -2827.524
 116735212.565 8  22213974.430          49.000       -3421.464
 112279929.919 8  21366163.942          49.000         200.978
 124036384.517 7  23603344.325          46.000       -3660.649
 122110899.678 8  23236932.408          48.000         807.710
 132759534.556 6  25263312.383          41.000        1951.504
 127249003.435 8  24214679.805          50.000        1233.070
 199144854.369 7  37896012.895          43.000       -1259.685
 199451714.149 7  37954405.565          44.000       -1257.357
 07  8 29 13 49 31.0010000  0  9G20G28G17G11G 4G13G23S29S37
 113683576.217 8  21633267.967          49.000       -2829.628
 116738632.137 8  22214624.888          49.000       -3418.297
 112279731.448 8  21366126.161          50.000         197.526
 124040045.848 8  23604041.303          48.000       -3661.545
 122110092.851 8  23236778.811          49.000         806.132
 132757580.832 6  25262940.399          39.000        1955.970
 127247768.147 8  24214444.455          49.000        1236.634
 199146112.667 7  37896252.296          42.000       -1256.852
 199452970.337 7  37954644.547          43.000       -1254.331
 07  8 29 13 49 32.0010000  0  9G20G28G17G11G 4G13G23S29S37
 113686405.941 8  21633806.220          49.000       -2828.119
 116742050.690 8  22215275.396          49.000       -3420.469
 112279534.768 8  21366088.608          50.000         195.559
 124043706.033 8  23604738.266          48.000       -3658.410
 122109288.014 8  23236625.876          49.000         804.302
 132755622.696 7  25262568.116          42.000        1957.982
 127246529.323 8  24214208.599          50.000        1239.216
 199147368.211 7  37896491.311          42.000       -1256.736
 199454223.579 7  37954883.179          42.000       -1253.930
 07  8 29 13 49 33.0010000  0  9G20G28G17G11G 4G13G23S29S37
 113689233.677 8  21634344.175          49.000       -2826.727
 116745471.215 8  22215926.359          50.000       -3422.734
 112279337.427 8  21366051.021          50.000         197.966
 124047363.018 8  23605434.705          49.000       -3657.680
 122108484.730 8  23236472.977          49.000         802.695
 132753664.445 6  25262195.100          39.000        1957.760
 127245289.194 8  24213972.131          48.000        1239.045
 199148624.118 7  37896730.502          42.000       -1255.631
 199455476.980 7  37955121.670          43.000       -1254.415
 07  8 29 13 49 34.0010000  0  9G20G28G17G11G 4G13G23S29S37
 113692060.295 8  21634882.026          50.000       -2826.831
 116748893.287 8  22216577.880          50.000       -3422.356
 112279140.185 8  21366013.537          50.000         196.930
 124051017.855 8  23606130.290          49.000       -3652.741
 122107683.533 8  23236320.182          48.000         799.910
 132751705.912 6  25261821.894          37.000        1961.030
 127244047.825 8  24213735.804          48.000        1243.353
 199149880.197 6  37896969.465          40.000       -1254.824
 199456729.935 6  37955360.006          41.000       -1252.093
 07  8 29 13 49 35.0010000  0  9G20G28G17G11G 4G13G23S29S37
 113694885.783 8  21635420.104          51.000       -2824.909
 116752316.242 8  22217229.122          49.000       -3423.277
 112278943.703 8  21365976.264          50.000         196.782
 124054669.877 8  23606824.896          49.000       -3651.199
 122106884.871 8  23236168.051          49.000         799.549
 132749744.647 5  25261448.547          35.000        1962.258
 127242803.321 8  24213498.482          49.000        1245.921
 199151135.476 7  37897208.324          43.000       -1254.895
 199457981.772 7  37955598.219          43.000       -1251.919
 07  8 29 13 49 36.0010000  0  9G20G28G17G11G 4G13G23S29S37
 113697711.008 8  21635958.077          51.000       -2825.496
 116755739.697 8  22217880.730          49.000       -3424.276
 112278746.902 8  21365938.711          50.000         197.681
 124058321.160 8  23607519.798          49.000       -3652.382
 122106086.258 8  23236015.745          49.000         799.996
 132747783.37135  25261074.780          34.000        1959.481
 127241559.005 6  24213261.471          41.000        1239.170
 199152390.172 7  37897447.025          42.000       -1256.458
 199459233.454 7  37955836.415          43.000       -1252.147
 07  8 29 13 49 37.0010000  0 10G20G28G17G11G 4G13G23G 1S29S37
 113700538.242 8  21636496.031          51.000       -2827.769
 116759162.431 8  22218531.676          50.000       -3421.792
 112278549.286 8  21365901.106          50.000         197.698
 124061975.639 8  23608215.398          49.000       -3656.121
 122105284.202 8  23235863.355          49.000         805.828
 132745824.65736  25260701.937          36.000        1957.017
 127240318.507 6  24213025.909          39.000        1236.273
                  26204384.089          26.000       -2555.196
 199153645.484 7  37897686.005          43.000       -1257.194
 199460486.349 7  37956074.836          43.000       -1254.278
 07  8 29 13 49 38.0010000  0 10G20G28G17G11G 4G13G23G 1S29S37
 113703367.311 8  21637034.265          51.000       -2829.064
 116762585.175 8  22219183.180          50.000       -3422.956
 112278350.600 8  21365863.502          51.000         200.171
 124065633.070 8  23608911.538          50.000       -3657.576
 122104478.566 8  23235710.125          49.000         807.656
 132743869.55025  25260330.144          33.000        1958.840
 127239082.48336  24212790.767          38.000        1234.040
                  26204872.329          24.000       -2553.638
 199154902.725 7  37897925.387          43.000       -1258.090
 199461741.529 7  37956313.484          43.000       -1256.936
 07  8 29 13 49 39.0010000  0 10G20G28G17G11G 4G13G23G 1S29S37
 113706197.245 8  21637572.621          50.000       -2830.442
 116766009.380 8  22219834.735          50.000       -3425.681
 112278150.984 8  21365825.722          52.000         200.178
 124069291.697 8  23609607.679          49.000       -3659.023
 122103671.068 8  23235556.686          50.000         807.819
 132741917.71626  25259959.184          37.000        1949.849
 127237849.37626  24212556.305          41.000        1231.757
                  26205359.961          23.000       -2546.386
 199156162.389 7  37898165.257          43.000       -1260.242
 199462999.017 7  37956552.761          43.000       -1258.240
 07  8 29 13 49 40.0010000  0 10G20G28G17G11G 4G13G23G 1S29S37
 113709029.068 8  21638111.308          50.000       -2834.033
 116769433.392 8  22220486.327          50.000       -3422.288
 112277952.024 8  21365787.907          51.000         198.365
 124072952.449 8  23610304.151          49.000       -3663.017
 122102862.644 8  23235403.020          49.000         811.240
 132739966.65826  25259588.751          36.000        1950.758
 127236618.09927  24212322.436          45.000        1230.560
                  26205844.830          26.000       -2553.131
 199157421.773 7  37898404.727          44.000       -1257.317
 199464256.655 7  37956792.178          42.000       -1258.185
 07  8 29 13 49 41.0010000  0 10G20G28G17G11G 4G13G23G 1S29S37
 113711864.808 8  21638650.990          50.000       -2837.888
 116772854.313 8  22221136.855          50.000       -3420.667
 112277753.278 8  21365750.301          50.000         198.082
 124076618.722 7  23611001.320          47.000       -3668.171
 122102049.825 8  23235248.116          48.000         814.277
 132738015.98635  25259218.386          32.000        1947.912
 127235390.27527  24212089.299          47.000        1224.387
                  26206333.787          24.000       -2548.248
 199158680.324 7  37898644.143          42.000       -1261.271
 199465513.752 7  37957031.368          43.000       -1259.296
 07  8 29 13 49 42.0010000  0 10G20G28G17G11G 4G13G23G 1S29S37
 113714704.569 8  21639190.950          49.000       -2842.206
 116776275.224 8  22221787.782          50.000       -3422.398
 112277553.271 8  21365711.737          50.000         200.921
 124080291.317 8  23611699.518          48.000       -3674.346
 122101230.798 8  23235091.695          48.000         822.484
                  25258849.032          28.000        1940.417
 127234170.87327  24211857.627          44.000        1215.131
                  26206824.117          24.000       -2556.863
 199159942.082 7  37898884.344          44.000       -1263.601
 199466774.711 7  37957271.255          43.000       -1263.368
 07  8 29 13 49 43.0010000  0 10G20G28G17G11G 4G13G23G 1S29S37
 113717546.957 8  21639731.872          50.000       -2842.328
 116779698.580 8  22222439.651          50.000       -3425.276
 112277350.796 8  21365673.173          50.000         203.405
 124083968.706 7  23612398.869          47.000       -3678.268
 122100405.783 8  23234934.016          49.000         826.442
                  25258481.444          25.000        1943.490
 127232961.07927  24211626.373          47.000        1206.057
                  26207312.213          26.000       -2566.286
 199161209.584 7  37899125.661          43.000       -1270.362
 199468041.921 7  37957512.413          43.000       -1273.379
 07  8 29 13 49 44.0010000  0 10G20G28G17G11G 4G13G23G 1S29S37
 113720389.566 8  21640273.056          50.000       -2842.158
                  22223091.506          44.000       -3420.766
 112277145.478 8  21365634.033          50.000         204.749
 124087647.471 8  23613099.128          48.000       -3680.682
 122099577.314 8  23234776.093          49.000         829.182
                  25258115.243          24.000        1921.662
 127231758.18028  24211396.412          48.000        1201.249
                  26207798.766          27.000       -2552.478
 199162482.276 7  37899367.990          42.000       -1275.968
 199469314.657 7  37957754.603          42.000       -1276.827
 07  8 29 13 49 45.0010000  0 10G20G28G17G11G 4G13G23G 1S29S37
 113723233.574 8  21640814.325          50.000       -2845.991
 116786553.58637  22223742.258          44.000       -3425.446
 112276939.269 8  21365594.822          50.000         204.004
 124091328.401 8  23613799.998          48.000       -3682.462
 122098746.069 8  23234617.995          49.000         832.306
                  25257747.295          22.000        1939.072
 127230559.06127  24211167.569          47.000        1198.756
                  26208287.141          25.000       -2563.195
 199163753.01435  37899609.382          35.000       -1267.407
                  37957996.628          35.000       -1257.526
 07  8 29 13 49 46.0010000  0  9G20G28G17G11G 4G23G 1S29S37
 113726080.556 8  21641355.980          49.000       -2845.610
                  22224394.512          48.000       -3424.346
 112276733.345 8  21365555.700          48.000         206.144
 124095013.473 8  23614501.007          49.000       -3686.359
 122097911.646 8  23234459.305          48.000         836.374
 127229362.53637  24210940.016          44.000        1192.365
                  26208776.886          26.000       -2552.000
 199165024.44836  37899850.699          40.000       -1271.178
                  37958235.975          38.000       -1256.108
 07  8 29 13 49 47.0010000  0  9G20G28G17G11G 4G23G 1S29S37
 113728931.54937  21641898.732          46.000       -2851.553
 116793404.49637  22225045.984          44.000       -3416.195
 112276528.221 8  21365516.628          49.000         204.076
 124098703.55437  23615203.237          45.000       -3690.128
 122097073.361 8  23234299.706          48.000         840.477
 127228168.45136  24210711.226          40.000        1191.639
                  26209264.235          24.000       -2551.946
 199166296.30336  37900091.984          40.000       -1270.358
 199473142.59236  37958476.991          40.000       -1273.552
 07  8 29 13 49 48.0010000  0  9G20G28G17G11G 4G23G 1S29S37
 113731784.23828  21642441.555          48.000       -2853.535
 116796823.68037  22225696.404          44.000       -3423.663
 112276322.865 8  21365477.488          50.000         206.498
 124102395.72436  23615906.534          36.000       -3688.370
 122096232.972 8  23234139.706          48.000         841.880
                  24210486.431          37.000        1188.579
                  26209754.072          23.000       -2574.054
 199167571.32935  37900334.510          35.000       -1263.509
                  37958719.563          32.000       -1281.811
 07  8 29 13 49 49.0010000  0  8G20G28G17G11G 4G23S29S37
 113734636.16728  21642984.467          50.000       -2850.413
 116800248.66237  22226347.766          44.000       -3429.584
 112276115.669 8  21365437.877          50.000         208.770
 124106081.82036  23616607.612          36.000       -3693.798
 122095391.812 7  23233979.565          47.000         842.281
                  24210258.641          35.000        1203.028
                  37900574.049          33.000       -1263.340
                  37958964.038          34.000       -1289.231
 07  8 29 13 49 50.0010000  0  8G20G28G17G11G 4G23S29S37
                  21643526.384          38.000       -2850.490
                  22227002.824          39.000       -3442.338
 112275905.235 8  21365397.969          51.000         212.311
 124109764.03036  23617309.552          38.000       -3680.424
                  23233819.910          38.000         833.598
                  24210033.254          36.000        1204.137
                  37900817.945          34.000       -1277.536
                  37959209.646          33.000       -1298.413
 07  8 29 13 49 51.0010000  0  9G20G28G17G11G 4G13G23S29S37
                  21644066.925          41.000       -2840.523
                  22227656.949          43.000       -3433.812
 112275693.522 8  21365358.062          51.000         214.257
                  23618011.347          34.000       -3680.616
                  23233660.433          38.000         834.460
                  25255572.118          26.000        1919.719
 127223395.37837  24209807.230          43.000        1180.100
                  37901059.563          35.000       -1271.557
                  37959457.007          33.000       -1289.495
 07  8 29 13 49 52.0010000  0  9G20G28G17G11G 4G13G23S29S37
 113743182.70537  21644608.054          47.000       -2847.841
                  22228312.763          38.000       -3433.198
 112275481.474 8  21365317.646          49.000         212.205
                  23618711.022          32.000       -3658.532
 122092863.76438  23233499.630          48.000         837.685
                  25255205.286          25.000        1938.152
 127222215.51027  24209582.541          45.000        1179.657
 199172699.58135  37901304.592          35.000       -1290.198
 199479578.90235  37959701.886          33.000       -1287.429
 07  8 29 13 49 53.0010000  0  9G20G28G17G11G 4G13G23S29S37
 113746030.24036  21645149.501          38.000       -2843.508
 116814007.34637  22228966.518          43.000       -3433.764
 112275270.42237  21365277.859          47.000         212.036
                  23619407.818          41.000       -3681.975
 122092024.02528  23233339.229          50.000         839.962
                  25254836.658          26.000        1959.829
 127221035.13127  24209358.499          47.000        1182.948
 199173987.18736  37901550.276          39.000       -1285.275
 199480868.31227  37959946.767          43.000       -1283.641
 07  8 29 13 49 54.0010000  0  9G20G28G17G11G 4G13G23S29S37
 113748879.89037  21645691.140          43.000       -2839.264
                  22229619.315          46.000       -3429.371
 112275061.13938  21365237.949          50.000         206.484
 124124519.36036  23620110.829          41.000       -3696.350
 122091182.67227  23233179.247          45.000         844.714
                  25254467.470          24.000        1974.319
 127219851.50128  24209134.143          49.000        1186.119
 199175268.68736  37901794.721          41.000       -1276.577
 199482152.168 6  37960190.950          41.000       -1277.050
 07  8 29 13 49 55.0010000  0  9G20G28G17G11G 4G13G23S29S37
 113751736.33128  21646234.200          48.000       -2859.770
                  22230270.108          38.000       -3418.366
 112274856.90128  21365198.561          51.000         200.945
 124128211.56236  23620813.271          39.000       -3695.639
 122090339.03937  23233019.087          42.000         839.049
                  25254093.398          24.000        1995.838
                  24208908.670          45.000        1191.915
 199176543.40936  37902038.381          37.000       -1269.955
                  37960433.547          37.000       -1266.041
 07  8 29 13 49 56.0010000  0  9G20G28G17G11G 4G13G23S29S37
 113754597.56928  21646779.344          50.000       -2863.138
                  22230919.816          39.000       -3412.980
 112274656.06438  21365159.977          49.000         195.603
 124131909.08937  23621516.845          42.000       -3697.768
 122089500.18037  23232858.564          42.000         843.708
                  25253717.251          24.000        2021.823
                  24208682.450          34.000        1203.412
 199177804.45536  37902278.400          36.000       -1248.299
                  37960673.563          32.000       -1250.729
 07  8 29 13 49 57.0010000  0  8G20G28G17G11G 4G23S29S37
 113757457.16628  21647324.473          50.000       -2857.540
                  22231568.185          42.000       -3396.343
                  21365122.266          43.000         193.921
                  23622220.438          38.000       -3696.416
 122088663.61837  23232699.122          43.000         844.683
                  24208453.460          33.000        1226.381
 199179060.56935  37902517.572          35.000       -1249.159
                  37960912.371          33.000       -1246.164
 07  8 29 13 49 58.0010000  0  8G20G28G17G11G 4G23S29S37
 113760314.55327  21647868.920          47.000       -2857.840
 116831083.55837  22232216.160          43.000       -3408.325
 112274279.74936  21365085.098          40.000         194.629
                  23622922.120          37.000       -3673.595
 122087828.99637  23232539.517          44.000         832.264
                  24208220.677          36.000        1234.487
                  37902755.801          32.000       -1253.099
 199487182.68036  37961148.799          38.000       -1260.074
 07  8 29 13 49 59.0010000  0  7G20G28G17G11G 4G23S37
                  21648412.651          46.000       -2859.299
 116834493.62337  22232865.359          47.000       -3411.006
                  21365047.512          38.000         198.952
                  23623625.799          35.000       -3676.847
 122086993.53637  23232380.720          45.000         830.940
                  24207988.510          40.000        1209.734
                  37961386.162          28.000       -1245.290
 07  8 29 13 50  0.0010000  0  7G20G28G17G11G 4G23S37
 113766031.15627  21648955.983          47.000       -2854.075
 116837912.58338  22233517.277          50.000       -3423.093
 112273872.69037  21365007.710          45.000         205.201
 124146674.34236  23624326.754          40.000       -3685.052
 122086152.34338  23232220.479          48.000         842.064
                  24207760.276          36.000        1203.075
                  37961625.559          39.000       -1254.256
 07  8 29 13 50  1.0010000  0  7G20G28G17G11G 4G23S37
                  21649499.349          36.000       -2850.010
 116841343.37037  22234171.045          47.000       -3435.992
 112273664.81138  21364968.170          50.000         210.262
 124150359.00737  23625027.556          44.000       -3680.290
                  23232060.896          43.000         841.369
                  24207532.630          39.000        1183.239
 199490961.26437  37961867.895          43.000       -1285.268
 07  8 29 13 50  2.0010000  0  7G20G28G17G11G 4G23S37
 113771728.35937  21650040.204          47.000       -2842.601
 116844790.90337  22234827.236          43.000       -3452.956
 112273453.37928  21364929.221          50.000         211.722
                  23625728.064          36.000       -3669.753
                  23231904.067          38.000         829.762
                  24207307.016          37.000        1183.220
 199492249.20336  37962113.227          41.000       -1289.316
 07  8 29 13 50  3.0010000  0  7G20G28G17G11G 4G23S37
                  21650579.751          34.000       -2832.269
 116848250.02837  22235484.724          42.000       -3456.988
 112273240.87928  21364889.400          51.000         210.762
                  23626427.698          30.000       -3664.721
                  23231746.210          41.000         824.214
                  24207083.536          35.000        1194.454
 199493543.300 6  37962359.500          41.000       -1294.218
 07  8 29 13 50  4.0010000  0  7G20G28G17G11G 4G23S37
                  21651119.032          37.000       -2834.129
 116851714.03038  22236142.315          48.000       -3465.823
 112273028.53828  21364849.388          50.000         214.754
                  23627123.896          30.000       -3652.598
                  23231590.602          38.000         813.682
                  24206855.866          32.000        1201.888
 199494840.521 7  37962606.417          43.000       -1301.641
 07  8 29 13 50  5.0010000  0  7G20G28G17G11G 4G23S37
 113780231.22437  21651658.260          43.000       -2836.281
                  22236802.016          40.000       -3477.001
 112272816.73228  21364808.920          50.000         212.839
                  23627821.970          31.000       -3664.161
                  23231434.687          40.000         820.199
                  24206627.410          30.000        1207.821
 199496138.19337  37962853.427          42.000       -1295.912
 07  8 29 13 50  6.0010000  0  7G20G28G17G11G 4G23S37
                  21652198.567          46.000       -2848.263
 116858641.85236  22237460.195          39.000       -3454.052
 112272605.81338  21364769.081          50.000         211.059
                  23628520.885          30.000       -3667.505
                  23231276.646          40.000         833.983
                  24206401.596          29.000        1186.703
 199497434.318 7  37963100.262          43.000       -1293.421
 07  8 29 13 50  7.0010000  0  6G20G28G17G11G 4S37
 113785920.73537  21652740.900          46.000       -2853.050
 116862094.35737  22238117.162          42.000       -3448.515
 112272395.00928  21364729.312          50.000         211.914
                  23629220.444          28.000       -3675.346
                  23231117.606          41.000         838.370
                  37963347.372          34.000       -1299.724
 07  8 29 13 50  8.0010000  0  7G20G28G17G11G 4G13S37
                  21653284.369          43.000       -2855.155
                  22238772.630          39.000       -3441.646
 112272184.26628  21364689.054          50.000         210.848
                  23629921.661          27.000       -3682.827
                  23230954.536          45.000         845.368
                  25249363.457          24.000        1886.080
                  37963592.661          33.000       -1276.561
 07  8 29 13 50  9.0010000  0  6G20G28G17G11G 4S37
 113791628.62838  21653827.087          50.000       -2858.574
                  22239426.682          42.000       -3439.706
 112271973.19228  21364648.953          51.000         210.692
                  23630623.299          31.000       -3683.440
                  23230793.193          38.000         849.391
                  37963835.985          33.000       -1280.926
 07  8 29 13 50 10.0010000  0  7G20G28G17G11G 4G23S37
 113794484.21537  21654371.012          46.000       -2853.389
 116872414.15037  22240081.029          42.000       -3444.378
 112271760.81928  21364608.417          50.000         213.118
                  23631323.423          32.000       -3672.722
                  23230630.834          40.000         843.678
                  24205517.815          32.000        1194.532
                  37964081.596          35.000       -1283.054
 07  8 29 13 50 11.0010000  0  7G20G28G17G11G 4G23S37
 113797337.97837  21654914.188          42.000       -2847.268
                  22240736.997          43.000       -3451.504
 112271546.94128  21364567.637          50.000         215.898
                  23632025.435          30.000       -3700.089
 122076946.01236  23230470.449          40.000         842.119
 127199656.86836  24205290.046          38.000        1171.073
 199503874.44535  37964325.041          33.000       -1292.120
 07  8 29 13 50 12.0010000  0  7G20G28G17G11G 4G23S37
 113800185.76937  21655455.704          45.000       -2845.216
                  22241394.797          42.000       -3460.549
 112271331.96828  21364526.680          51.000         212.670
                  23632731.803          26.000       -3698.184
                  23230311.580          38.000         837.350
 127198484.49137  24205065.916          43.000        1172.952
                  37964569.205          34.000       -1289.763
 07  8 29 13 50 13.0010000  0  8G20G28G17G11G 4G13G23S37
                  21655996.590          39.000       -2847.359
                  22242054.046          39.000       -3467.969
 112271117.060 8  21364485.690          50.000         214.563
                  23633435.959          25.000       -3685.615
 122075275.23736  23230152.608          39.000         836.851
                  25247554.813          25.000        1981.666
                  24204842.489          33.000        1187.377
 199506458.00736  37964816.749          37.000       -1302.373
 07  8 29 13 50 14.0010000  0  8G20G28G17G11G 4G13G23S37
 113805867.31737  21656536.502          43.000       -2840.784
                  22242715.056          39.000       -3480.278
 112270903.001 8  21364444.979          50.000         213.847
                  23634134.121          25.000       -3650.728
 122074443.69836  23229995.554          39.000         831.057
                  25247178.653          23.000        1973.389
                  24204617.624          28.000        1184.419
 199507757.32127  37965065.034          42.000       -1293.911
 07  8 29 13 50 15.0010000  0  8G20G28G17G11G 4G13G23S37
                  21657075.696          43.000       -2841.226
 116889720.72738  22243374.402          48.000       -3462.759
 112270691.740 8  21364404.964          50.000         210.284
                  23634828.277          26.000       -3639.297
 122073618.42037  23229836.808          45.000         827.963
                  25246810.091          23.000        1938.940
                  24204394.576          30.000        1184.890
 199509050.894 6  37965311.466          41.000       -1293.486
 07  8 29 13 50 16.0010000  0  7G20G28G17G11G 4S29S37
 113811542.28238  21657616.527          49.000       -2851.744
 116893180.36737  22244032.051          47.000       -3455.469
 112270482.099 8  21364365.090          51.000         209.379
                  23635523.628          27.000       -3654.770
 122072788.51938  23229678.416          48.000         837.525
 199203511.86027  37907168.092          43.000       -1289.374
 199510341.659 7  37965557.270          44.000       -1292.513
 07  8 29 13 50 17.0010000  0  7G20G28G17G11G 4S29S37
 113814395.95128  21658160.552          49.000       -2858.421
                  22244689.071          46.000       -3450.908
 112270273.173 8  21364325.058          50.000         207.584
                  23636222.600          28.000       -3690.222
 122071947.32628  23229518.646          49.000         846.217
 199204798.03027  37907412.871          44.000       -1278.376
 199511629.306 7  37965802.466          44.000       -1283.580
 07  8 29 13 50 18.0010000  0  8G20G28G17G11G 4G13S29S37
 113817258.03238  21658705.903          49.000       -2867.222
                  22245342.327          38.000       -3430.961
 112270066.275 8  21364285.673          50.000         207.009
                  23636923.713          29.000       -3694.525
 122071097.22628  23229357.199          49.000         853.405
                  25245741.554          23.000        1917.664
                  37907656.080          35.000       -1262.924
                  37966046.403          38.000       -1284.474
 07  8 29 13 50 19.0010000  0  9G20G28G17G11G 4G13G23S29S37
 113820127.02128  21659252.582          49.000       -2869.618
                  22245995.929          39.000       -3420.615
 112269863.023 8  21364246.740          49.000         201.635
                  23637627.160          29.000       -3710.728
 122070243.29137  23229194.635          46.000         859.802
                  25245378.172          24.000        1919.771
                  24203506.619          34.000        1177.980
                  37907897.504          30.000       -1263.886
                  37966288.826          29.000       -1270.599
 07  8 29 13 50 20.0010000  0  9G20G28G17G11G 4G13G23S29S37
 113822999.70028  21659799.489          49.000       -2871.468
                  22246648.741          37.000       -3422.359
 112269661.132 8  21364208.332          50.000         202.088
                  23638329.661          34.000       -3691.993
 122069386.28428  23229031.596          49.000         855.267
                  25245011.705          23.000        1933.387
                  24203274.114          33.000        1182.126
                  37908139.291          27.000       -1271.248
                  37966532.672          29.000       -1280.278
 07  8 29 13 50 21.0010000  0  8G20G28G17G11G 4G23S29S37
 113825873.34328  21660346.535          50.000       -2873.997
 116910344.41336  22247298.920          39.000       -3417.521
 112269460.673 8  21364170.586          50.000         200.349
 124223949.31136  23639031.608          39.000       -3706.698
 122068529.64527  23228868.559          47.000         855.409
                  24203050.892          31.000        1185.005
                  37908382.095          29.000       -1268.125
                  37966775.392          29.000       -1267.616
 07  8 29 13 50 22.0010000  0  8G20G28G17G11G 4G23S29S37
 113828747.09128  21660893.634          49.000       -2874.095
                  22247949.134          40.000       -3415.715
 112269262.831 8  21364133.013          48.000         191.525
 124227651.13536  23639732.620          41.000       -3700.177
 122067676.37737  23228706.305          46.000         852.361
                  24202823.199          30.000        1224.988
 199211146.89535  37908620.968          32.000       -1229.596
                  37967018.842          35.000       -1262.151
 07  8 29 13 50 23.0010000  0  8G20G28G17G11G 4G23S29S37
 113831623.01528  21661440.732          49.000       -2876.911
 116917166.46938  22248597.114          48.000       -3411.056
 112269070.337 8  21364096.140          49.000         190.355
 124231352.79937  23640435.391          47.000       -3704.220
                  23228544.748          40.000         842.838
                  24202590.996          31.000        1244.898
 199212390.81936  37908857.950          36.000       -1253.331
                  37967256.802          34.000       -1238.588
 07  8 29 13 50 24.0010000  0  9G20G28G17G11G 4G13G23S29S37
 113834501.09228  21661988.337          48.000       -2879.266
 116920572.49628  22249245.619          49.000       -3404.529
                  21364060.402          41.000         190.167
                  23641138.814          36.000       -3691.794
                  23228383.088          39.000         841.744
                  25243537.146          24.000        1984.334
                  24202358.503          28.000        1234.028
                  37909098.438          33.000       -1237.634
                  37967490.722          31.000       -1240.358
 07  8 29 13 50 25.0010000  0  9G20G28G17G11G 4G13G23S29S37
 113837378.651 8  21662535.594          48.000       -2875.482
 116923973.87428  22249894.001          49.000       -3399.424
 112268707.53837  21364024.764          44.000         177.632
                  23641842.216          31.000       -3689.649
                  23228224.127          37.000         823.617
                  25243155.956          28.000        2011.292
                  24202125.057          29.000        1241.831
                  37909329.261          29.000       -1213.398
                  37967728.772          28.000       -1254.420
 07  8 29 13 50 26.0010000  0  9G20G28G17G11G 4G13G23S29S37
 113840251.75037  21663082.416          44.000       -2871.386
 116927374.43038  22250541.474          49.000       -3400.213
 112268533.49828  21363991.170          48.000         171.959
                  23642546.545          31.000       -3682.068
 122064324.07337  23228068.677          42.000         813.388
                  25242773.235          33.000        2003.946
                  24201888.245          37.000        1255.954
 199216079.12235  37909559.483          35.000       -1209.522
                  37967965.230          29.000       -1233.816
 07  8 29 13 50 27.0010000  0  9G20G28G17G11G 4G13G23S29S37
 113843122.07936  21663627.524          36.000       -2877.477
 116930776.60128  22251189.626          48.000       -3403.925
 112268363.48438  21363959.933          49.000         168.520
                  23643245.990          31.000       -3668.302
 122063511.00137  23227913.805          47.000         808.899
                  25242391.263          41.000        1994.118
                  24201652.161          39.000        1256.046
 199217294.02527  37909790.504          42.000       -1216.634
 199524212.56036  37968195.249          41.000       -1213.766
 07  8 29 13 50 28.0010000  0  9G20G28G17G11G 4G13G23S29S37
 113845991.77538  21664173.073          48.000       -2868.511
 116934179.47738  22251837.134          48.000       -3404.324
 112268195.55828  21363928.645          49.000         168.809
 124249754.43637  23643942.147          43.000       -3672.516
                  23227761.881          36.000         804.585
 132647630.72537  25242004.976          46.000        2014.520
 127179292.04338  24201414.665          49.000        1257.442
 199218507.137 7  37910021.372          42.000       -1212.993
 199525423.91027  37968424.686          43.000       -1210.678
 07  8 29 13 50 29.0010000  0  9G20G28G17G11G 4G13G23S29S37
 113848860.36228  21664718.235          50.000       -2869.891
 116937582.15528  22252484.921          50.000       -3403.041
 112268026.51328  21363896.955          50.000         170.075
 124253426.55828  23644639.806          48.000       -3673.708
                  23227608.306          42.000         815.459
 132645615.72027  25241620.006          46.000        2013.818
 127178035.39428  24201177.516          50.000        1256.690
 199219719.484 7  37910252.098          42.000       -1212.965
 199526635.286 7  37968654.697          43.000       -1212.146
 07  8 29 13 50 30.0010000  0  9G20G28G17G11G 4G13G23S29S37
 113851729.30628  21665264.986          50.000       -2867.891
 116940986.06628  22253132.620          50.000       -3405.075
 112267855.92128  21363864.534          49.000         172.312
 124257099.64528  23645339.508          48.000       -3672.754
                  23227453.292          42.000         805.291
 132643604.56027  25241236.902          47.000        2008.002
 127176782.40228  24200940.941          50.000        1250.512
 199220933.996 7  37910483.400          44.000       -1214.888
 199527848.679 7  37968885.580          44.000       -1215.171
 07  8 29 13 50 31.0010000  0  9G20G28G17G11G 4G13G23S29S37
 113854598.30628  21665811.631          50.000       -2868.863
 116944390.71628  22253780.285          50.000       -3403.951
 112267681.08728  21363831.381          49.000         178.159
 124260775.39728  23646039.923          48.000       -3677.445
 122060271.43438  23227297.537          49.000         820.952
 132641601.09527  25240856.187          47.000        1997.932
 127175536.58228  24200705.010          50.000        1241.008
 199222151.802 7  37910715.207          43.000       -1220.147
 199529065.802 7  37969117.125          43.000       -1219.884
 07  8 29 13 50 32.0010000  0  9G20G28G17G11G 4G13G23S29S37
 113857468.73728  21666358.258          50.000       -2871.094
 116947795.66328  22254428.072          50.000       -3404.671
 112267501.30228  21363797.005          50.000         182.645
 124264456.46528  23646740.599          48.000       -3684.875
 122059447.10728  23227140.820          48.000         830.029
 132639607.84327  25240477.530          45.000        1986.399
 127174301.08528  24200470.492          49.000        1228.119
 199223374.328 7  37910948.078          42.000       -1225.475
 199530287.899 7  37969349.804          43.000       -1225.520
 07  8 29 13 50 33.0010000  0  9G20G28G17G11G 4G13G23S29S37
 113860341.78628  21666905.165          50.000       -2873.260
 116951201.15028  22255076.050          50.000       -3407.088
 112267317.04928  21363761.915          49.000         186.909
 124268144.09327  23647441.956          47.000       -3690.073
 122058613.56028  23226983.039          48.000         838.160
 132637625.78427  25240100.689          46.000        1976.497
 127173077.31028  24200237.981          49.000        1218.176
 199224601.250 7  37911181.717          43.000       -1230.855
 199531515.890 7  37969583.512          44.000       -1231.293
 07  8 29 13 50 34.0010000  0  9G20G28G17G11G 4G13G23S29S37
 113863215.61128  21667452.072          50.000       -2872.987
 116954610.03628  22255724.812          50.000       -3413.270
 112267127.01228  21363725.761          50.000         194.516
 124271836.29928  23648144.274          48.000       -3691.581
 122057771.30928  23226823.216          48.000         847.512
 132635658.37225  25239726.638          32.000        1961.108
 127171866.35328  24200007.319          48.000        1203.385
 199225836.149 7  37911416.768          43.000       -1239.035
 199532752.463 7  37969818.668          42.000       -1241.625
 07  8 29 13 50 35.0010000  0  9G20G28G17G11G 4G13G23S29S37
 113866087.67828  21667998.981          50.000       -2869.484
 116958028.53928  22256375.526          51.000       -3425.496
 112266928.93828  21363688.194          50.000         203.175
 124275530.27828  23648846.872          48.000       -3691.633
 122056921.07728  23226661.419          48.000         852.558
                  25239356.849          25.000        1958.842
 127170672.03727  24199779.518          47.000        1187.671
 199227084.543 7  37911654.328          43.000       -1258.517
 199534003.760 7  37970056.787          44.000       -1258.937
 07  8 29 13 50 36.0010000  0  9G20G28G17G11G 4G13G23S29S37
 113868953.04828  21668544.163          50.000       -2861.718
 116961460.57628  22257028.961          50.000       -3440.119
 112266722.35928  21363648.776          50.000         209.862
 124279218.73328  23649549.439          49.000       -3682.952
 122056068.71826  23226499.324          40.000         851.324
                  25238991.535          24.000        1929.305
 127169489.70227  24199553.551          47.000        1178.516
 199228347.600 7  37911894.770          44.000       -1270.196
 199535269.637 7  37970297.821          43.000       -1272.991
 07  8 29 13 50 37.0010000  0  9G20G28G17G11G 4G13G23S29S37
 113871811.084 8  21669087.950          51.000       -2853.460
 116964907.195 8  22257684.823          50.000       -3452.349
 112266511.433 8  21363608.712          51.000         213.010
 124282897.756 8  23650250.034          49.000       -3673.063
                  23226338.165          29.000         836.129
                  25238631.146          24.000        1909.439
 127168312.098 8  24199329.054          48.000        1178.253
 199229622.247 7  37912137.359          42.000       -1280.227
 199536546.637 7  37970540.952          43.000       -1281.428
 07  8 29 13 50 38.0010000  0  8G20G28G17G11G 4G23S29S37
 113874664.380 8  21669631.159          51.000       -2852.070
 116968364.367 8  22258342.676          49.000       -3460.111
 112266298.971 8  21363567.965          50.000         212.571
 124286569.404 8  23650949.091          50.000       -3668.975
                  23226179.980          28.000         838.179
 127167136.279 8  24199105.272          49.000        1176.345
 199230904.694 7  37912381.451          42.000       -1285.048
 199537830.984 7  37970785.498          42.000       -1284.520
 07  8 29 13 50 39.0010000  0  8G20G28G17G11G 4G23S29S37
 113877515.559 8  21670173.670          50.000       -2848.875
                  22259002.065          36.000       -3466.953
 112266086.697 8  21363527.830          50.000         212.465
 124290236.855 8  23651646.979          49.000       -3664.792
                  23226021.915          25.000         835.806
 127165961.077 8  24198881.752          48.000        1175.847
 199232191.614 7  37912626.276          42.000       -1290.036
 199539119.452 7  37971030.689          42.000       -1289.778
 07  8 29 13 50 40.0010000  0  8G20G28G17G11G 4G23S29S37
 113880364.729 8  21670715.953          51.000       -2847.346
                  22259663.446          31.000       -3465.048
 112265876.020 8  21363487.675          50.000         207.522
 124293899.288 8  23652344.275          49.000       -3658.451
                  23225865.278          29.000         826.689
 127164783.430 8  24198657.850          49.000        1179.736
 199233481.608 7  37912871.870          43.000       -1291.553
 199540409.616 7  37971276.124          44.000       -1294.523
 07  8 29 13 50 41.0010000  0  8G20G28G17G11G 4G23S29S37
 113883212.609 8  21671257.782          50.000       -2848.486
                  22260324.527          28.000       -3472.997
 112265666.880 8  21363447.923          50.000         207.955
 124297558.157 8  23653041.028          50.000       -3656.152
                  23225707.493          31.000         827.088
 127163602.819 8  24198433.389          49.000        1182.746
 199234772.246 6  37913117.640          37.000       -1288.517
 199541699.670 7  37971521.687          42.000       -1286.155
 07  8 29 13 50 42.0010000  0  8G20G28G17G11G 4G23S29S37
 113886063.221 8  21671799.993          49.000       -2854.086
                  22260985.651          28.000       -3459.952
 112265459.844 8  21363408.380          50.000         204.382
 124301219.499 8  23653737.480          49.000       -3667.385
 122051100.71435  23225552.287          33.000         816.527
 127162421.728 8  24198208.593          48.000        1178.733
 199236061.00636  37913363.337          36.000       -1293.453
 199542987.615 6  37971766.774          41.000       -1288.730
 07  8 29 13 50 43.0010000  0  8G20G28G17G11G 4G23S29S37
 113888922.278 8  21672344.157          50.000       -2863.666
                  22261645.290          29.000       -3451.880
 112265254.339 8  21363369.606          51.000         205.385
 124304892.21238  23654436.390          48.000       -3681.226
                  23225396.127          33.000         822.872
 127161246.328 8  24197984.671          49.000        1175.635
                  37913608.205          26.000       -1276.084
                  37972011.029          24.000       -1277.989
 07  8 29 13 50 44.0010000  0  6G20G28G17G11G 4G23
 113891788.584 8  21672889.876          50.000       -2867.505
                  22262301.803          33.000       -3448.480
 112265050.085 8  21363330.848          49.000         202.246
 124308575.76428  23655137.399          50.000       -3685.822
 122049420.75036  23225232.576          36.000         848.374
 127160074.740 8  24197761.272          49.000        1171.363
 07  8 29 13 50 45.0010000  0  7G20G28G17G11G 4G13G23
 113894656.466 8  21673435.771          50.000       -2869.355
                  22262958.172          34.000       -3458.335
 112264847.136 8  21363292.212          49.000         198.753
 124312260.38428  23655838.132          50.000       -3680.885
                  23225069.326          34.000         840.061
                  25235727.047          23.000        1913.067
 127158901.86837  24197538.189          42.000        1174.912
 07  8 29 13 50 46.0010000  0  6G20G28G17G11G 4G23
 113897521.598 8  21673980.830          50.000       -2863.463
 116996079.92836  22263613.934          39.000       -3457.293
 112264644.49738  21363253.822          50.000         201.100
 124315939.54628  23656538.236          50.000       -3676.517
                  23224908.140          35.000         843.740
 127157723.26727  24197313.625          42.000        1181.731
 07  8 29 13 50 47.0010000  0  6G20G28G17G11G 4G23
 113900382.429 8  21674525.210          51.000       -2856.072
 116999541.16336  22264272.484          40.000       -3468.316
 112264442.41928  21363215.573          51.000         204.920
 124319611.16228  23657236.877          49.000       -3666.058
 122046865.73237  23224746.372          44.000         832.175
 127156542.70627  24197088.710          45.000        1182.407
 07  8 29 13 50 48.0010000  0  6G20G28G17G11G 4G23
 113903234.975 8  21675068.089          51.000       -2848.433
 117003016.11538  22264931.312          48.000       -3480.289
 112264239.66828  21363176.867          51.000         202.724
 124323269.27028  23657933.269          50.000       -3651.017
                  23224589.857          32.000         820.442
 127155357.83128  24196863.778          49.000        1188.173
 07  8 29 13 50 49.0010000  0  6G20G28G17G11G 4G23
 113906079.065 8  21675609.206          50.000       -2840.464
 117006500.89628  22265593.370          49.000       -3488.916
 112264038.58728  21363138.458          50.000         199.120
 124326912.20928  23658626.676          49.000       -3636.319
                  23224435.847          28.000         790.165
 127154163.42728  24196637.436          49.000        1200.483
 07  8 29 13 50 50.0010000  0  6G20G28G17G11G 4G23
 113908918.165 8  21676149.012          49.000       -2837.372
                  22266257.891          45.000       -3491.406
 112263838.84437  21363099.456          46.000         197.181
 124330545.15028  23659318.037          48.000       -3633.009
                  23224290.266          24.000         760.046
 127152960.44628  24196408.928          49.000        1205.306
 07  8 29 13 50 51.0010000  0  7G20G28G17G11G 4G13G23
 113911755.491 8  21676688.731          49.000       -2835.875
 117013465.67537  22266922.307          47.000       -3494.531
 112263642.75937  21363061.482          43.000         191.534
                  23660007.552          46.000       -3622.404
                  23224146.294          26.000         785.809
                  25233536.559          35.000        1921.912
 127151751.97928  24196179.598          49.000        1209.466
 07  8 29 13 50 52.0010000  0  7G20G28G17G11G 4G13G23
 113914592.872 8  21677228.745          49.000       -2837.630
 117016958.90637  22267586.235          43.000       -3495.332
 112263449.62137  21363024.785          42.000         194.223
 124337795.00838  23660695.839          48.000       -3626.176
                  23223996.023          24.000         812.649
 132601180.06736  25233165.588          39.000        1928.896
 127150539.37538  24195949.047          49.000        1211.821
 07  8 29 13 50 53.0010000  0  7G20G28G17G11G 4G13G23
 113917431.928 8  21677769.456          49.000       -2840.012
                  22268251.715          39.000       -3499.269
 112263257.87837  21362988.557          43.000         190.085
 124341423.27328  23661386.203          48.000       -3630.971
                  23223841.497          26.000         802.870
 132599254.40927  25232797.264          43.000        1922.791
 127149330.61628  24195718.928          49.000        1203.300
 07  8 29 13 50 54.0010000  0  7G20G28G17G11G 4G13G23
 113920273.022 7  21678310.238          47.000       -2841.479
 117023949.42436  22268917.233          40.000       -3494.454
 112263061.66737  21362950.691          47.000         193.150
 124345055.09538  23662078.226          48.000       -3631.842
                  23223690.975          27.000         812.504
 132597335.88436  25232432.029          40.000        1918.438
 127148128.76428  24195490.573          49.000        1199.972
 07  8 29 13 50 55.0010000  0  7G20G28G17G11G 4G13G23
 113923116.21038  21678851.646          49.000       -2847.570
 117027443.86235  22269582.594          35.000       -3489.317
 112262862.70037  21362912.060          46.000         203.139
 124348693.39527  23662771.449          47.000       -3642.178
                  23223537.030          26.000         812.484
 132595424.92836  25232068.692          38.000        1903.968
 127146936.10628  24195263.071          48.000        1191.057
 07  8 29 13 50 56.0010000  0  7G20G28G17G11G 4G13G23
 113925964.74128  21679393.666          50.000       -2850.367
 117030940.82635  22270247.796          32.000       -3491.777
 112262662.26428  21362874.437          49.000         202.022
 124352339.55128  23663465.809          49.000       -3648.447
                  23223386.767          25.000         816.325
                  25231705.657          33.000        1902.102
 127145752.35038  24195037.750          48.000        1180.451
 07  8 29 13 50 57.0010000  0  7G20G28G17G11G 4G13G23
 113928814.34528  21679936.002          50.000       -2847.719
                  22270911.602          38.000       -3492.242
 112262461.87128  21362836.971          50.000         199.942
 124355986.93528  23664159.979          49.000       -3646.739
                  23223228.580          27.000         813.831
                  25231344.124          31.000        1901.448
 127144571.10528  24194812.834          50.000        1180.683
 07  8 29 13 50 58.0010000  0  7G20G28G17G11G 4G13G23
 113931662.06628  21680477.937          50.000       -2846.052
 117037928.06037  22271577.376          43.000       -3502.273
 112262262.13928  21362799.331          49.000         200.528
 124359630.19328  23664853.069          49.000       -3640.256
                  23223074.317          33.000         805.977
                  25230981.651          30.000        1910.020
 127143388.72628  24194587.657          49.000        1183.346
 07  8 29 13 50 59.0010000  0  7G20G28G17G11G 4G13G23
 113934507.67628  21681019.348          50.000       -2845.365
 117041433.19537  22272244.654          43.000       -3504.558
 112262063.07428  21362761.707          50.000         198.660
 124363269.03828  23665545.826          49.000       -3638.350
 122037265.33736  23222919.480          38.000         801.292
                  25230619.138          33.000        1904.443
 127142205.12328  24194362.253          49.000        1183.418
 07  8 29 13 51  0.0010000  0  7G20G28G17G11G 4G13G23
 113937352.74728  21681560.549          51.000       -2844.923
 117044940.86328  22272913.293          48.000       -3507.871
 112261863.14928  21362724.016          51.000         200.416
 124366907.25128  23666238.216          49.000       -3637.431
 122036462.80838  23222763.405          48.000         802.408
 132585900.28236  25230258.038          39.000        1898.354
 127141023.51028  24194137.807          49.000        1181.239
 07  8 29 13 51  1.0010000  0  7G20G28G17G11G 4G13G23
 113940198.08828  21682101.959          51.000       -2845.783
 117048450.21128  22273581.862          49.000       -3509.952
 112261662.87828  21362686.149          50.000         200.641
 124370546.277 8  23666930.588          49.000       -3638.422
 122035660.53728  23222609.355          49.000         802.345
 132584005.80126  25229898.144          36.000        1894.564
 127139843.75228  24193913.188          49.000        1179.306
 07  8 29 13 51  2.0010000  0  7G20G28G17G11G 4G13G23
 113943043.82028  21682643.475          50.000       -2844.520
 117051961.28328  22274250.641          49.000       -3512.037
 112261463.00328  21362647.915          51.000         200.004
 124374184.676 8  23667622.769          49.000       -3637.557
 122034858.96128  23222456.647          48.000         799.973
 132582113.95835  25229537.691          34.000        1893.383
 127138665.00328  24193688.743          49.000        1179.681
 07  8 29 13 51  3.0010000  0  7G20G28G17G11G 4G13G23
 113945889.11228  21683185.024          50.000       -2845.410
 117055473.77728  22274919.141          49.000       -3512.543
 112261263.55728  21362609.786          50.000         199.662
 124377821.699 8  23668315.089          49.000       -3636.496
 122034058.87738  23222304.673          48.000         800.469
                  25229177.170          33.000        1894.812
 127137485.51628  24193464.368          49.000        1178.625
 07  8 29 13 51  4.0010000  0  7G20G28G17G11G 4G13G23
 113948734.98128  21683726.818          50.000       -2846.432
 117058985.74728  22275587.346          50.000       -3510.029
 112261063.71528  21362571.850          51.000         199.698
 124381459.713 8  23669007.513          49.000       -3639.760
 122033257.82938  23222151.932          48.000         801.992
                  25228817.245          28.000        1902.082
 127136306.99228  24193240.097          49.000        1176.583
 07  8 29 13 51  5.0010000  0  7G20G28G17G11G 4G13G23
 113951583.72128  21684268.646          50.000       -2850.619
 117062494.85828  22276255.289          50.000       -3507.724
 112260864.22628  21362533.843          51.000         199.346
 124385101.809 8  23669700.389          49.000       -3644.660
 122032453.68628  23221999.000          49.000         805.063
                  25228457.610          31.000        1892.935
 127135130.44128  24193016.227          49.000        1175.612
 07  8 29 13 51  6.0010000  0  7G20G28G17G11G 4G13G23
 113954436.28928  21684811.696          50.000       -2853.952
 117066000.03728  22276922.657          50.000       -3503.315
 112260666.14128  21362496.219          51.000         197.186
 124388748.630 8  23670394.348          49.000       -3648.858
 122031647.05227  23221845.596          47.000         807.420
                  25228097.684          31.000        1898.152
 127133954.88728  24192792.848          50.000        1177.205
 07  8 29 13 51  7.0010000  0  7G20G28G17G11G 4G13G23
 113957291.571 8  21685354.764          50.000       -2854.058
 117069502.157 8  22277588.819          50.000       -3502.116
 112260471.019 8  21362458.735          50.000         194.356
 124392397.149 8  23671088.832          49.000       -3648.072
 122030841.71936  23221692.345          37.000         800.026
                  25227735.332          32.000        1903.338
 127132776.242 8  24192568.248          50.000        1181.252
 07  8 29 13 51  8.0010000  0  7G20G28G17G11G 4G13G23
 113960144.591 8  21685897.484          50.000       -2850.124
 117073006.288 8  22278255.573          49.000       -3506.238
