     2.11           OBSERVATION DATA    M (MIXED)           RINEX VERSION / TYPE
teqc  2007Jun25                         20080118 19:15:47UTCPGM / RUN BY / DATE
MSXP|IAx86-PII|bcc32 5.0|MSWin95->XP|486/DX+                COMMENT
-Unknown-                                                   MARKER NAME
-Unknown-           -Unknown-                               OBSERVER / AGENCY
-Unknown-           U-BLOX              -Unknown-           REC # / TYPE / VERS
-Unknown-           -Unknown-                               ANT # / TYPE
        0.0000        0.0000        0.0000                  APPROX POSITION XYZ
        0.0000        0.0000        0.0000                  ANTENNA: DELTA H/E/N
     1     0                                                WAVELENGTH FACT L1/2
     4    L1    C1    S1    D1                              # / TYPES OF OBSERV
 SNR is mapped to RINEX snr flag value [0-9]                COMMENT
  L1 & L2: min(max(int(snr_dBHz/6), 0), 9)                  COMMENT
  2007     8    29     8    57   26.9980000     GPS         TIME OF FIRST OBS
    14                                                      LEAP SECONDS
                                                            END OF HEADER
 07  8 29  8 57 26.9980000  0 12G19G 3G25G27G16G11G 8G13G22G18S29S37
 108164084.130 8  20582944.273          49.000       -1981.643
 109217562.257 7  20783411.515          47.000       -3552.463
 113577950.842 8  21613166.108          49.000       -1390.385
 120515224.114 6  22933309.893          38.000          76.745
 120126827.173 7  22859377.932          46.000       -4267.263
 121188916.287 7  23061490.552          43.000        1443.446
                  24371289.423          27.000        1382.356
 130466439.593 5  24826917.271          35.000       -4597.121
 130100552.596 5  24757337.305          35.000        -646.689
                  25754584.144          26.000       -1889.050
 195545726.193 7  37211120.326          43.000       -2042.820
 195874902.493 7  37273758.998          43.000       -2046.689
 07  8 29  8 57 27.9980000  0 13G19G 3G25G27G16G11G 8G13G22G18G23S29
                                S37
 108166064.054 8  20583321.200          49.000       -1977.849
 109221113.254 7  20784087.590          47.000       -3549.001
 113579339.470 8  21613430.533          49.000       -1387.025
 120515144.801 6  22933295.726          39.000          81.044
 120131092.795 7  22860189.857          46.000       -4263.645
 121187471.585 7  23061215.956          42.000        1446.713
                  24371017.849          24.000        1392.273
 130471033.864 5  24827790.046          35.000       -4592.420
 130101198.375 6  24757460.907          36.000        -642.044
                  25754930.129          25.000       -1892.270
                  25473133.576          25.000       -4693.536
 195547768.092 7  37211508.839          43.000       -2038.273
 195876946.540 7  37274148.122          42.000       -2041.067
 07  8 29  8 57 28.9980000  0 13G19G 3G25G27G16G11G 8G13G22G18G23S29
                                S37
 108168040.342 8  20583697.620          49.000       -1974.561
 109224660.517 7  20784762.863          47.000       -3545.377
 113580724.715 8  21613694.556          49.000       -1383.328
 120515061.881 6  22933280.144          39.000          83.922
 120135354.704 7  22861000.875          46.000       -4259.506
 121186023.138 7  23060939.930          43.000        1450.040
                  24370747.977          24.000        1380.224
 130475624.284 5  24828663.256          33.000       -4588.312
 130101840.517 6  24757583.583          36.000        -639.789
                  25755241.728          25.000       -1870.075
                  25474017.641          25.000       -4687.953
 195549805.958 7  37211896.881          43.000       -2035.713
 195878986.516 7  37274536.304          42.000       -2037.132
 07  8 29  8 57 29.9980000  0 13G19G 3G25G27G16G11G 8G13G22G18G23S29
                                S37
 108170013.093 8  20584073.027          49.000       -1971.326
 109228204.171 8  20785437.106          48.000       -3541.519
 113582106.688 8  21613957.567          49.000       -1380.619
 120514975.590 6  22933263.567          40.000          86.953
 120139612.977 7  22861811.369          46.000       -4256.161
 121184571.011 7  23060663.433          43.000        1454.207
                  24370481.001          23.000        1367.069
 130480210.969 5  24829535.489          33.000       -4584.017
 130102479.107 6  24757706.695          37.000        -636.359
                  25755544.744          25.000       -1889.594
                  25474910.623          25.000       -4681.812
 195551839.941 7  37212283.841          43.000       -2032.636
 195881022.808 7  37274923.682          42.000       -2036.029
 07  8 29  8 57 30.9980000  0 13G19G 3G25G27G16G11G 8G13G22G18G23S29
                                S37
 108171982.523 8  20584447.982          50.000       -1967.342
 109231744.389 8  20786111.139          48.000       -3537.797
 113583485.555 8  21614220.124          49.000       -1377.160
 120514886.005 6  22933246.869          40.000          91.098
 120143867.791 7  22862621.061          46.000       -4252.790
 121183115.431 7  23060386.569          43.000        1456.731
                  24370206.454          29.000        1406.366
 130484794.064 5  24830407.077          34.000       -4580.947
 130103114.364 6  24757829.494          36.000        -631.961
                  25755894.714          24.000       -1872.454
                  25475797.356          26.000       -4680.378
 195553870.085 7  37212670.085          43.000       -2029.382
 195883055.403 7  37275310.625          42.000       -2031.368
 07  8 29  8 57 31.9980000  0 13G19G 3G25G27G16G11G 8G13G22G18G23S29
                                S37
 108173948.544 8  20584822.238          50.000       -1964.029
 109235281.114 8  20786784.457          48.000       -3534.306
 113584861.287 8  21614482.105          49.000       -1373.964
 120514793.125 6  22933228.757          39.000          94.986
 120148119.141 7  22863430.264          46.000       -4249.059
 121181656.325 6  23060108.188          41.000        1462.284
                  24369932.661          30.000        1407.174
 130489373.412 5  24831278.227          35.000       -4577.996
 130103746.238 6  24757952.379          37.000        -630.296
                  25756245.847          25.000       -1873.243
                  25476681.192          25.000       -4680.589
 195555896.489 7  37213055.702          43.000       -2024.365
 195885084.076 7  37275696.643          42.000       -2027.204
 07  8 29  8 57 32.9980000  0 13G19G 3G25G27G16G11G 8G13G22G18G23S29
                                S37
 108175910.829 8  20585195.552          50.000       -1960.243
 109238814.000 8  20787456.659          48.000       -3530.582
 113586233.522 8  21614742.970          49.000       -1371.100
 120514696.682 6  22933210.383          40.000          98.233
 120152366.607 7  22864238.594          46.000       -4245.381
 121180193.374 7  23059829.247          43.000        1464.719
                  24369659.706          29.000        1411.691
 130493948.904 6  24832149.570          36.000       -4575.092
 130104374.390 5  24758074.061          35.000        -625.916
                  25756606.982          25.000       -1867.536
                  25477564.159          25.000       -4672.469
 195557918.910 7  37213440.393          42.000       -2021.781
 195887108.733 6  37276082.050          41.000       -2022.990
 07  8 29  8 57 33.9980000  0 13G19G 3G25G27G16G11G 8G13G22G18G23S29
                                S37
 108177869.711 8  20585568.185          50.000       -1956.689
 109242343.387 8  20788128.371          48.000       -3527.311
 113587602.594 8  21615003.991          49.000       -1367.469
 120514596.851 6  22933191.642          40.000         100.229
 120156610.602 7  22865045.755          46.000       -4241.869
 121178726.892 7  23059550.219          43.000        1467.486
                  24369388.933          28.000        1417.209
 130498520.662 6  24833018.715          37.000       -4570.171
 130104999.098 6  24758192.933          38.000        -624.823
                  25756978.114          25.000       -1865.121
                  25478441.488          24.000       -4668.407
 195559937.729 7  37213824.579          43.000       -2016.372
 195889129.761 7  37276466.724          42.000       -2017.946
 07  8 29  8 57 34.9980000  0 12G19G 3G25G27G16G11G 8G13G22G18S29S37
 108179825.072 8  20585940.033          50.000       -1953.177
 109245869.156 8  20788799.386          48.000       -3523.389
 113588968.411 8  21615263.844          49.000       -1363.665
 120514493.654 6  22933171.123          39.000         105.279
 120160850.957 7  22865852.620          46.000       -4238.248
 121177256.819 7  23059269.638          42.000        1471.473
                  24369113.988          29.000        1418.482
 130503088.718 6  24833887.441          38.000       -4566.659
 130105619.79235  24758312.103          35.000        -617.708
                  25757397.497          27.000       -1860.643
 195561952.416 7  37214207.962          43.000       -2010.818
 195891146.927 7  37276850.752          42.000       -2015.586
 07  8 29  8 57 35.9980000  0 12G19G 3G25G27G16G11G 8G13G22G18S29S37
 108181777.112 8  20586311.427          49.000       -1950.175
 109249391.515 8  20789469.790          48.000       -3519.683
 113590331.155 8  21615523.085          49.000       -1361.189
 120514387.207 6  22933150.690          40.000         108.260
 120165087.890 7  22866658.472          46.000       -4234.996
 121175783.231 7  23058989.337          42.000        1475.848
                  24368836.514          27.000        1423.134
 130507653.177 6  24834754.910          39.000       -4561.902
 130106237.65925  24758430.661          35.000        -614.443
                  25757796.322          31.000       -1859.037
 195563963.495 7  37214590.751          43.000       -2007.837
 195893160.110 7  37277233.856          42.000       -2010.035
 07  8 29  8 57 36.9980000  0 12G19G 3G25G27G16G11G 8G13G22G18S29S37
 108183725.720 8  20586682.089          49.000       -1946.525
 109252910.355 8  20790139.582          48.000       -3517.088
 113591690.703 8  21615781.996          49.000       -1357.917
 120514277.445 6  22933129.000          40.000         111.843
 120169321.310 7  22867463.853          46.000       -4231.031
 121174306.118 7  23058708.599          43.000        1479.600
                  24368555.409          29.000        1425.324
 130512213.940 6  24835623.077          38.000       -4559.285
 130106852.09426  24758548.590          36.000        -612.872
                  25758148.958          29.000       -1854.595
 195565971.242 7  37214972.755          43.000       -2006.321
 195895169.339 7  37277616.052          43.000       -2007.466
 07  8 29  8 57 37.9980000  0 12G19G 3G25G27G16G11G 8G13G22G18S29S37
 108185670.781 8  20587052.052          49.000       -1943.111
 109256425.547 8  20790808.503          48.000       -3513.347
 113593046.963 8  21616040.016          49.000       -1354.385
 120514164.261 6  22933107.642          40.000         114.413
 120173551.066 7  22868268.571          45.000       -4228.415
 121172825.348 7  23058427.059          42.000        1482.975
                  24368277.882          29.000        1428.632
 130516770.979 6  24836489.412          39.000       -4555.277
 130107462.98725  24758664.270          35.000        -607.423
                  25758502.762          29.000       -1852.468
 195567975.237 7  37215354.078          43.000       -2002.827
 195897174.821 6  37277997.690          41.000       -2003.811
 07  8 29  8 57 38.9980000  0 12G19G 3G25G27G16G11G 8G13G22G18S29S37
 108187612.636 8  20587421.596          49.000       -1940.191
 109259937.413 8  20791476.621          48.000       -3509.516
 113594400.259 8  21616297.582          49.000       -1351.759
 120514047.944 6  22933085.970          40.000         117.635
 120177777.512 7  22869073.551          46.000       -4224.692
 121171341.250 7  23058144.628          42.000        1486.349
                  24367999.989          28.000        1431.841
 130521324.559 6  24837356.777          39.000       -4550.143
 130108070.69125  24758779.634          34.000        -605.378
                  25758855.799          31.000       -1847.750
 195569975.426 7  37215734.670          42.000       -1996.580
 195899177.153 7  37278378.716          42.000       -2001.198
 07  8 29  8 57 39.9980000  0 12G19G 3G25G27G16G11G 8G13G22G18S29S37
 108189551.026 8  20587790.338          49.000       -1936.276
 109263445.742 8  20792144.564          48.000       -3506.638
 113595750.367 8  21616554.485          48.000       -1348.372
 120513928.271 6  22933062.885          40.000         120.599
 120182000.410 7  22869877.467          46.000       -4221.070
 121169853.572 7  23057860.924          42.000        1489.950
                  24367721.257          29.000        1434.286
 130525874.438 6  24838222.868          38.000       -4546.281
 130108674.94125  24758893.828          33.000        -604.874
                  25759206.567          30.000       -1845.060
 195571971.886 7  37216114.702          42.000       -1994.024
 195901175.833 6  37278759.045          41.000       -1997.157
 07  8 29  8 57 40.9980000  0 12G19G 3G25G27G16G11G 8G13G22G18S29S37
 108191485.990 8  20588158.818          49.000       -1933.595
 109266950.540 8  20792811.687          48.000       -3503.154
 113597097.279 8  21616811.022          49.000       -1345.382
 120513805.277 6  22933038.596          39.000         125.461
 120186219.766 7  22870680.649          46.000       -4217.438
 121168362.335 7  23057577.167          42.000        1493.055
                  24367444.131          28.000        1435.678
 130530420.647 6  24839088.679          38.000       -4544.354
 130109275.70425  24759007.449          32.000        -598.571
                  25759558.974          31.000       -1844.837
 195573964.408 7  37216493.582          43.000       -1989.765
 195903170.800 7  37279138.502          42.000       -1992.004
 07  8 29  8 57 41.9980000  0 12G19G 3G25G27G16G11G 8G13G22G18S29S37
 108193417.698 8  20588526.251          49.000       -1929.803
 109270451.984 8  20793478.130          48.000       -3499.187
 113598441.189 8  21617067.088          49.000       -1342.102
 120513679.122 6  22933014.498          39.000         127.602
 120190435.774 7  22871482.872          46.000       -4214.391
 121166867.739 7  23057292.625          42.000        1495.986
                  24367170.182          28.000        1439.682
 130534963.343 6  24839953.496          39.000       -4539.887
 130109873.22325  24759119.655          31.000        -595.683
 135369242.79635  25759910.475          32.000       -1840.771
 195575953.156 7  37216872.009          42.000       -1987.153
 195905161.757 7  37279517.539          42.000       -1989.637
 07  8 29  8 57 42.9980000  0 12G19G 3G25G27G16G11G 8G13G22G18S29S37
 108195345.992 8  20588893.335          49.000       -1926.659
 109273949.919 8  20794143.927          48.000       -3496.440
 113599781.937 8  21617322.333          49.000       -1339.369
 120513549.677 6  22932989.755          40.000         130.933
 120194648.267 7  22872285.025          46.000       -4210.446
 121165369.594 7  23057007.455          42.000        1500.040
                  24366895.257          29.000        1447.865
 130539502.391 6  24840817.474          39.000       -4537.638
 130110467.887 5  24759231.267          30.000        -594.491
 135371081.17525  25760259.953          33.000       -1834.284
 195577938.119 7  37217249.668          42.000       -1982.725
 195907148.897 7  37279895.687          43.000       -1985.382
 07  8 29  8 57 43.9980000  0 12G19G 3G25G27G16G11G 8G13G22G18S29S37
 108197271.051 8  20589259.512          49.000       -1923.552
 109277444.510 8  20794809.270          48.000       -3492.700
 113601119.683 8  21617576.584          49.000       -1336.229
 120513417.082 6  22932964.349          39.000         134.828
 120198857.427 7  22873085.869          46.000       -4207.367
 121163868.101 7  23056721.988          42.000        1502.334
                  24366620.625          29.000        1447.567
 130544037.937 6  24841680.546          39.000       -4533.701
 130111058.724 4  24759342.184          29.000        -586.102
 135372916.49225  25760608.050          33.000       -1834.831
 195579919.635 7  37217626.594          43.000       -1979.608
 195909132.186 7  37280272.997          42.000       -1980.467
 07  8 29  8 57 44.9980000  0 12G19G 3G25G27G16G11G 8G13G22G18S29S37
 108199192.855 8  20589625.252          49.000       -1920.025
 109280935.735 8  20795473.706          48.000       -3489.309
 113602454.427 8  21617830.957          49.000       -1332.908
 120513281.331 6  22932938.314          39.000         137.670
 120203063.222 7  22873886.242          46.000       -4203.987
 121162363.220 7  23056435.405          42.000        1508.131
                  24366348.455          31.000        1450.185
 130548570.028 6  24842542.728          39.000       -4529.119
                  24759450.812          25.000        -584.100
 135374748.64125  25760955.118          33.000       -1831.868
 195581897.295 7  37218002.770          42.000       -1975.725
 195911111.801 7  37280649.801          42.000       -1978.796
 07  8 29  8 57 45.9980000  0 12G19G 3G25G27G16G11G 8G13G22G18S29S37
 108201111.300 8  20589990.295          49.000       -1916.981
 109284423.540 8  20796137.513          48.000       -3486.203
 113603786.076 8  21618084.388          49.000       -1329.911
 120513142.346 6  22932911.424          39.000         139.407
 120207265.573 7  22874685.864          46.000       -4201.132
 121160854.891 7  23056148.315          42.000        1510.535
                  24366073.580          29.000        1451.497
 130553098.495 6  24843403.496          40.000       -4526.519
                  24759552.617          25.000        -583.378
 135376577.57325  25761301.263          34.000       -1826.858
 195583871.412 7  37218378.544          42.000       -1971.113
 195913087.792 7  37281025.854          42.000       -1975.131
 07  8 29  8 57 46.9980000  0 12G19G 3G25G27G16G11G 8G13G22G18S29S37
 108203026.505 8  20590354.814          49.000       -1913.279
 109287907.979 7  20796800.745          47.000       -3482.995
 113605114.738 8  21618337.051          49.000       -1327.017
 120513000.182 6  22932883.488          38.000         144.216
 120211464.560 7  22875485.278          46.000       -4197.083
 121159343.196 7  23055860.388          42.000        1513.738
                  24365797.973          30.000        1457.821
 130557623.481 6  24844263.811          40.000       -4522.490
                  24759655.418          26.000        -578.073
 135378403.43125  25761646.760          34.000       -1826.454
 195585841.839 7  37218753.533          42.000       -1968.201
 195915060.213 6  37281401.245          41.000       -1971.364
 07  8 29  8 57 47.9980000  0 12G19G 3G25G27G16G11G 8G13G22G18S29S37
 108204938.471 8  20590718.634          50.000       -1910.409
 109291389.091 7  20797463.139          47.000       -3479.521
 113606440.394 8  21618589.417          49.000       -1324.196
 120512854.912 6  22932855.848          38.000         146.328
 120215660.219 7  22876283.905          46.000       -4194.424
 121157828.152 7  23055571.885          42.000        1516.483
                  24365522.768          30.000        1464.229
 130562145.002 6  24845123.759          39.000       -4519.317
                  24759759.981          26.000        -574.943
 135380226.16125  25761992.259          33.000       -1820.489
 195587808.785 7  37219128.016          42.000       -1964.376
 195917028.905 7  37281775.816          42.000       -1965.704
 07  8 29  8 57 48.9980000  0 12G19G 3G25G27G16G11G 8G13G22G18S29S37
 108206847.160 8  20591081.740          50.000       -1907.093
 109294866.832 8  20798124.783          48.000       -3476.113
 113607763.041 8  21618841.277          49.000       -1320.593
 120512706.475 6  22932827.912          39.000         150.220
 120219852.518 7  22877081.591          46.000       -4191.089
 121156309.704 7  23055283.085          42.000        1519.507
                  24365245.712          31.000        1466.115
 130566663.036 6  24845982.502          39.000       -4516.679
                  24759867.022          27.000        -572.841
 135382046.284 5  25762336.867          34.000       -1817.493
 195589772.250 7  37219501.610          42.000       -1958.614
 195918994.099 6  37282149.636          41.000       -1962.500
 07  8 29  8 57 49.9980000  0 12G19G 3G25G27G16G11G 8G13G22G18S29S37
 108208752.769 8  20591444.426          50.000       -1904.107
 109298341.373 8  20798786.060          48.000       -3472.452
 113609082.846 8  21619092.544          49.000       -1318.290
 120512555.041 6  22932798.631          38.000         152.709
 120224041.611 7  22877878.823          46.000       -4187.736
 121154788.055 7  23054993.430          42.000        1523.609
                  24364969.877          30.000        1467.661
 130571177.715 6  24846841.980          39.000       -4512.101
                  24759979.140          29.000        -571.711
 135383862.938 5  25762680.915          33.000       -1817.750
 195591732.662 7  37219874.539          43.000       -1958.288
 195920956.131 7  37282523.106          43.000       -1959.861
 07  8 29  8 57 50.9980000  0 12G19G 3G25G27G16G11G 8G13G22G18S29S37
 108210655.162 8  20591806.868          50.000       -1901.208
 109301812.608 8  20799446.639          48.000       -3469.452
 113610399.705 8  21619343.305          50.000       -1315.131
 120512400.523 6  22932769.264          38.000         157.657
 120228227.415 7  22878675.270          46.000       -4183.998
 121153263.057 7  23054703.042          42.000        1526.245
                  24364692.804          31.000        1471.945
 130575688.919 6  24847699.153          39.000       -4509.505
                  24760091.503          29.000        -567.299
 135385676.551 5  25763024.408          33.000       -1812.509
 195593689.473 7  37220246.875          43.000       -1955.835
 195922914.836 7  37282895.652          43.000       -1957.959
 07  8 29  8 57 51.9980000  0 12G19G 3G25G27G16G11G 8G13G22G18S29S37
 108212554.458 8  20592168.438          50.000       -1897.736
 109305280.660 8  20800106.747          48.000       -3466.501
 113611713.704 8  21619593.402          49.000       -1312.676
 120512243.018 6  22932738.761          38.000         158.414
 120232410.003 7  22879471.402          46.000       -4181.004
 121151734.876 7  23054412.340          42.000        1530.007
                  24364416.358          30.000        1472.869
 130580196.823 6  24848555.297          38.000       -4506.003
                  24760202.942          30.000        -563.503
 135387487.157 5  25763367.952          32.000       -1806.029
 195595643.116 7  37220618.602          42.000       -1951.129
 195924870.484 7  37283267.849          42.000       -1953.112
 07  8 29  8 57 52.9980000  0 12G19G 3G25G27G16G11G 8G13G22G18S29S37
 108214450.670 8  20592529.310          50.000       -1894.307
 109308745.522 8  20800766.018          48.000       -3462.992
 113613024.872 8  21619842.976          50.000       -1309.637
 120512082.501 6  22932707.876          38.000         161.849
 120236589.423 7  22880266.540          46.000       -4177.305
 121150203.472 7  23054120.958          42.000        1533.072
 128034417.04835  24364139.494          32.000        1475.517
 130584701.351 6  24849410.621          39.000       -4501.968
                  24760313.822          32.000        -560.344
 135389294.860 5  25763710.464          31.000       -1808.557
 195597592.820 7  37220989.560          43.000       -1946.987
 195926822.353 6  37283639.384          41.000       -1947.706
 07  8 29  8 57 53.9980000  0 12G19G 3G25G27G16G11G 8G13G22G18S29S37
 108216343.721 8  20592889.553          50.000       -1891.393
 109312207.140 8  20801424.904          48.000       -3459.446
 113614333.137 8  21620091.852          50.000       -1306.776
 120511918.965 6  22932676.606          37.000         164.830
 120240765.561 7  22881061.102          45.000       -4173.981
 121148668.818 7  23053829.069          42.000        1536.522
 128032938.11725  24363860.519          32.000        1479.407
 130589202.540 6  24850265.490          38.000       -4498.896
 130116899.93235  24760422.869          33.000        -558.113
 135391099.500 5  25764053.258          32.000       -1805.530
 195599538.580 7  37221359.820          42.000       -1942.582
 195928770.554 7  37284010.027          42.000       -1947.298
 07  8 29  8 57 54.9980000  0 12G19G 3G25G27G16G11G 8G13G22G18S29S37
 108218233.604 8  20593249.012          50.000       -1888.057
 109315665.502 8  20802083.041          48.000       -3456.227
 113615638.477 8  21620340.240          50.000       -1303.608
 120511752.322 6  22932645.092          38.000         166.375
 120244938.459 7  22881854.984          45.000       -4170.931
 121147130.875 7  23053536.273          43.000        1539.374
 128031456.03025  24363582.293          32.000        1482.390
 130593700.287 6  24851119.156          37.000       -4496.975
 130117455.71425  24760532.214          35.000        -553.213
 135392901.127 5  25764395.773          31.000       -1800.106
 195601480.854 7  37221729.697          42.000       -1938.794
 195930714.954 7  37284380.078          43.000       -1942.266
 07  8 29  8 57 55.9980000  0 12G19G 3G25G27G16G11G 8G13G22G18S29S37
 108220120.473 8  20593608.348          50.000       -1885.166
 109319120.735 8  20802740.880          48.000       -3453.533
 113616941.046 8  21620588.383          50.000       -1301.178
 120511582.821 6  22932612.287          38.000         170.565
 120249108.218 7  22882648.341          45.000       -4168.165
 121145589.787 7  23053242.988          43.000        1542.405
 128029970.94625  24363302.708          32.000        1486.514
 130598194.783 6  24851973.835          37.000       -4491.558
 130118008.45526  24760639.481          36.000        -550.959
 135394699.873 5  25764737.710          30.000       -1797.820
 195603419.971 7  37222098.803          43.000       -1939.291
 195932655.795 7  37284749.465          43.000       -1939.953
 07  8 29  8 57 56.9980000  0 12G19G 3G25G27G16G11G 8G13G22G18S29S37
 108222004.352 8  20593967.160          50.000       -1882.086
 109322572.901 8  20803397.812          48.000       -3450.321
 113618240.867 8  21620835.601          49.000       -1297.895
 120511410.361 6  22932579.185          37.000         172.723
 120253274.908 7  22883440.670          45.000       -4164.258
 121144045.598 7  23052949.565          43.000        1546.764
 128028482.70625  24363022.407          32.000        1491.636
 130602686.052 5  24852828.408          34.000       -4489.086
 130118558.13826  24760747.220          37.000        -547.275
 135396495.755 5  25765079.422          30.000       -1792.821
 195605355.756 7  37222467.093          43.000       -1932.239
 195934593.276 7  37285118.103          43.000       -1935.003
 07  8 29  8 57 57.9980000  0 12G19G 3G25G27G16G11G 8G13G22G18S29S37
 108223885.130 8  20594325.013          50.000       -1879.188
 109326021.871 8  20804053.941          48.000       -3447.665
 113619537.840 8  21621082.488          49.000       -1295.131
 120511234.960 6  22932545.595          37.000         178.298
 120257438.387 7  22884232.352          45.000       -4161.745
 121142498.148 7  23052655.267          43.000        1548.783
 128026991.27125  24362742.574          32.000        1489.499
 130607174.010 5  24853683.173          35.000       -4486.921
 130119104.79226  24760855.047          36.000        -543.089
 135398288.634 5  25765420.976          30.000       -1792.122
 195607288.158 7  37222834.718          42.000       -1928.833
 195936527.502 7  37285486.006          42.000       -1933.172
 07  8 29  8 57 58.9980000  0 12G19G 3G25G27G16G11G 8G13G22G18S29S37
 108225762.872 8  20594682.517          50.000       -1875.931
 109329467.707 8  20804709.809          48.000       -3444.080
 113620832.053 8  21621328.572          49.000       -1292.545
 120511056.579 6  22932511.603          36.000         180.513
 120261598.726 7  22885023.651          45.000       -4158.613
 121140947.614 7  23052360.116          42.000        1552.302
 128025496.79625  24362461.366          31.000        1493.819
 130611658.674 5  24854537.065          35.000       -4483.653
 130119648.39526  24760961.773          36.000        -541.302
                  25765757.889          27.000       -1788.560
 195609217.371 7  37223201.889          42.000       -1926.384
 195938458.599 7  37285853.509          42.000       -1929.589
 07  8 29  8 57 59.9980000  0 11G19G 3G25G27G16G11G 8G13G22S29S37
 108227637.596 8  20595039.514          50.000       -1872.967
 109332910.442 8  20805364.909          48.000       -3441.368
 113622123.495 8  21621574.586          49.000       -1289.917
 120510875.389 5  22932476.057          35.000         181.462
 120265755.981 7  22885814.479          45.000       -4155.733
 121139393.945 7  23052064.527          42.000        1554.455
                  24362179.387          32.000        1491.929
 130616140.066 6  24855390.819          36.000       -4479.553
 130120188.99526  24761067.906          36.000        -539.428
 195611143.026 7  37223568.345          42.000       -1922.781
 195940386.650 7  37286220.453          42.000       -1926.957
 07  8 29  8 58  0.9980000  0 11G19G 3G25G27G16G11G 8G13G22S29S37
 108229509.218 8  20595395.867          50.000       -1869.779
 109336349.987 7  20806019.293          47.000       -3438.189
 113623412.079 8  21621819.588          49.000       -1287.317
 120510691.136 6  22932439.797          36.000         184.942
 120269910.002 7  22886604.957          45.000       -4152.160
 121137837.036 7  23051768.102          42.000        1558.358
 128022628.52425  24361896.366          32.000        1504.312
 130620618.125 6  24856244.135          37.000       -4476.928
 130120726.505 6  24761173.638          37.000        -535.715
 195613065.243 7  37223934.399          42.000       -1920.828
 195942311.517 7  37286586.718          43.000       -1922.854
 07  8 29  8 58  1.9980000  0 11G19G 3G25G27G16G11G 8G13G22S29S37
 108231377.883 8  20595751.660          50.000       -1867.119
 109339786.459 7  20806672.822          47.000       -3434.912
 113624697.974 8  21622064.573          49.000       -1284.587
 120510504.013 6  22932404.200          36.000         188.900
 120274060.993 7  22887395.035          45.000       -4149.042
 121136277.082 7  23051471.240          42.000        1562.139
 128021124.75635  24361612.209          32.000        1508.117
 130625092.952 6  24857096.126          38.000       -4473.543
 130121261.029 6  24761277.032          37.000        -532.464
 195614983.858 7  37224299.459          42.000       -1915.954
 195944232.869 7  37286952.110          43.000       -1917.694
 07  8 29  8 58  2.9980000  0 11G19G 3G25G27G16G11G 8G13G22S29S37
 108233243.551 8  20596106.773          50.000       -1863.405
 109343219.846 7  20807325.951          47.000       -3431.138
 113625981.110 8  21622308.808          49.000       -1281.097
 120510314.036 6  22932367.468          36.000         191.234
 120278208.883 7  22888184.100          45.000       -4145.565
 121134713.972 7  23051173.645          42.000        1564.213
 128019617.90835  24361327.404          32.000        1509.031
 130629564.566 6  24857947.489          39.000       -4470.333
 130121792.612 6  24761378.593          36.000        -531.060
 195616899.653 7  37224664.048          43.000       -1911.741
 195946150.426 7  37287316.960          43.000       -1915.690
 07  8 29  8 58  3.9980000  0 11G19G 3G25G27G16G11G 8G13G22S29S37
 108235106.238 8  20596461.084          50.000       -1861.017
 109346650.138 7  20807978.747          47.000       -3428.494
 113627261.519 8  21622552.361          49.000       -1278.609
 120510121.162 5  22932330.649          35.000         194.227
 120282353.688 7  22888972.851          45.000       -4143.321
 121133147.788 7  23050875.666          42.000        1567.388
 128018108.10325  24361041.745          32.000        1513.140
 130634032.931 6  24858796.600          39.000       -4466.735
 130122321.155 5  24761479.823          35.000        -526.508
 195618811.938 7  37225027.851          42.000       -1910.559
 195948064.877 6  37287681.322          41.000       -1910.657
 07  8 29  8 58  4.9980000  0 12G19G 3G25G27G16G11G 8G13G22G23S29S37
 108236965.935 8  20596815.115          50.000       -1858.210
 109350077.355 7  20808630.810          47.000       -3425.497
 113628539.190 8  21622795.548          49.000       -1276.082
 120509925.446 5  22932292.993          35.000         196.983
 120286495.426 7  22889761.131          45.000       -4139.995
 121131578.513 7  23050577.636          42.000        1571.114
 128016595.18025  24360755.406          32.000        1515.511
 130638498.106 6  24859645.171          39.000       -4462.718
 130122846.783 5  24761578.732          35.000        -524.538
                  25505618.796          27.000       -4555.798
 195620720.616 7  37225390.992          42.000       -1906.217
 195949975.857 6  37288044.933          41.000       -1908.278
 07  8 29  8 58  5.9980000  0 12G19G 3G25G27G16G11G 8G13G22G23S29S37
 108238822.795 8  20597168.430          50.000       -1855.324
 109353501.642 7  20809282.368          47.000       -3422.644
 113629814.278 8  21623038.107          49.000       -1274.035
 120509726.965 5  22932254.272          34.000         200.212
 120290634.199 7  22890549.131          45.000       -4137.315
 121130006.281 7  23050278.453          42.000        1573.763
 128015079.40335  24360468.472          31.000        1516.309
 130642960.197 6  24860494.230          38.000       -4459.610
 130123369.531 5  24761677.378          34.000        -523.218
                  25506475.656          26.000       -4550.492
 195622626.385 7  37225753.905          42.000       -1903.991
 195951883.521 7  37288407.899          42.000       -1905.767
 07  8 29  8 58  6.9980000  0 12G19G 3G25G27G16G11G 8G13G22G23S29S37
 108240676.868 8  20597521.275          50.000       -1852.175
 109356923.049 7  20809932.965          47.000       -3419.281
 113631086.843 8  21623280.108          49.000       -1270.939
 120509525.801 5  22932215.673          34.000         203.357
 120294770.092 7  22891336.277          45.000       -4134.102
 121128431.156 7  23049978.904          43.000        1577.872
 128013560.70725  24360180.911          32.000        1519.606
 130647419.235 6  24861342.207          37.000       -4455.785
 130123889.491 5  24761775.503          34.000        -518.973
                  25507334.611          25.000       -4544.914
 195624528.805 7  37226116.050          42.000       -1900.797
 195953788.172 6  37288770.463          41.000       -1903.325
 07  8 29  8 58  7.9980000  0 12G19G 3G25G27G16G11G 8G13G22G23S29S37
 108242527.867 8  20597873.352          50.000       -1849.462
 109360341.288 7  20810583.319          47.000       -3416.114
 113632356.571 8  21623521.288          49.000       -1268.360
 120509321.679 5  22932177.284          35.000         205.124
 120298902.828 7  22892123.108          46.000       -4130.740
 121126852.826 7  23049678.866          43.000        1581.406
                  24359888.551          31.000        1522.882
 130651874.942 6  24862190.358          37.000       -4454.947
 130124406.410 5  24761872.912          33.000        -512.689
                  25508196.127          25.000       -4547.424
 195626427.871 7  37226477.568          42.000       -1895.710
 195955689.535 7  37289132.225          43.000       -1899.294
 07  8 29  8 58  8.9980000  0 12G19G 3G25G27G16G11G 8G13G22G23S29S37
 108244375.990 8  20598225.027          51.000       -1846.694
 109363756.541 7  20811232.956          47.000       -3413.323
 113633623.672 8  21623762.486          49.000       -1265.379
 120509114.731 5  22932137.986          35.000         204.997
 120303032.574 7  22892909.189          45.000       -4128.144
 121125271.494 7  23049377.868          43.000        1582.578
                  24359593.871          29.000        1527.492
 130656327.673 5  24863037.601          34.000       -4453.538
 130124920.449 5  24761969.656          33.000        -512.362
                  25509054.035          27.000       -4539.458
 195628323.868 7  37226838.317          43.000       -1894.118
 195957587.779 7  37289493.515          43.000       -1896.284
 07  8 29  8 58  9.9980000  0 12G19G 3G25G27G16G11G 8G13G22G23S29S37
 108246221.062 8  20598576.318          51.000       -1843.576
 109367168.654 7  20811882.105          47.000       -3410.945
 113634887.980 8  21624003.143          49.000       -1262.889
 120508904.36935  22932097.905          34.000         211.462
 120307159.163 7  22893694.922          46.000       -4124.707
 121123687.022 7  23049076.486          43.000        1585.435
                  24359302.610          31.000        1529.092
 130660777.006 5  24863884.831          34.000       -4443.331
 130125431.392 5  24762065.494          32.000        -508.990
                  25509912.796          27.000       -4537.128
 195630216.477 7  37227198.596          42.000       -1890.073
 195959482.471 6  37289854.108          41.000       -1893.417
 07  8 29  8 58 10.9980000  0 12G19G 3G25G27G16G11G 8G13G22G23S29S37
 108248063.336 8  20598927.121          51.000       -1841.119
 109370577.882 7  20812530.836          47.000       -3408.039
 113636149.743 8  21624243.277          49.000       -1260.642
 120508691.86325  22932057.404          35.000         213.799
 120311282.865 7  22894480.130          46.000       -4122.293
 121122099.630 7  23048774.564          43.000        1588.586
                  24359008.384          32.000        1532.326
 130665223.271 5  24864731.498          34.000       -4442.852
 130125939.602 5  24762160.790          32.000        -507.700
                  25510772.308          27.000       -4532.409
 195632105.655 7  37227558.229          42.000       -1886.841
 195961373.869 6  37290214.090          41.000       -1889.076
 07  8 29  8 58 11.9980000  0 12G19G 3G25G27G16G11G 8G13G22G23S29S37
 108249902.855 8  20599277.069          51.000       -1837.802
 109373984.239 7  20813178.746          47.000       -3405.362
 113637408.994 8  21624483.009          49.000       -1257.753
 120508476.65325  22932016.624          35.000         216.339
 120315403.709 7  22895264.885          46.000       -4119.667
 121120509.374 7  23048472.135          43.000        1592.079
                  24358716.723          30.000        1537.557
 130669666.584 5  24865577.450          34.000       -4442.666
 130126445.004 5  24762255.913          31.000        -503.071
                  25511630.703          26.000       -4529.694
 195633991.820 7  37227917.076          42.000       -1884.605
 195963261.510 7  37290573.408          42.000       -1886.071
 07  8 29  8 58 12.9980000  0 13G19G 3G25G27G16G11G 8G13G22G18G23S29
                                S37
 108251739.505 8  20599626.563          51.000       -1834.911
 109377387.666 7  20813826.028          46.000       -3401.533
 113638665.650 8  21624721.799          49.000       -1255.065
 120508258.70526  22931975.459          36.000         218.328
 120319521.600 7  22896049.169          46.000       -4116.186
 121118916.138 7  23048168.677          44.000        1595.502
 128004390.18735  24358425.671          33.000        1539.023
 130674106.778 5  24866422.077          35.000       -4438.139
 130126947.580 5  24762351.191          32.000        -503.822
                  25770520.329          28.000       -1750.798
                  25512488.330          26.000       -4526.548
 195635874.955 7  37228275.383          42.000       -1879.903
 195965146.011 6  37290932.168          41.000       -1883.832
 07  8 29  8 58 13.9980000  0 13G19G 3G25G27G16G11G 8G13G22G18G23S29
                                S37
 108253573.191 8  20599975.429          51.000       -1831.667
 109380787.986 7  20814472.665          46.000       -3398.273
 113639919.580 8  21624960.204          49.000       -1252.783
 120508037.88126  22931934.103          36.000         221.045
 120323636.385 7  22896832.423          46.000       -4113.510
 121117319.861 7  23047864.922          44.000        1597.311
 128002850.68625  24358133.084          33.000        1541.218
 130678543.739 5  24867266.058          34.000       -4433.639
 130127447.192 5  24762445.948          32.000        -498.574
                  25770841.012          28.000       -1749.579
                  25513344.004          26.000       -4520.319
 195637754.681 7  37228633.025          43.000       -1879.036
 195967027.538 6  37291290.039          41.000       -1879.594
 07  8 29  8 58 14.9980000  0 12G19G 3G25G27G16G11G 8G13G22G18S29S37
 108255404.084 8  20600323.178          51.000       -1829.357
 109384185.155 7  20815118.865          47.000       -3396.088
 113641171.164 8  21625198.366          49.000       -1249.552
 120507814.48027  22931894.214          43.000         225.560
 120327748.178 8  22897615.136          48.000       -4110.220
 121115721.276 7  23047560.696          46.000        1600.528
 128001308.19925  24357841.771          34.000        1543.995
 130682977.274 6  24868112.499          39.000       -4432.111
 130127943.846 6  24762538.365          37.000        -496.792
                  25771163.704          30.000       -1743.361
 195639631.955 7  37228990.285          43.000       -1875.458
 195968906.817 6  37291647.629          41.000       -1877.910
 07  8 29  8 58 15.9980000  0 12G19G 3G25G27G16G11G 8G13G22G18S29S37
 108257232.229 8  20600671.049          51.000       -1826.513
 109387579.763 7  20815764.663          47.000       -3393.316
 113642420.059 8  21625435.411          49.000       -1247.071
 120507588.34127  22931853.486          44.000         227.369
 120331857.245 8  22898396.942          48.000       -4107.410
 121114119.199 7  23047256.296          46.000        1603.943
                  24357548.855          30.000        1551.371
 130687408.248 6  24868958.190          39.000       -4430.734
 130128437.911 5  24762628.689          34.000        -492.943
                  25771490.286          31.000       -1740.832
 195641505.362 7  37229346.899          43.000       -1871.619
 195970782.587 6  37292004.715          41.000       -1873.910
 07  8 29  8 58 16.9980000  0 12G19G 3G25G27G16G11G 8G13G22G18S29S37
 108259057.630 8  20601018.588          51.000       -1823.893
 109390971.561 7  20816409.659          47.000       -3390.526
 113643666.465 8  21625672.176          49.000       -1245.458
 120507359.59127  22931811.414          44.000         229.915
 120335963.491 8  22899177.753          48.000       -4104.813
 121112514.252 7  23046952.017          46.000        1606.696
                  24357251.625          28.000        1552.564
 130691836.219 6  24869802.450          39.000       -4428.184
 130128929.260 5  24762720.286          33.000        -488.829
 135431814.82235  25771817.461          33.000       -1737.591
 195643375.855 7  37229703.094          43.000       -1868.461
 195972655.273 6  37292361.153          41.000       -1872.755
 07  8 29  8 58 17.9980000  0 12G19G 3G25G27G16G11G 8G13G22G18S29S37
 108260880.470 8  20601365.360          51.000       -1821.174
 109394360.682 7  20817054.987          47.000       -3387.369
 113644910.573 8  21625909.099          49.000       -1242.646
 120507128.35627  22931768.296          44.000         232.795
 120340067.077 8  22899958.477          48.000       -4101.775
 121110906.656 7  23046646.518          46.000        1609.789
                  24356956.437          30.000        1549.679
 130696261.392 6  24870645.995          40.000       -4423.552
 130129417.999 5  24762812.232          32.000        -488.345
 135433552.58925  25772144.635          32.000       -1737.117
 195645243.567 7  37230058.469          43.000       -1866.329
 195974525.067 7  37292717.052          42.000       -1868.715
 07  8 29  8 58 18.9980000  0 12G19G 3G25G27G16G11G 8G13G22G18S29S37
 108262700.550 8  20601711.713          51.000       -1818.493
 109397746.956 8  20817699.372          48.000       -3384.714
 113646152.148 8  21626145.463          49.000       -1240.100
 120506895.011 7  22931724.951          44.000         235.630
 120344167.804 8  22900738.572          48.000       -4099.636
 121109296.140 7  23046340.267          47.000        1612.220
                  24356658.895          28.000        1554.116
 130700683.569 6  24871488.615          39.000       -4420.587
 130129904.07135  24762903.289          32.000        -484.299
 135435287.70235  25772471.045          31.000       -1729.431
 195647108.094 7  37230413.268          44.000       -1862.337
 195976391.610 7  37293072.358          42.000       -1863.945
 07  8 29  8 58 19.9980000  0 12G19G 3G25G27G16G11G 8G13G22G18S29S37
 108264517.942 8  20602057.700          51.000       -1816.199
 109401130.459 8  20818343.339          48.000       -3381.796
 113647391.299 8  21626381.024          49.000       -1238.107
 120506658.576 7  22931680.017          44.000         238.324
 120348265.744 8  22901518.004          48.000       -4096.724
 121107682.864 7  23046033.423          46.000        1614.543
                  24356361.825          32.000        1561.296
 130705102.793 6  24872330.711          39.000       -4417.187
 130130387.36225  24762994.397          32.000        -482.427
 135437020.35835  25772799.178          32.000       -1731.875
 195648969.378 7  37230767.456          43.000       -1860.367
 195978255.097 6  37293426.982          40.000       -1861.735
 07  8 29  8 58 20.9980000  0 12G19G 3G25G27G16G11G 8G13G22G18S29S37
 108266332.629 8  20602403.389          51.000       -1813.357
 109404511.119 7  20818986.712          47.000       -3378.908
 113648628.020 8  21626616.690          49.000       -1235.638
 120506419.520 7  22931634.997          44.000         240.589
 120352360.863 8  22902297.367          48.000       -4093.499
 121106066.796 7  23045726.161          46.000        1617.603
                  24356067.090          30.000        1560.768
 130709519.059 6  24873171.656          38.000       -4414.110
 130130867.98125  24763085.366          32.000        -479.515
 135438750.30925  25773126.302          31.000       -1725.443
 195650827.945 7  37231121.208          43.000       -1856.449
 195980115.598 6  37293780.926          41.000       -1858.050
 07  8 29  8 58 21.9980000  0 12G19G 3G25G27G16G11G 8G13G22G18S29S37
 108268144.623 8  20602748.154          50.000       -1810.550
 109407888.640 8  20819629.719          48.000       -3375.753
 113649862.505 8  21626851.728          49.000       -1233.457
                  22931587.689          34.000         239.911
 120356453.008 8  22903076.189          48.000       -4090.260
 121104448.568 7  23045417.188          45.000        1619.550
 127990471.65035  24355777.017          35.000        1564.917
 130713931.882 5  24874012.059          34.000       -4411.260
 130131345.47126  24763177.155          39.000        -476.396
 135440477.18725  25773452.744          32.000       -1723.756
 195652683.736 6  37231474.018          41.000       -1854.067
 195981973.444 7  37294134.503          42.000       -1857.544
 07  8 29  8 58 22.9980000  0 12G19G 3G25G27G16G11G 8G13G22G18S29S37
 108269953.621 8  20603091.925          50.000       -1807.659
 109411262.646 8  20820272.307          48.000       -3371.960
 113651094.545 8  21627086.871          50.000       -1230.743
 120506043.49136  22931537.731          37.000         244.557
 120360541.743 7  22903854.889          47.000       -4087.563
 121102828.219 7  23045108.756          46.000        1621.530
                  24355481.814          30.000        1571.813
 130718340.640 5  24874850.212          35.000       -4407.640
 130131819.59025  24763268.019          33.000        -473.902
 135442199.66635  25773777.844          33.000       -1717.474
 195654536.729 7  37231826.478          42.000       -1851.240
 195983828.624 7  37294487.557          42.000       -1854.036
 07  8 29  8 58 23.9980000  0 12G19G 3G25G27G16G11G 8G13G22G18S29S37
 108271759.952 8  20603435.486          51.000       -1804.978
 109414633.513 8  20820913.342          48.000       -3369.802
 113652324.287 8  21627320.844          50.000       -1228.534
 120505796.38726  22931490.530          40.000         249.544
 120364627.609 8  22904633.344          48.000       -4084.399
 121101205.673 8  23044799.679          48.000        1624.521
 127987363.23236  24355185.596          36.000        1570.392
 130722745.85636  24875687.790          37.000       -4402.544
 130132291.53335  24763359.528          33.000        -474.720
 135443919.59825  25774103.935          32.000       -1720.630
 195656386.924 6  37232179.044          40.000       -1847.963
 195985681.303 6  37294839.982          41.000       -1850.867
 07  8 29  8 58 24.9980000  0 12G19G 3G25G27G16G11G 8G13G22G18S29S37
 108273563.589 8  20603778.471          50.000       -1801.419
 109418001.498 8  20821554.569          50.000       -3366.432
 113653551.645 8  21627554.190          48.000       -1225.516
 120505546.79326  22931443.886          41.000         251.747
 120368710.797 8  22905410.229          48.000       -4081.535
 121099580.604 8  23044489.939          48.000        1627.447
                  24354890.671          29.000        1573.245
 130727147.97135  24876525.209          35.000       -4400.359
 130132761.29435  24763448.421          31.000        -470.490
 135445638.18336  25774428.494          36.000       -1714.920
 195658234.651 6  37232530.597          39.000       -1845.654
 195987530.875 7  37295192.059          42.000       -1847.434
 07  8 29  8 58 25.9980000  0 12G19G 3G25G27G16G11G 8G13G22G18S29S37
 108275364.428 8  20604121.316          49.000       -1799.513
 109421366.619 8  20822194.452          50.000       -3362.931
 113654776.402 8  21627787.290          50.000       -1223.672
 120505294.05927  22931396.196          42.000         255.728
 120372791.512 7  22906186.293          46.000       -4079.307
 121097953.078 7  23044179.605          47.000        1628.133
                  24354593.564          30.000        1572.530
                  24877360.499          28.000       -4399.008
 130133226.57736  24763536.111          38.000        -463.130
 135447352.60625  25774749.439          33.000       -1713.402
 195660079.552 6  37232881.888          39.000       -1843.138
 195989377.677 6  37295543.437          36.000       -1846.025
 07  8 29  8 58 26.9980000  0 11G19G 3G25G27G16G11G 8G22G18S29S37
 108277162.216 8  20604463.132          50.000       -1796.106
 109424728.513 8  20822834.021          50.000       -3359.956
 113655998.422 8  21628019.868          51.000       -1220.444
 120505038.11426  22931346.934          38.000         255.807
 120376869.853 7  22906962.427          47.000       -4077.812
 121096323.695 8  23043869.114          48.000        1630.373
                  24354295.237          31.000        1579.983
 130133689.67326  24763621.862          39.000        -462.350
 135449065.12735  25775073.193          33.000       -1710.559
 195661922.074 6  37233232.587          37.000       -1838.552
 195991222.203 6  37295894.449          40.000       -1845.472
 07  8 29  8 58 27.9980000  0 11G19G 3G25G27G16G11G 8G22G18S29S37
 108278957.294 8  20604804.076          49.000       -1793.431
 109428087.971 8  20823473.363          49.000       -3358.028
 113657217.798 8  21628252.201          51.000       -1217.646
 120504779.35427  22931298.337          42.000         259.853
 120380946.150 8  22907738.440          50.000       -4074.318
 121094691.454 7  23043558.432          46.000        1634.436
 127981111.13935  24353995.828          33.000        1583.893
 130134151.07926  24763710.491          39.000        -464.936
 135450774.95635  25775397.033          31.000       -1714.084
 195663761.885 7  37233582.901          42.000       -1836.348
 195993063.821 6  37296245.288          39.000       -1838.005
 07  8 29  8 58 28.9980000  0 12G19G 3G25G27G16G11G 8G13G22G18S29S37
 108280749.732 8  20605144.775          49.000       -1790.930
 109431445.243 8  20824112.216          51.000       -3355.717
 113658434.469 8  21628484.063          50.000       -1215.130
 120504517.89527  22931248.448          43.000         262.325
 120385020.078 8  22908513.509          48.000       -4072.794
 121093055.329 7  23043246.633          44.000        1637.887
                  24353697.604          31.000        1584.843
 130744552.31635  24879861.135          33.000       -4393.380
 130134610.42536  24763798.076          41.000        -457.970
 135452485.29036  25775721.592          40.000       -1707.472
 195665598.893 7  37233932.708          43.000       -1835.780
 195994901.738 6  37296595.341          40.000       -1835.539
 07  8 29  8 58 29.9980000  0 12G19G 3G25G27G16G11G 8G13G22G18S29S37
 108282539.412 8  20605485.753          49.000       -1787.876
 109434799.931 8  20824750.441          51.000       -3353.388
 113659648.369 8  21628714.739          49.000       -1212.340
 120504253.49927  22931198.681          42.000         265.726
 120389091.836 7  22909288.143          45.000       -4070.709
 121091416.390 7  23042935.619          42.000        1641.719
 127977981.76736  24353400.288          36.000        1586.648
                  24880689.847          31.000       -4389.498
 130135067.80427  24763884.856          42.000        -456.232
 135454191.36826  25776042.625          36.000       -1705.156
 195667432.959 7  37234281.697          42.000       -1829.434
 195996737.159 6  37296944.851          39.000       -1836.017
 07  8 29  8 58 30.9980000  0 12G19G 3G25G27G16G11G 8G13G22G18S29S37
 108284326.397 8  20605825.911          48.000       -1785.762
 109438152.085 8  20825388.056          51.000       -3350.938
 113660859.609 8  21628945.135          51.000       -1209.796
 120503986.806 7  22931147.361          44.000         268.097
 120393161.331 7  22910062.950          47.000       -4069.342
 121089774.553 7  23042624.656          45.000        1643.085
                  24353091.910          35.000        1591.816
 130753273.07135  24881520.583          33.000       -4386.368
 130135523.11727  24763971.585          44.000        -453.672
 135455895.28726  25776366.240          39.000       -1702.570
 195669263.687 6  37234629.969          39.000       -1829.130
 195998570.063 6  37297293.648          39.000       -1830.002
 07  8 29  8 58 31.9980000  0 12G19G 3G25G27G16G11G 8G13G22G18S29S37
 108286110.733 8  20606166.418          49.000       -1782.710
 109441501.833 8  20826025.356          51.000       -3347.772
 113662068.325 8  21629175.270          51.000       -1207.031
 120503716.985 7  22931095.988          45.000         271.056
 120397228.616 8  22910836.572          48.000       -4066.272
 121088129.747 7  23042312.125          44.000        1647.191
                  24352788.343          34.000        1583.900
 130757658.29636  24882349.785          36.000       -4380.015
 130135976.14436  24764057.965          39.000        -450.304
 135457597.43226  25776690.081          37.000       -1702.525
 195671091.539 6  37234977.963          40.000       -1823.875
 196000399.27736  37297642.200          38.000       -1826.973
 07  8 29  8 58 32.9980000  0 12G19G 3G25G27G16G11G 8G13G22G18S29S37
 108287892.613 8  20606505.895          48.000       -1781.351
 109444849.277 8  20826662.133          48.000       -3346.001
 113663274.674 8  21629404.514          50.000       -1204.833
 120503444.955 7  22931043.726          47.000         272.841
 120401293.290 8  22911609.723          48.000       -4062.727
 121086481.702 6  23041999.087          40.000        1651.084
                  24352489.685          32.000        1591.802
                  24883182.073          32.000       -4381.769
 130136427.17226  24764141.988          41.000        -449.386
 135459297.75326  25777013.732          37.000       -1699.926
 195672915.663 7  37235325.031          43.000       -1822.295
 196002226.38516  37297989.774          40.000       -1824.294
 07  8 29  8 58 33.9980000  0 12G19G 3G25G27G16G11G 8G13G22G18S29S37
 108289672.558 8  20606844.256          48.000       -1778.598
 109448194.463 7  20827298.055          47.000       -3343.554
 113664479.513 8  21629633.304          50.000       -1203.695
 120503171.785 8  22930991.393          48.000         274.409
 120405354.395 8  22912382.629          48.000       -4059.451
 121084830.424 6  23041683.239          41.000        1653.406
 127971614.79635  24352188.774          31.000        1591.041
                  24884009.406          28.000       -4378.740
 130136875.01127  24764227.007          43.000        -445.961
 135460995.79426  25777337.277          40.000       -1697.224
 195674736.024 7  37235671.437          44.000       -1817.439
 196004049.500 6  37298336.878          39.000       -1820.908
 07  8 29  8 58 34.9980000  0 12G19G 3G25G27G16G11G 8G13G22G18S29S37
 108291450.058 8  20607182.704          49.000       -1775.908
 109451537.061 8  20827934.308          48.000       -3340.862
 113665682.302 8  21629862.618          49.000       -1201.574
 120502896.500 8  22930938.677          48.000         276.220
 120409412.311 8  22913154.889          48.000       -4056.352
 121083176.094 6  23041365.977          41.000        1655.460
 127970019.09825  24351888.039          32.000        1596.479
                  24884839.392          27.000       -4374.659
 130137319.92427  24764311.188          43.000        -443.793
 135462691.42326  25777659.915          38.000       -1695.261
 195676553.240 7  37236017.354          43.000       -1814.110
 196005868.941 6  37298683.022          36.000       -1815.912
 07  8 29  8 58 35.9980000  0 13G19G 3G25G27G16G11G 8G13G22G18G23S29
                                S37
 108293224.777 8  20607520.262          48.000       -1773.076
 109454877.030 8  20828569.951          48.000       -3338.344
 113666882.310 8  21630090.746          48.000       -1198.392
 120502618.229 8  22930885.507          48.000         280.116
 120413468.436 7  22913926.050          46.000       -4055.054
 121081519.142 7  23041050.932          42.000        1657.968
