     2.11           OBSERVATION DATA    M (MIXED)           RINEX VERSION / TYPE
teqc  2007Jun25                         20070903 18:34:45UTCPGM / RUN BY / DATE
MSXP|IAx86-PII|bcc32 5.0|MSWin95->XP|486/DX+                COMMENT
-Unknown-                                                   MARKER NAME
-Unknown-           -Unknown-                               OBSERVER / AGENCY
-Unknown-           U-BLOX              -Unknown-           REC # / TYPE / VERS
-Unknown-           -Unknown-                               ANT # / TYPE
        0.0000        0.0000        0.0000                  APPROX POSITION XYZ
        0.0000        0.0000        0.0000                  ANTENNA: DELTA H/E/N
     1     0                                                WAVELENGTH FACT L1/2
     4    L1    C1    S1    D1                              # / TYPES OF OBSERV
 SNR is mapped to RINEX snr flag value [0-9]                COMMENT
  L1 & L2: min(max(int(snr_dBHz/6), 0), 9)                  COMMENT
  2007     8    29     9    28   16.0020000     GPS         TIME OF FIRST OBS
    14                                                      LEAP SECONDS
                                                            END OF HEADER
 07  8 29  9 28 16.0020000  0  9G19G25G 3G27G11G 8G16S29S37
 107807714.939 8  21114711.258          48.000       -2557.280
 112603754.439 8  22027370.665          50.000       -2508.825
 111599668.232 7  21836296.201          44.000       -3945.778
 116640373.846 8  22795513.855          50.000        -867.521
 114408277.161 8  22370753.449          51.000         882.921
 124681471.83925  23726087.617          33.000         684.655
 123848684.958 7  24167215.987          42.000       -4710.847
 197891446.194 7  37657493.770          44.000       -2048.135
 198224232.260 6  37720822.493          41.000       -2052.010
 07  8 29  9 28 17.0020000  0 10G19G25G 3G27G11G 8G16G22S29S37
 107810270.784 8  21115197.702          48.000       -2553.765
 112606261.591 8  22027847.633          50.000       -2505.227
 111603612.734 7  21837046.772          44.000       -3941.957
 116641240.237 8  22795679.005          50.000        -864.145
 114407392.842 8  22370585.160          51.000         886.769
 124680785.97325  23725956.409          33.000         687.377
 123853393.837 7  24168112.039          43.000       -4706.810
                  24844062.985          26.000       -1425.916
 197893493.172 7  37657883.173          44.000       -2045.208
 198226281.238 6  37721212.316          40.000       -2046.628
 07  8 29  9 28 18.0020000  0  9G19G25G 3G27G11G 8G16S29S37
 107812822.747 8  21115683.255          48.000       -2550.139
 112608765.189 8  22028324.287          50.000       -2501.650
 111607553.249 7  21837796.591          44.000       -3938.423
 116642103.041 8  22795843.265          50.000        -861.113
 114406504.739 8  22370416.313          51.000         890.341
 124680096.52625  23725825.203          34.000         691.284
 123858098.778 7  24169007.272          43.000       -4702.689
 197895536.442 7  37658272.070          44.000       -2040.734
 198228326.326 6  37721601.370          41.000       -2043.013
 07  8 29  9 28 19.0020000  0  9G19G25G 3G27G11G 8G16S29S37
 107815370.980 8  21116168.146          48.000       -2545.877
 112611265.383 8  22028800.033          50.000       -2498.139
 111611489.957 7  21838545.975          44.000       -3934.295
 116642962.397 8  22796006.845          50.000        -857.205
 114405612.995 8  22370246.716          51.000         893.715
 124679403.531 5  23725693.491          33.000         697.564
 123862799.950 7  24169901.580          43.000       -4699.004
 197897575.818 7  37658660.095          45.000       -2036.767
 198230367.470 6  37721989.831          40.000       -2038.558
 07  8 29  9 28 20.0020000  0  9G19G25G 3G27G11G 8G16S29S37
 107817915.588 8  21116652.216          48.000       -2542.877
 112613762.289 8  22029275.221          50.000       -2495.271
 111615422.936 7  21839294.678          44.000       -3930.737
 116643818.421 8  22796169.447          50.000        -854.486
 114404717.732 8  22370076.403          51.000         897.110
 124678707.072 5  23725560.904          33.000         696.836
 123867497.449 7  24170795.277          42.000       -4695.145
 197899611.162 7  37659047.439          44.000       -2032.568
 198232404.698 6  37722377.507          40.000       -2033.177
 07  8 29  9 28 21.0020000  0  9G19G25G 3G27G11G 8G16S29S37
 107820456.391 8  21117135.676          48.000       -2538.495
 112616255.696 8  22029750.183          50.000       -2491.507
 111619352.021 7  21840042.491          44.000       -3926.785
 116644670.941 8  22796331.578          50.000        -850.894
 114403818.761 8  22369905.270          51.000         900.922
 124678007.076 5  23725427.761          33.000         702.849
 123872191.108 7  24171687.944          42.000       -4691.813
 197901642.677 7  37659434.207          45.000       -2028.826
 198234437.673 6  37722764.414          40.000       -2030.089
 07  8 29  9 28 22.0020000  0 10G19G25G 3G27G11G 8G16G22S29S37
 107822993.535 8  21117618.263          48.000       -2535.308
 112618745.772 8  22030224.202          50.000       -2488.287
 111623277.348 7  21840789.711          44.000       -3923.682
 116645520.090 8  22796493.378          50.000        -847.552
 114402916.231 8  22369733.596          51.000         904.653
 124677303.610 5  23725293.727          34.000         706.948
 123876881.054 7  24172580.367          42.000       -4688.258
                  24845461.523          28.000       -1407.902
 197903669.814 7  37659820.068          43.000       -2023.749
 198236466.534 6  37723150.553          39.000       -2029.227
 07  8 29  9 28 23.0020000  0 10G19G25G 3G27G11G 8G16G22S29S37
 107825526.824 8  21118100.187          48.000       -2531.563
 112621232.327 8  22030697.261          50.000       -2484.566
 111627198.710 7  21841536.460          44.000       -3919.052
 116646365.664 8  22796654.445          50.000        -843.851
 114402009.940 8  22369561.102          51.000         908.273
 124676596.486 5  23725159.100          33.000         710.941
 123881567.090 7  24173472.180          42.000       -4682.923
                  24845734.341          29.000       -1404.065
 197905693.083 7  37660204.934          44.000       -2021.078
 198238491.488 6  37723535.943          40.000       -2025.756
 07  8 29  9 28 24.0020000  0 10G19G25G 3G27G11G 8G16G22S29S37
 107828056.428 8  21118581.535          48.000       -2528.125
 112623715.533 8  22031169.762          50.000       -2480.889
 111631116.315 7  21842282.440          44.000       -3915.031
 116647207.856 8  22796814.447          50.000        -840.257
 114401100.073 8  22369388.015          51.000         911.704
 124675885.903 5  23725023.897          33.000         714.364
 123886249.413 7  24174363.189          42.000       -4680.567
                  24846005.866          30.000       -1403.547
 197907712.474 7  37660589.137          43.000       -2015.612
 198240512.428 6  37723920.653          40.000       -2016.894
 07  8 29  9 28 25.0020000  0 10G19G25G 3G27G11G 8G16G22S29S37
 107830582.374 8  21119062.221          48.000       -2523.438
 112626195.396 8  22031641.896          50.000       -2477.594
 111635030.163 7  21843027.444          44.000       -3911.133
 116648046.682 8  22796974.223          50.000        -836.713
 114400186.637 8  22369214.247          51.000         915.514
 124675171.861 5  23724888.101          34.000         716.920
 123890928.017 7  24175253.762          43.000       -4677.034
                  24846275.894          30.000       -1395.127
 197909727.624 7  37660972.537          44.000       -2011.915
 198242529.368 6  37724304.716          40.000       -2016.100
 07  8 29  9 28 26.0020000  0 10G19G25G 3G27G11G 8G16G22S29S37
 107833104.480 8  21119542.243          48.000       -2520.081
 112628671.755 8  22032112.635          50.000       -2474.447
 111638940.079 7  21843771.383          44.000       -3907.714
 116648881.950 8  22797132.916          50.000        -833.402
 114399269.466 8  22369039.694          51.000         919.115
 124674454.150 5  23724751.780          34.000         717.703
 123895602.733 7  24176143.376          42.000       -4672.562
                  24846544.104          29.000       -1394.345
 197911738.538 7  37661355.012          44.000       -2008.454
 198244542.276 6  37724687.645          40.000       -2011.125
 07  8 29  9 28 27.0020000  0 10G19G25G 3G27G11G 8G16G22S29S37
 107835622.863 8  21120021.636          48.000       -2516.536
 112631144.710 8  22032583.268          50.000       -2471.302
 111642846.176 7  21844514.607          44.000       -3903.906
 116649713.792 8  22797291.453          50.000        -830.503
 114398348.676 8  22368864.373          51.000         922.635
 124673732.947 5  23724614.710          34.000         722.061
 123900273.692 7  24177031.959          42.000       -4668.876
                  24846806.660          29.000       -1394.497
 197913745.597 7  37661736.911          45.000       -2005.662
 198246551.328 6  37725069.876          40.000       -2006.673
 07  8 29  9 28 28.0020000  0 10G19G25G 3G27G11G 8G16G22S29S37
 107838137.770 8  21120500.175          48.000       -2513.025
 112633614.514 8  22033053.099          50.000       -2468.011
 111646748.688 7  21845256.801          44.000       -3900.278
 116650542.455 8  22797449.065          49.000        -826.676
 114397424.515 8  22368688.616          51.000         926.097
 124673008.505 5  23724477.153          33.000         729.119
 123904941.147 7  24177920.264          42.000       -4664.954
                  24847065.502          26.000       -1388.193
 197915748.859 7  37662118.009          43.000       -2000.932
 198248556.464 6  37725451.287          39.000       -2002.543
 07  8 29  9 28 29.0020000  0 10G19G25G 3G27G11G 8G16G22S29S37
 107840649.135 7  21120978.103          47.000       -2509.149
 112636081.085 8  22033522.476          50.000       -2464.877
 111650647.554 7  21845998.803          44.000       -3896.991
 116651367.857 8  22797606.065          49.000        -823.638
 114396496.900 8  22368512.003          51.000         929.562
 124672280.670 5  23724338.581          33.000         730.039
 123909604.984 7  24178807.330          42.000       -4661.918
                  24847326.908          26.000       -1383.501
 197917748.624 7  37662498.669          44.000       -1996.729
 198250557.843 6  37725832.139          40.000       -2000.971
 07  8 29  9 28 30.0020000  0 10G19G25G 3G27G11G 8G16G22S29S37
 107843156.926 8  21121454.984          48.000       -2505.795
 112638544.427 8  22033991.417          50.000       -2461.752
 111654542.778 7  21846739.880          44.000       -3893.294
 116652189.993 8  22797762.490          49.000        -820.431
 114395565.826 8  22368334.850          51.000         932.679
 124671549.524 5  23724199.294          33.000         731.867
 123914265.234 7  24179693.889          42.000       -4658.541
                  24847582.644          25.000       -1375.203
 197919744.302 7  37662878.405          43.000       -1992.703
 198252555.768 6  37726212.328          40.000       -1997.363
 07  8 29  9 28 31.0020000  0 10G19G25G 3G27G11G 8G16G22S29S37
 107845661.097 8  21121931.725          48.000       -2501.983
 112641004.465 8  22034459.294          50.000       -2458.251
 111658434.290 7  21847480.382          44.000       -3889.033
 116653008.791 8  22797918.252          49.000        -817.251
 114394631.221 8  22368157.016          51.000         936.319
 124670814.968 5  23724060.008          33.000         736.013
 123918921.794 7  24180580.065          42.000       -4654.407
                  24847806.738          23.000       -1378.571
 197921736.873 7  37663257.669          44.000       -1990.330
 198254549.738 6  37726591.820          40.000       -1991.210
 07  8 29  9 28 32.0020000  0 10G19G25G 3G27G11G 8G16G22S29S37
 107848161.688 7  21122407.577          47.000       -2498.680
 112643461.264 8  22034926.734          50.000       -2455.209
 111662322.155 7  21848220.359          44.000       -3886.039
 116653824.322 8  22798073.648          49.000        -813.528
 114393693.130 8  22367978.188          51.000         939.931
 124670077.009 5  23723920.042          34.000         740.967
 123923574.741 7  24181465.212          42.000       -4651.001
                  24848013.437          25.000       -1375.345
 197923725.120 7  37663635.956          44.000       -1986.777
 198256539.747 6  37726970.509          40.000       -1986.406
 07  8 29  9 28 33.0020000  0 10G19G25G 3G27G11G 8G16G22S29S37
 107850658.929 7  21122883.026          47.000       -2495.496
 112645915.028 8  22035393.703          50.000       -2452.015
 111666206.538 7  21848959.412          44.000       -3882.817
 116654636.768 8  22798228.240          49.000        -810.955
 114392751.799 8  22367799.115          51.000         943.092
 124669335.937 5  23723778.975          34.000         743.942
 123928224.283 7  24182350.497          42.000       -4647.412
                  24848268.005          24.000       -1365.575
 197925710.150 7  37664013.703          44.000       -1981.922
 198258525.973 6  37727348.394          40.000       -1984.927
 07  8 29  9 28 34.0020000  0 10G19G25G 3G27G11G 8G16G22S29S37
 107853152.613 8  21123357.342          48.000       -2491.836
 112648365.569 8  22035860.236          50.000       -2448.828
 111670087.286 7  21849697.628          44.000       -3878.572
 116655445.970 8  22798382.327          49.000        -807.437
 114391807.014 8  22367619.553          51.000         946.672
 124668591.499 5  23723637.473          34.000         748.990
 123932870.239 7  24183234.945          43.000       -4644.626
                  24848529.304          26.000       -1366.320
 197927690.635 7  37664390.664          43.000       -1977.449
 198260508.232 6  37727725.687          39.000       -1980.071
 07  8 29  9 28 35.0020000  0 10G19G25G 3G27G11G 8G16G22S29S37
 107855642.836 7  21123831.082          47.000       -2488.424
 112650812.965 8  22036326.228          50.000       -2445.440
 111673964.459 7  21850435.267          44.000       -3875.203
 116656251.988 8  22798535.908          49.000        -804.358
 114390858.859 8  22367439.067          51.000         950.127
 124667843.789 5  23723495.307          34.000         749.446
 123937512.675 7  24184118.451          42.000       -4640.683
                  24848793.083          27.000       -1363.106
 197929667.243 7  37664766.857          43.000       -1974.035
 198262486.701 6  37728102.334          40.000       -1976.612
 07  8 29  9 28 36.0020000  0 10G19G25G 3G27G11G 8G16G22S29S37
 107858129.667 8  21124304.316          48.000       -2484.951
 112653257.287 8  22036791.399          50.000       -2442.424
 111677838.140 7  21851172.453          44.000       -3871.498
 116657054.911 8  22798688.493          49.000        -801.172
 114389907.409 8  22367257.988          51.000         953.528
 124667092.923 5  23723352.373          34.000         751.270
 123942151.674 7  24185001.626          42.000       -4637.059
                  24849055.117          26.000       -1359.385
 197931640.204 7  37665142.352          43.000       -1971.874
 198264461.287 6  37728478.039          40.000       -1973.190
 07  8 29  9 28 37.0020000  0 10G19G25G 3G27G11G 8G16G22S29S37
 107860613.176 8  21124777.218          48.000       -2481.689
 112655698.618 8  22037256.047          50.000       -2440.076
 111681708.395 7  21851908.714          44.000       -3868.032
 116657854.798 8  22798840.765          49.000        -798.568
 114388952.731 8  22367076.262          51.000         956.226
 124666338.917 5  23723209.178          34.000         754.974
 123946787.302 7  24185883.805          42.000       -4634.110
                  24849316.820          28.000       -1353.716
 197933609.843 7  37665517.079          43.000       -1968.367
 198266432.392 6  37728853.027          39.000       -1971.016
 07  8 29  9 28 38.0020000  0 10G19G25G 3G27G11G 8G16G22S29S37
 107863093.397 8  21125249.160          48.000       -2478.757
 112658137.008 8  22037720.486          50.000       -2436.762
 111685575.273 7  21852644.783          43.000       -3864.922
 116658651.710 8  22798992.601          49.000        -795.018
 114387994.892 8  22366894.310          51.000         959.762
 124665581.876 5  23723065.406          34.000         758.192
 123951419.620 7  24186764.903          42.000       -4629.783
                  24849579.881          29.000       -1356.966
 197935575.891 7  37665890.986          45.000       -1964.175
 198268399.872 6  37729227.686          41.000       -1963.961
 07  8 29  9 28 39.0020000  0 10G19G25G 3G27G11G 8G16G22S29S37
 107865570.290 8  21125720.632          48.000       -2474.845
 112660572.384 8  22038184.157          50.000       -2433.442
 111689438.713 7  21853380.101          43.000       -3861.189
 116659445.571 8  22799143.616          49.000        -792.129
 114387033.808 8  22366711.660          51.000         962.948
 124664821.685 5  23722920.781          35.000         762.207
 123956048.566 7  24187645.285          42.000       -4626.263
                  24849843.747          29.000       -1351.458
 197937538.017 7  37666264.388          44.000       -1959.728
 198270363.474 6  37729601.278          40.000       -1962.726
 07  8 29  9 28 40.0020000  0 10G19G25G 3G27G11G 8G16G22S29S37
 107868043.923 8  21126191.562          48.000       -2471.938
 112663004.819 8  22038647.287          50.000       -2430.506
 111693298.794 7  21854114.408          43.000       -3857.891
 116660236.463 8  22799294.003          49.000        -789.184
 114386069.562 8  22366527.893          51.000         965.755
 124664058.408 5  23722775.334          34.000         765.746
 123960674.179 7  24188525.196          42.000       -4624.061
                  24850107.665          31.000       -1350.220
 197939496.793 7  37666637.300          44.000       -1956.555
 198272323.859 6  37729974.104          40.000       -1958.250
 07  8 29  9 28 41.0020000  0 10G19G25G 3G27G11G 8G16G22S29S37
 107870514.080 8  21126661.532          48.000       -2468.470
 112665434.098 8  22039109.684          50.000       -2427.897
 111697155.300 7  21854848.103          43.000       -3855.487
 116661024.177 8  22799443.919          49.000        -786.254
 114385101.945 8  22366344.056          51.000         968.737
 124663291.931 5  23722629.747          35.000         766.138
 123965296.295 7  24189404.462          42.000       -4620.088
                  24850370.415          33.000       -1344.453
 197941452.116 7  37667009.445          44.000       -1953.495
 198274280.521 6  37730346.528          40.000       -1954.751
 07  8 29  9 28 42.0020000  0 10G19G25G 3G27G11G 8G16G22S29S37
 107872980.981 8  21127131.049          48.000       -2465.163
 112667860.446 8  22039571.418          50.000       -2424.892
 111701008.456 7  21855581.101          43.000       -3851.411
 116661808.927 8  22799593.573          49.000        -782.860
 114384131.172 8  22366159.329          51.000         972.653
 124662522.364 5  23722483.272          35.000         771.162
 123969915.106 7  24190283.361          42.000       -4616.547
 130590965.15325  24850634.490          34.000       -1342.974
 197943403.991 7  37667380.822          43.000       -1949.344
 198276233.828 6  37730718.480          40.000       -1952.313
 07  8 29  9 28 43.0020000  0 10G19G25G 3G27G11G 8G16G22S29S37
 107875444.682 8  21127600.112          48.000       -2462.285
 112670283.930 8  22040032.820          51.000       -2421.837
 111704858.313 7  21856313.418          43.000       -3847.657
 116662590.780 8  22799742.233          50.000        -780.249
 114383157.308 8  22365973.974          51.000         975.722
 124661749.867 5  23722336.290          35.000         774.242
 123974530.678 7  24191161.614          42.000       -4613.292
 130592310.31135  24850915.631          34.000       -1339.847
 197945352.296 7  37667751.483          45.000       -1946.388
 198278184.232 6  37731089.543          40.000       -1949.003
 07  8 29  9 28 44.0020000  0 10G19G25G 3G27G11G 8G16G22S29S37
 107877905.127 8  21128067.989          48.000       -2458.731
 112672704.467 8  22040493.629          51.000       -2418.798
 111708704.810 7  21857045.229          43.000       -3845.209
 116663369.658 8  22799890.369          49.000        -777.086
 114382180.283 8  22365787.869          51.000         978.873
 124660974.213 5  23722188.418          34.000         776.722
 123979142.944 7  24192039.483          42.000       -4609.735
 130593648.22825  24851169.656          34.000       -1335.678
 197947297.027 7  37668121.587          44.000       -1941.526
 198280131.072 6  37731460.065          40.000       -1944.488
 07  8 29  9 28 45.0020000  0 10G19G25G 3G27G11G 8G16G22S29S37
 107880362.306 8  21128535.830          48.000       -2455.782
 112675122.090 8  22040953.461          51.000       -2416.437
 111712547.968 7  21857776.430          43.000       -3841.318
 116664145.572 8  22800037.824          49.000        -774.187
 114381200.090 8  22365601.501          51.000         981.713
 124660195.606 5  23722040.092          34.000         779.620
 123983751.878 7  24192916.742          42.000       -4607.442
 130594983.24225  24851430.991          33.000       -1333.096
 197949237.851 7  37668491.009          45.000       -1939.318
 198282074.414 6  37731830.010          40.000       -1942.284
 07  8 29  9 28 46.0020000  0 10G19G25G 3G27G11G 8G16G22S29S37
 107882816.450 8  21129002.764          48.000       -2452.324
 112677536.991 8  22041413.135          51.000       -2413.436
 111716387.987 7  21858506.915          43.000       -3837.320
 116664918.738 8  22800185.297          49.000        -771.037
 114380216.956 8  22365414.175          50.000         985.148
 124659414.135 5  23721891.191          34.000         783.161
 123988357.750 7  24193793.459          42.000       -4603.907
 130596315.39125  24851688.260          34.000       -1331.479
 197951175.773 7  37668859.785          44.000       -1935.544
 198284014.115 6  37732198.998          40.000       -1935.949
 07  8 29  9 28 47.0020000  0 10G19G25G 3G27G11G 8G16G22S29S37
 107885267.426 8  21129469.123          48.000       -2449.476
 112679949.034 8  22041872.356          50.000       -2410.686
 111720224.728 7  21859236.562          43.000       -3834.751
 116665689.040 8  22800331.915          49.000        -769.071
 114379230.770 8  22365226.638          50.000         987.781
 124658629.707 5  23721742.010          33.000         787.149
 123992960.393 7  24194669.426          43.000       -4601.200
 130597644.54525  24851942.285          33.000       -1328.200
 197953109.950 7  37669227.794          44.000       -1932.658
 198285950.092 6  37732567.442          40.000       -1934.988
 07  8 29  9 28 48.0020000  0 10G19G25G 3G27G11G 8G16G22S29S37
 107887715.362 8  21129934.818          48.000       -2446.348
 112682358.373 8  22042331.281          51.000       -2408.093
 111724058.346 7  21859966.069          43.000       -3831.680
 116666456.598 8  22800478.236          50.000        -766.061
 114378241.626 8  22365037.898          50.000         990.967
 124657842.430 5  23721592.236          33.000         788.464
 123997559.952 7  24195544.643          43.000       -4597.788
 130598970.96525  24852195.122          33.000       -1325.510
 197955040.655 7  37669595.261          43.000       -1931.166
 198287882.732 6  37732935.364          40.000       -1930.760
 07  8 29  9 28 49.0020000  0 10G19G25G 3G27G11G 8G16G22S29S37
 107890160.180 8  21130400.181          48.000       -2443.543
 112684764.934 8  22042788.791          51.000       -2405.270
 111727888.770 7  21860694.774          43.000       -3828.138
 116667221.320 8  22800623.667          50.000        -763.241
 114377249.480 8  22364849.053          50.000         993.739
 124657052.355 5  23721441.153          33.000         790.976
 124002156.376 7  24196419.546          43.000       -4594.739
 130600294.46125  24852447.331          33.000       -1321.172
 197956968.304 7  37669962.206          43.000       -1926.515
 198289812.110 6  37733302.815          40.000       -1926.715
 07  8 29  9 28 50.0020000  0 10G19G25G 3G27G11G 8G16G22S29S37
 107892601.781 8  21130864.917          48.000       -2439.789
 112687168.588 8  22043246.093          51.000       -2402.047
 111731715.855 7  21861422.868          44.000       -3824.879
 116667983.122 8  22800768.540          50.000        -760.659
 114376254.211 8  22364659.771          50.000         997.217
 124656259.168 5  23721290.053          33.000         795.210
 124006749.518 7  24197293.559          43.000       -4590.670
                  24852698.789          31.000       -1322.201
 197958892.609 7  37670328.471          45.000       -1921.923
 198291738.001 6  37733669.044          40.000       -1922.193
 07  8 29  9 28 51.0020000  0 10G19G25G 3G27G11G 8G16G22S29S37
 107895040.319 8  21131328.745          48.000       -2437.206
 112689569.515 8  22043703.429          51.000       -2399.759
 111735539.806 7  21862150.823          44.000       -3822.247
 116668742.158 8  22800913.012          50.000        -757.378
 114375255.989 8  22364470.036          50.000         999.582
 124655463.149 5  23721138.585          33.000         795.656
 124011339.575 7  24198166.891          43.000       -4588.555
                  24852949.027          30.000       -1317.413
 197960813.455 7  37670693.932          44.000       -1917.962
 198293660.588 6  37734034.854          41.000       -1920.765
 07  8 29  9 28 52.0020000  0 10G19G25G 3G27G11G 8G16G22S29S37
 107897475.740 8  21131792.241          48.000       -2433.803
 112691967.643 8  22044159.963          51.000       -2396.847
 111739360.512 7  21862877.747          43.000       -3819.042
 116669498.364 8  22801057.186          50.000        -754.290
 114374254.727 8  22364279.429          50.000        1002.638
 124654664.20635  23720985.688          32.000         799.461
 124015926.458 7  24199039.717          43.000       -4584.947
                  24853198.863          31.000       -1314.096
 197962731.073 7  37671059.009          43.000       -1915.890
 198295579.886 6  37734400.367          40.000       -1917.198
 07  8 29  9 28 53.0020000  0 10G19G25G 3G27G11G 8G16G22S29S37
 107899908.065 8  21132255.144          48.000       -2430.710
 112694363.007 8  22044615.467          51.000       -2393.714
 111743178.045 7  21863604.202          44.000       -3814.584
 116670251.754 8  22801200.663          50.000        -751.775
 114373250.485 8  22364088.420          50.000        1006.564
 124653862.43635  23720832.407          31.000         803.767
 124020510.197 7  24199912.020          43.000       -4582.351
                  24853444.092          29.000       -1310.980
 197964645.077 7  37671423.161          44.000       -1912.503
 198297495.868 6  37734765.147          40.000       -1914.906
 07  8 29  9 28 54.0020000  0 10G19G25G 3G27G11G 8G16G22S29S37
 107902337.360 8  21132717.663          49.000       -2427.531
 112696755.660 8  22045070.745          51.000       -2390.793
 111746992.417 7  21864330.062          43.000       -3812.416
 116671002.429 8  22801343.494          50.000        -748.995
 114372243.317 8  22363896.643          50.000        1009.155
 124653057.79225  23720679.071          31.000         801.986
 124025090.900 7  24200783.904          43.000       -4578.205
                  24853692.795          29.000       -1304.285
 197966556.283 7  37671787.052          44.000       -1910.308
 198299408.699 6  37735129.300          41.000       -1911.775
 07  8 29  9 28 55.0020000  0 10G19G25G 3G27G11G 8G16G22S29S37
 107904763.680 8  21133179.624          49.000       -2424.754
 112699145.658 8  22045525.376          51.000       -2388.694
 111750803.781 7  21865055.486          44.000       -3809.235
 116671750.416 8  22801485.627          50.000        -746.812
 114371233.285 8  22363704.552          50.000        1011.878
 124652250.39825  23720525.826          32.000         808.952
 124029668.552 7  24201655.456          44.000       -4575.607
                  24853939.959          29.000       -1307.275
 197968463.732 7  37672150.123          43.000       -1906.017
 198301318.087 6  37735492.702          40.000       -1907.274
 07  8 29  9 28 56.0020000  0 10G19G25G 3G27G11G 8G16G22S29S37
 107907186.966 8  21133640.887          48.000       -2421.937
 112701532.963 8  22045979.990          51.000       -2385.558
 111754611.994 7  21865780.090          44.000       -3805.369
 116672495.676 8  22801627.411          50.000        -743.865
 114370220.329 8  22363511.589          50.000        1015.190
 124651440.25025  23720371.479          33.000         811.089
 124034243.147 7  24202526.188          43.000       -4572.793
                  24854186.811          25.000       -1304.091
 197970367.976 7  37672512.373          45.000       -1902.278
 198303224.467 6  37735855.528          41.000       -1905.937
 07  8 29  9 28 57.0020000  0 10G19G25G 3G27G11G 8G16G22S29S37
 107909607.327 8  21134101.068          48.000       -2418.677
 112703917.656 8  22046433.679          51.000       -2383.701
 111758417.139 7  21866504.589          44.000       -3803.483
 116673238.276 8  22801768.497          50.000        -740.839
 114369204.519 8  22363318.712          50.000        1017.522
 124650627.31625  23720216.436          33.000         816.176
 124038814.728 7  24203396.013          43.000       -4570.421
                  24854435.899          24.000       -1294.229
 197972269.101 7  37672874.012          43.000       -1899.178
 198305127.896 6  37736217.638          40.000       -1903.095
 07  8 29  9 28 58.0020000  0 10G19G25G 3G27G11G 8G16G22S29S37
 107912024.779 8  21134560.882          48.000       -2415.993
 112706299.750 8  22046887.368          51.000       -2380.701
 111762219.332 7  21867228.111          44.000       -3801.252
 116673978.276 8  22801908.816          49.000        -738.236
 114368185.949 8  22363125.086          50.000        1020.432
 124649811.73125  23720061.393          33.000         820.557
 124043383.385 7  24204264.738          43.000       -4568.352
                  24854682.241          25.000       -1300.648
 197974167.043 7  37673235.286          43.000       -1895.840
 198307027.815 6  37736579.210          39.000       -1895.990
 07  8 29  9 28 59.0020000  0  9G19G25G 3G27G11G 8G16S29S37
 107914439.350 7  21135020.190          47.000       -2413.203
 112708679.315 8  22047339.784          50.000       -2378.033
 111766018.539 7  21867951.023          43.000       -3797.340
 116674715.697 8  22802048.977          49.000        -735.885
 114367164.564 8  22362930.918          50.000        1022.876
 124648993.37025  23719905.526          32.000         817.534
 124047949.116 7  24205133.481          42.000       -4564.062
 197976061.867 7  37673595.861          43.000       -1892.734
 198308924.556 6  37736940.255          39.000       -1894.130
 07  8 29  9 29  0.0020000  0  9G19G25G 3G27G11G 8G16S29S37
 107916850.974 8  21135479.307          48.000       -2410.337
 112711056.253 8  22047792.408          50.000       -2375.435
 111769814.705 7  21868673.707          43.000       -3794.667
 116675450.458 8  22802188.457          49.000        -733.519
 114366140.354 8  22362736.210          50.000        1026.054
 124648172.41025  23719749.575          32.000         820.206
 124052511.868 7  24206001.438          42.000       -4561.288
 197977953.601 7  37673955.720          43.000       -1890.888
 198310817.947 6  37737300.429          40.000       -1891.802
 07  8 29  9 29  1.0020000  0  9G19G25G 3G27G11G 8G16S29S37
 107919259.772 8  21135937.725          48.000       -2406.995
 112713430.678 8  22048244.073          50.000       -2372.949
 111773607.963 7  21869395.693          44.000       -3791.591
 116676182.691 8  22802327.798          49.000        -730.627
 114365113.416 8  22362541.187          50.000        1028.674
 124647348.83835  23719592.716          32.000         824.468
 124057071.749 7  24206869.431          43.000       -4557.845
 197979841.870 7  37674315.109          44.000       -1886.234
 198312708.199 6  37737660.044          40.000       -1889.182
 07  8 29  9 29  2.0020000  0  9G19G25G 3G27G11G 8G16S29S37
 107921665.574 8  21136395.637          48.000       -2403.951
 112715802.449 8  22048695.529          50.000       -2370.777
 111777398.119 7  21870116.965          43.000       -3788.181
 116676912.219 8  22802466.581          49.000        -728.368
 114364083.576 8  22362345.222          50.000        1031.246
 124646522.38525  23719435.194          30.000         826.191
 124061628.574 7  24207736.830          42.000       -4555.427
 197981726.823 7  37674673.869          44.000       -1883.304
 198314595.433 6  37738019.415          39.000       -1885.301
 07  8 29  9 29  3.0020000  0 10G19G25G 3G27G11G 8G16G22S29S37
 107924068.468 8  21136853.427          48.000       -2401.446
 112718171.636 8  22049146.391          50.000       -2367.916
 111781185.257 7  21870837.555          43.000       -3785.526
 116677639.142 8  22802604.805          49.000        -725.619
 114363050.932 8  22362148.612          49.000        1034.160
                  23719271.756          31.000         828.423
 124066182.462 7  24208603.828          43.000       -4552.372
                  24856015.601          25.000       -1282.709
 197983608.867 7  37675032.088          43.000       -1881.479
 198316479.152 6  37738377.704          40.000       -1882.067
 07  8 29  9 29  4.0020000  0 10G19G25G 3G27G11G 8G16G22S29S37
 107926468.629 8  21137310.101          48.000       -2398.794
 112720538.417 8  22049596.695          50.000       -2365.578
 111784969.592 7  21871557.744          43.000       -3782.438
 116678363.619 8  22802742.889          49.000        -723.351
 114362015.661 8  22361951.862          50.000        1036.901
                  23719107.376          29.000         832.698
 124070733.563 7  24209470.110          43.000       -4549.551
                  24856272.085          23.000       -1282.841
 197985487.926 7  37675389.539          43.000       -1877.410
 198318359.478 6  37738735.609          40.000       -1880.573
 07  8 29  9 29  5.0020000  0 10G19G25G 3G27G11G 8G16G22S29S37
 107928866.074 8  21137766.320          49.000       -2395.803
 112722902.795 8  22050046.493          51.000       -2363.007
 111788751.089 7  21872277.654          44.000       -3779.320
 116679085.678 8  22802879.997          49.000        -720.937
 114360977.773 8  22361754.501          50.000        1039.382
                  23718943.311          30.000         835.939
 124075281.910 7  24210336.148          43.000       -4547.083
                  24856519.338          25.000       -1278.843
 197987364.197 7  37675746.537          44.000       -1873.823
 198320237.027 6  37739092.660          40.000       -1875.237
 07  8 29  9 29  6.0020000  0  9G19G25G 3G27G11G 8G16S29S37
 107931260.600 8  21138221.999          48.000       -2392.725
 112725264.585 8  22050495.942          51.000       -2360.128
 111792529.595 7  21872996.866          44.000       -3776.281
 116679805.109 8  22803016.703          49.000        -717.772
 114359937.070 8  22361556.459          50.000        1042.319
                  23718778.686          30.000         837.695
 124079827.294 7  24211201.401          43.000       -4543.455
 197989237.340 7  37676103.186          43.000       -1870.621
 198322111.398 6  37739449.535          40.000       -1873.168
 07  8 29  9 29  7.0020000  0  9G19G25G 3G27G11G 8G16S29S37
 107933652.482 8  21138677.119          48.000       -2390.206
 112727624.038 8  22050944.849          51.000       -2358.417
 111796305.347 7  21873715.729          44.000       -3773.719
 116680522.177 8  22803152.990          49.000        -715.688
 114358893.812 8  22361358.348          50.000        1044.774
                  23718613.259          30.000         840.830
 124084369.983 7  24212065.397          43.000       -4540.970
 197991107.277 7  37676459.137          44.000       -1866.865
 198323982.960 6  37739805.782          39.000       -1868.988
 07  8 29  9 29  8.0020000  0  9G19G25G 3G27G11G 8G16S29S37
 107936041.588 8  21139131.663          49.000       -2387.349
 112729981.063 8  22051393.146          50.000       -2355.642
 111800078.218 7  21874433.911          44.000       -3770.295
 116681236.777 8  22803289.347          49.000        -713.118
 114357847.898 8  22361159.766          50.000        1047.593
                  23718446.907          30.000         842.021
 124088909.853 7  24212929.097          43.000       -4537.792
 197992974.267 7  37676814.425          43.000       -1862.693
 198325851.586 6  37740161.436          40.000       -1868.530
 07  8 29  9 29  9.0020000  0  9G19G25G 3G27G11G 8G16S29S37
 107938427.973 8  21139586.033          49.000       -2384.572
 112732335.675 8  22051841.356          50.000       -2353.346
 111803848.253 7  21875151.692          44.000       -3768.394
 116681948.937 8  22803424.831          49.000        -710.570
 114356799.346 8  22360960.101          50.000        1050.295
                  23718283.505          30.000         847.912
 124093446.941 7  24213792.377          43.000       -4535.329
 197994838.216 7  37677169.188          43.000       -1863.100
 198327717.100 6  37740516.445          40.000       -1862.385
 07  8 29  9 29 10.0020000  0 10G19G25G 3G27G11G 8G16G22S29S37
 107940811.587 8  21140039.740          49.000       -2382.092
 112734687.941 8  22052288.484          50.000       -2351.254
 111807615.329 7  21875868.984          43.000       -3765.236
 116682658.828 8  22803559.879          49.000        -708.821
 114355748.122 8  22360759.686          49.000        1052.898
 124639582.56935  23718124.063          34.000         848.612
 124097980.949 7  24214655.501          44.000       -4531.734
                  24857574.995          29.000       -1265.227
 197996698.734 7  37677523.255          43.000       -1858.117
 198329579.391 6  37740870.999          40.000       -1860.879
 07  8 29  9 29 11.0020000  0 10G19G25G 3G27G11G 8G16G22S29S37
 107943193.206 7  21140492.661          47.000       -2380.756
 112737038.824 8  22052735.279          50.000       -2350.453
 111811379.497 7  21876584.339          43.000       -3762.426
 116683367.848 8  22803695.624          50.000        -708.986
 114354694.293 8  22360559.935          51.000        1054.923
                  23717988.805          36.000         845.616
 124102510.463 7  24215517.945          45.000       -4526.710
                  24857821.426          26.000       -1265.913
 197998555.759 7  37677876.693          43.000       -1853.941
 198331437.50836  37741224.543          40.000       -1853.654
 07  8 29  9 29 12.0020000  0 10G19G25G 3G27G11G 8G16G22S29S37
 107945572.865 8  21140945.355          48.000       -2378.385
 112739388.109 8  22053182.617          49.000       -2347.748
 111815140.878 7  21877300.026          44.000       -3760.618
 116684075.965 8  22803830.445          49.000        -707.286
 114353637.318 8  22360357.147          50.000        1059.293
 124638101.61136  23717842.259          38.000         847.286
 124107035.410 7  24216379.447          44.000       -4521.621
                  24858068.348          28.000       -1261.770
 198000408.361 6  37678229.224          41.000       -1849.284
 198333292.119 6  37741577.248          39.000       -1852.546
 07  8 29  9 29 13.0020000  0 10G19G25G 3G27G11G 8G16G22S29S37
 107947950.486 7  21141397.892          47.000       -2377.152
 112741734.783 8  22053629.553          50.000       -2344.426
 111818900.347 7  21878015.415          43.000       -3758.990
 116684782.215 8  22803965.075          48.000        -704.674
 114352576.802 7  22360154.865          47.000        1061.855
 124637252.44126  23717682.242          41.000         851.421
 124111557.046 7  24217240.126          44.000       -4522.759
                  24858311.850          29.000       -1257.704
 198002256.870 6  37678580.759          41.000       -1848.103
 198335142.182 7  37741929.238          42.000       -1848.112
 07  8 29  9 29 14.0020000  0 10G19G25G 3G27G11G 8G16G22S29S37
 107950326.526 8  21141850.272          49.000       -2375.036
 112744078.720 8  22054075.180          51.000       -2341.448
 111822657.57937  21878730.578          42.000       -3756.935
 116685486.228 8  22804099.861          50.000        -702.055
 114351512.10636  22359952.341          41.000        1070.560
 124636401.70227  23717519.624          46.000         852.678
 124116076.617 6  24218100.354          41.000       -4519.114
 130632579.14935  24858553.380          34.000       -1253.945
 198004102.052 6  37678931.652          40.000       -1838.247
 198336988.741 6  37742280.651          40.000       -1846.377
 07  8 29  9 29 15.0020000  0 10G19G25G 3G27G11G 8G16G22S29S37
 107952700.550 8  21142303.002          49.000       -2372.586
 112746419.093 8  22054520.109          49.000       -2338.972
 111826414.96627  21879444.991          47.000       -3756.431
 116686186.952 8  22804232.973          50.000        -699.016
                  22359749.970          40.000        1066.409
 124635548.35227  23717358.053          47.000         855.753
 124120593.60137  24218958.486          44.000       -4517.890
 130633832.81335  24858794.627          32.000       -1259.026
 198005943.803 6  37679282.068          40.000       -1843.858
 198338832.00236  37742631.385          39.000       -1841.182
 07  8 29  9 29 16.0020000  0 10G19G25G 3G27G11G 8G16G22S29S37
 107955071.791 8  21142754.161          48.000       -2369.587
 112748755.780 8  22054964.934          50.000       -2335.402
 111830171.00928  21880159.386          49.000       -3754.264
 116686883.799 8  22804365.823          49.000        -694.683
 117500203.49238  22359545.298          48.000        1072.334
 124634690.95328  23717194.354          50.000         859.396
 124125111.30427  24219818.154          45.000       -4517.677
 130635084.30136  24859035.407          37.000       -1255.444
 198007782.738 6  37679631.685          39.000       -1837.357
 198340673.872 6  37742981.558          40.000       -1840.991
 07  8 29  9 29 17.0020000  0 10G19G25G 3G27G11G 8G16G22S29S37
 107957439.635 8  21143204.221          49.000       -2365.202
 112751090.154 8  22055409.515          50.000       -2331.624
 111833923.54928  21880872.665          51.000       -3750.213
 116687577.407 8  22804497.067          48.000        -691.956
 117499130.57627  22359340.921          46.000        1072.173
 124633829.55527  23717031.213          47.000         863.420
 124129627.76336  24220678.172          39.000       -4511.953
 130636338.87037  24859273.238          43.000       -1251.095
 198009620.07736  37679981.300          36.000       -1839.110
 198342513.959 6  37743331.593          40.000       -1838.079
 07  8 29  9 29 18.0020000  0 10G19G25G 3G27G11G 8G16G22S29S37
 107959804.481 8  21143654.734          49.000       -2363.668
 112753422.413 8  22055853.676          51.000       -2331.226
 111837673.00928  21881586.118          51.000       -3748.079
 116688268.503 7  22804628.730          47.000        -688.511
 117498056.16227  22359136.458          46.000        1073.592
 124632965.04528  23716869.311          48.000         865.577
 124134141.50025  24221538.190          35.000       -4508.607
 130637591.23037  24859510.666          45.000       -1248.387
 198011457.051 6  37680330.847          39.000       -1834.465
 198344352.019 6  37743681.418          41.000       -1836.851
 07  8 29  9 29 19.0020000  0 10G19G25G 3G27G11G 8G16G22S29S37
 107962167.048 8  21144103.781          49.000       -2361.750
 112755752.072 8  22056297.122          49.000       -2328.491
 111841420.44828  21882299.065          50.000       -3746.979
 116688957.010 7  22804759.502          46.000        -688.751
 117496978.78437  22358930.565          46.000        1079.933
 124632098.265 7  23716705.455          46.000         868.986
 124138649.69635  24222396.619          35.000       -4508.657
 130638841.88327  24859746.453          46.000       -1249.200
 198013290.147 6  37680679.625          40.000       -1831.601
 198346186.955 7  37744030.511          42.000       -1834.267
 07  8 29  9 29 20.0020000  0 10G19G25G 3G27G11G 8G16G22S29S37
 107964527.229 8  21144552.811          48.000       -2358.666
 112758079.186 7  22056739.625          47.000       -2325.288
 111845165.61228  21883011.803          51.000       -3743.408
 116689643.175 7  22804889.385          45.000        -685.965
 117495898.43237  22358725.001          47.000        1080.108
 124631228.984 6  23716537.776          41.000         870.211
 124143158.99836  24223255.135          37.000       -4507.837
 130640090.60727  24859984.649          46.000       -1248.175
 198015120.071 7  37681027.497          43.000       -1827.580
 198348019.000 7  37744379.289          42.000       -1831.450
 07  8 29  9 29 21.0020000  0 10G19G25G 3G27G11G 8G16G22S29S37
 107966884.336 8  21145001.580          49.000       -2355.532
 112760404.378 8  22057182.146          48.000       -2323.190
 111848907.34428  21883723.721          50.000       -3739.452
 116690327.457 8  22805019.198          48.000        -683.381
 117494815.99227  22358518.985          46.000        1082.070
 124630357.583 7  23716371.860          42.000         871.594
 124147665.37727  24224111.157          43.000       -4504.072
 130641335.83937  24860223.020          43.000       -1245.097
 198016947.009 7  37681375.297          42.000       -1827.078
 198349847.932 7  37744727.144          43.000       -1826.663
 07  8 29  9 29 22.0020000  0 10G19G25G 3G27G11G 8G16G22S29S37
 107969239.163 7  21145449.039          46.000       -2353.977
 112762728.115 8  22057624.318          50.000       -2322.152
 111852646.12928  21884435.289          48.000       -3737.246
 116691010.004 7  22805148.906          47.000        -681.131
 117493731.65728  22358313.475          48.000        1084.693
 124629484.590 7  23716206.224          45.000         874.168
 124152168.66526  24224968.906          41.000       -4499.460
 130642578.42827  24860458.705          45.000       -1239.834
 198018771.458 6  37681722.472          40.000       -1820.041
 198351674.198 7  37745074.509          42.000       -1823.726
 07  8 29  9 29 23.0020000  0 10G19G25G 3G27G11G 8G16G22S29S37
 107971590.888 8  21145896.953          48.000       -2349.660
 112765050.481 8  22058065.965          49.000       -2321.919
 111856380.88728  21885146.318          49.000       -3731.806
 116691690.717 8  22805278.632          48.000        -679.607
 117492646.34228  22358106.934          49.000        1084.960
 124628608.776 7  23716039.192          45.000         877.795
 124156669.07227  24225825.974          42.000       -4499.438
 130643817.13827  24860694.529          46.000       -1235.857
 198020593.989 6  37682069.469          38.000       -1822.046
 198353498.376 6  37745421.558          41.000       -1825.496
 07  8 29  9 29 24.0020000  0 10G19G25G 3G27G11G 8G16G22S29S37
 107973939.166 8  21146342.562          48.000       -2347.148
 112767371.789 8  22058507.631          49.000       -2320.058
 111860111.42128  21885856.735          49.000       -3728.992
 116692369.182 7  22805407.468          47.000        -677.410
 117491561.17028  22357900.691          49.000        1086.725
 124627729.558 7  23715871.164          45.000         880.699
 124161167.39727  24226682.973          42.000       -4496.413
 130645051.68927  24860930.457          46.000       -1233.392
 198022416.063 6  37682416.048          41.000       -1820.638
 198355321.707 6  37745768.366          39.000       -1821.277
 07  8 29  9 29 25.0020000  0 10G19G25G 3G27G11G 8G16G22S29S37
 107976284.909 8  21146788.504          48.000       -2344.522
 112769690.954 8  22058949.018          50.000       -2318.199
 111863839.772 8  21886566.261          49.000       -3726.831
 116693045.438 7  22805536.042          47.000        -675.293
 117490473.65628  22357693.906          48.000        1088.539
 124626848.000 7  23715702.823          45.000         882.525
 124165663.13827  24227539.029          42.000       -4493.543
 130646283.92127  24861165.390          46.000       -1231.154
 198024235.361 7  37682762.384          42.000       -1816.666
 198357142.387 6  37746114.684          40.000       -1818.192
 07  8 29  9 29 26.0020000  0 10G19G25G 3G27G11G 8G16G22S29S37
 107978628.460 8  21147234.846          48.000       -2342.666
 112772008.010 8  22059389.218          50.000       -2315.629
 111867565.496 8  21887275.840          49.000       -3725.009
 116693719.595 7  22805664.232          45.000        -672.977
 117489383.44928  22357485.395          48.000        1091.315
 124625964.584 7  23715534.132          45.000         884.421
 124170156.37426  24228393.654          38.000       -4491.438
 130647514.36927  24861398.892          44.000       -1229.932
 198026051.409 6  37683107.673          40.000       -1814.373
 198358960.225 7  37746460.548          42.000       -1815.904
 07  8 29  9 29 27.0020000  0 10G19G25G 3G27G11G 8G16G22S29S37
 107980969.962 8  21147681.956          50.000       -2340.433
 112774322.427 8  22059829.313          49.000       -2313.151
 111871289.315 7  21887984.180          47.000       -3723.128
 116694391.737 8  22805792.981          48.000        -670.035
 117488290.04828  22357278.192          49.000        1095.570
 124625079.478 8  23715366.454          48.000         886.097
 124174646.92627  24229248.279          44.000       -4489.643
 130648743.21427  24861634.784          43.000       -1228.288
 198027863.420 6  37683452.753          41.000       -1808.721
 198360774.599 6  37746805.837          41.000       -1812.437
 07  8 29  9 29 28.0020000  0 10G19G25G 3G27G11G 8G16G22S29S37
 107983309.476 8  21148127.531          48.000       -2338.273
 112776634.431 8  22060269.182          49.000       -2310.798
 111875011.195 8  21888691.979          48.000       -3721.023
 116695061.934 8  22805921.606          49.000        -669.590
 117487193.10428  22357068.948          49.000        1098.931
 124624192.973 7  23715197.449          47.000         887.895
 124179134.36627  24230101.858          47.000       -4485.818
 130649970.36736  24861870.886          40.000       -1228.790
 198029671.464 6  37683796.925          40.000       -1804.921
 198362585.023 6  37747150.392          41.000       -1810.355
 07  8 29  9 29 29.0020000  0 11G19G25G 3G27G11G 8G16G22G18S29S37
 107985647.122 8  21148572.931          49.000       -2335.908
 112778944.612 8  22060708.754          50.000       -2308.661
 111878730.843 8  21889399.447          49.000       -3717.187
 116695730.869 8  22806048.994          50.000        -668.340
 117486093.32927  22356858.918          42.000        1101.003
 124623305.432 8  23715029.177          48.000         889.379
 124183618.38027  24230955.176          45.000       -4481.250
 130651195.62637  24862103.551          42.000       -1224.976
                  26349806.432          25.000       -2615.750
 198031476.363 6  37684140.416          39.000       -1803.134
 198364391.927 6  37747494.250          41.000       -1806.303
 07  8 29  9 29 30.0020000  0 11G19G25G 3G27G11G 8G16G22G18S29S37
 107987982.521 8  21149017.476          49.000       -2334.620
 112781253.168 8  22061147.836          49.000       -2307.991
 111882447.644 8  21890106.933          49.000       -3714.507
 116696398.494 8  22806175.944          49.000        -668.123
 117484995.92936  22356650.266          38.000        1102.548
 124622416.613 7  23714859.945          45.000         889.986
 124188098.57727  24231807.689          42.000       -4479.207
 130652417.25437  24862334.001          44.000       -1217.605
                  26350300.064          23.000       -2615.636
 198033277.902 6  37684483.156          41.000       -1800.508
 198366194.87236  37747837.235          39.000       -1803.421
 07  8 29  9 29 31.0020000  0 11G19G25G 3G27G11G 8G16G22G18S29S37
 107990316.261 8  21149461.131          49.000       -2332.873
 112783560.810 8  22061587.966          51.000       -2306.440
 111886161.801 8  21890813.388          49.000       -3713.059
 116697065.655 8  22806303.662          49.000        -668.688
 117483890.05936  22356440.376          41.000        1105.409
 124621527.772 8  23714690.502          49.000         886.316
 124192575.335 7  24232659.350          45.000       -4472.307
 130653635.29236  24862564.450          40.000       -1214.702
                  26350799.634          24.000       -2602.268
 198035076.174 6  37684825.443          41.000       -1798.187
 198367995.02827  37748179.785          42.000       -1797.297
 07  8 29  9 29 32.0020000  0 11G19G25G 3G27G11G 8G16G22G18S29S37
 107992649.501 8  21149904.419          48.000       -2333.222
 112785868.617 8  22062027.240          51.000       -2308.805
 111889873.143 8  21891519.721          50.000       -3710.162
 116697734.828 8  22806430.489          48.000        -670.445
 117482782.58337  22356227.346          46.000        1109.645
 124620642.137 7  23714521.182          47.000         883.591
 124197043.854 7  24233509.563          46.000       -4462.461
                  24862797.396          36.000       -1206.194
                  26351296.943          28.000       -2613.795
 198036869.026 6  37685166.667          41.000       -1791.715
 198369789.570 7  37748521.009          42.000       -1792.491
 07  8 29  9 29 33.0020000  0 11G19G25G 3G27G11G 8G16G22G18S29S37
 107994981.903 7  21150347.847          47.000       -2331.581
 112788176.551 8  22062466.584          50.000       -2307.105
 111893581.500 8  21892225.671          52.000       -3706.723
 116698405.840 8  22806557.666          48.000        -671.157
 117481672.23727  22356016.077          47.000        1113.551
 124619759.184 7  23714353.468          46.000         884.183
 124201505.218 7  24234358.919          45.000       -4457.311
 130656075.24437  24863024.475          44.000       -1206.676
                  26351788.012          28.000       -2608.594
 198038656.447 6  37685506.948          39.000       -1787.223
 198371577.673 7  37748861.238          42.000       -1785.891
 07  8 29  9 29 34.0020000  0 11G19G25G 3G27G11G 8G16G22G18S29S37
 107997312.950 8  21150791.222          48.000       -2331.177
 112790483.592 8  22062905.841          50.000       -2307.480
 111897287.075 8  21892930.766          51.000       -3704.428
 116699077.100 8  22806685.227          48.000        -671.634
 117480558.74627  22355804.407          46.000        1114.811
 124618877.377 7  23714185.718          47.000         881.954
 124205960.616 7  24235206.653          45.000       -4452.237
 130657280.09937  24863252.708          42.000       -1203.332
                  26352274.716          29.000       -2609.125
 198040438.959 6  37685846.322          40.000       -1781.989
 198373360.754 6  37749200.734          41.000       -1781.824
 07  8 29  9 29 35.0020000  0 11G19G25G 3G27G11G 8G16G22G18S29S37
 107999642.085 7  21151233.953          47.000       -2328.219
 112792789.289 8  22063344.227          50.000       -2303.928
 111900990.248 8  21893635.232          51.000       -3702.380
 116699747.247 8  22806812.824          48.000        -669.662
                  22355592.283          41.000        1116.944
 124617994.447 7  23714017.743          46.000         884.483
 124210413.050 7  24236053.983          45.000       -4451.916
 130658482.55337  24863481.201          43.000       -1203.366
                  26352770.252          27.000       -2602.680
 198042218.812 6  37686184.822          40.000       -1780.486
 198375140.788 6  37749539.461          41.000       -1779.602
 07  8 29  9 29 36.0020000  0 11G19G25G 3G27G11G 8G16G22G18S29S37
 108001968.714 7  21151676.544          47.000       -2325.677
 112795092.844 8  22063782.647          50.000       -2302.333
 111904690.975 8  21894339.645          51.000       -3700.256
 116700414.971 8  22806939.845          48.000        -666.150
                  22355380.577          37.000        1118.440
 124617108.862 7  23713849.280          46.000         887.427
 124214863.771 7  24236900.774          44.000       -4448.707
 130659680.55736  24863710.569          37.000       -1199.014
 138487335.17735  26353263.820          34.000       -2587.497
 198043996.780 6  37686523.166          39.000       -1776.285
 198376918.976 6  37749877.838          40.000       -1780.135
 07  8 29  9 29 37.0020000  0 11G19G25G 3G27G11G 8G16G22G18S29S37
 108004292.088 7  21152118.681          47.000       -2321.373
 112797393.528 8  22064220.456          49.000       -2299.753
 111908389.147 8  21895043.222          51.000       -3697.029
 116701078.987 8  22807066.134          48.000        -661.573
 117477206.00435  22355169.025          35.000        1111.332
 124616218.935 7  23713679.945          46.000         893.128
 124219313.958 7  24237747.423          44.000       -4448.942
 130660879.18736  24863938.051          41.000       -1196.361
                  26353755.508          29.000       -2605.370
 198045773.189 6  37686861.212          39.000       -1775.399
 198378696.201 6  37750215.989          40.000       -1777.082
 07  8 29  9 29 38.0020000  0 11G19G25G 3G27G11G 8G16G22G18S29S37
 108006611.788 7  21152559.981          47.000       -2318.293
 112799690.996 8  22064657.446          49.000       -2295.763
 111912084.674 8  21895746.764          51.000       -3693.344
 116701738.415 8  22807191.516          48.000        -656.066
 117476083.69635  22354955.438          33.000        1120.419
 124615323.297 7  23713509.546          46.000         899.263
 124223764.932 7  24238594.142          45.000       -4449.909
 130662075.21237  24864165.779          43.000       -1188.277
                  26354245.408          28.000       -2597.386
 198047549.511 6  37687199.169          41.000       -1778.106
 198380472.957 6  37750554.000          40.000       -1777.201
 07  8 29  9 29 39.0020000  0 11G19G25G 3G27G11G 8G16G22G18S29S37
 108008927.890 8  21153000.776          48.000       -2313.306
 112801985.280 8  22065094.505          49.000       -2292.470
 111915777.750 8  21896449.345          51.000       -3691.859
 116702393.189 8  22807316.356          48.000        -652.519
                  22354742.982          33.000        1120.004
 124614421.880 7  23713337.803          46.000         904.026
 124228217.014 7  24239441.104          44.000       -4454.580
