     2.11           OBSERVATION DATA    M (MIXED)           RINEX VERSION / TYPE
teqc  2007Jun25                         20070903 16:12:31UTCPGM / RUN BY / DATE
MSXP|IAx86-PII|bcc32 5.0|MSWin95->XP|486/DX+                COMMENT
-Unknown-                                                   MARKER NAME
-Unknown-           -Unknown-                               OBSERVER / AGENCY
-Unknown-           U-BLOX              -Unknown-           REC # / TYPE / VERS
-Unknown-           -Unknown-                               ANT # / TYPE
        0.0000        0.0000        0.0000                  APPROX POSITION XYZ
        0.0000        0.0000        0.0000                  ANTENNA: DELTA H/E/N
     1     0                                                WAVELENGTH FACT L1/2
     4    L1    C1    S1    D1                              # / TYPES OF OBSERV
 SNR is mapped to RINEX snr flag value [0-9]                COMMENT
  L1 & L2: min(max(int(snr_dBHz/6), 0), 9)                  COMMENT
  2007     8    29     8     8   50.0000000     GPS         TIME OF FIRST OBS
    14                                                      LEAP SECONDS
                                                            END OF HEADER
 07  8 29  8  8 50.0000000  0 13G 3G19G16G25G13G23G27G21G31G11S29S37
                                G22
 106367612.322 8  20241087.657          51.000       -2743.594
 110210823.757 8  20972426.101          51.000        -971.795
 114978446.019 8  21879676.560          48.000       -3697.967
 118099508.768 8  22473595.748          50.000          10.748
 124205222.373 7  23635471.703          42.000       -3909.960
 126088985.416 7  23993942.323          47.000       -4846.897
 128533410.765 7  24459104.719          46.000         895.843
 131877261.83825  25095408.099          33.000       -4833.148
 131342982.289 6  24993734.655          40.000       -5826.258
 132208949.504 6  25158533.539          39.000        1612.833
 195806250.107 6  37260695.052          41.000       -2176.613
 196132617.790 6  37322801.529          40.000       -2176.822
 135547727.449 5  25793871.879          34.000        -190.627
 07  8 29  8  8 51.0000000  0 13G 3G19G16G25G13G23G27G21G31G11S29S37
                                G22
 106370354.892 8  20241609.576          51.000       -2741.163
 110211794.428 8  20972610.761          51.000        -969.144
 114982142.615 8  21880380.293          48.000       -3695.979
 118099496.896 8  22473593.411          50.000          13.031
 124209130.812 7  23636215.503          43.000       -3907.209
 126093830.992 7  23994864.428          47.000       -4844.332
 128532513.673 7  24458933.917          46.000         898.139
 131882091.57725  25096327.028          32.000       -4831.178
 131348807.400 6  24994842.746          40.000       -5822.292
 132207335.606 6  25158225.735          39.000        1614.923
 195808423.740 6  37261108.659          41.000       -2172.717
 196134794.254 6  37323215.640          41.000       -2176.277
 135547916.055 5  25793907.828          35.000        -187.569
 07  8 29  8  8 52.0000000  0 13G 3G19G16G25G13G23G27G21G31G11S29S37
                                G22
 106373095.447 8  20242131.251          51.000       -2739.191
 110212763.131 8  20972794.756          51.000        -967.520
 114985837.024 8  21881083.328          48.000       -3692.983
 118099483.057 8  22473590.689          50.000          14.952
 124213037.295 7  23636959.127          43.000       -3905.509
 126098674.332 8  23995786.202          48.000       -4841.879
 128531614.355 7  24458762.941          47.000         900.419
 131886919.16825  25097245.958          33.000       -4826.557
 131354630.181 6  24995950.521          40.000       -5821.060
 132205719.268 6  25157918.002          39.000        1618.253
 195810594.955 6  37261521.794          40.000       -2169.572
 196136968.019 6  37323629.369          41.000       -2173.344
 135548102.343 5  25793943.148          35.000        -184.452
 07  8 29  8  8 53.0000000  0 13G 3G19G16G25G13G23G27G21G31G11S29S37
                                G22
 106375833.941 8  20242652.699          51.000       -2737.400
 110213729.792 8  20972978.805          51.000        -965.429
 114989529.197 8  21881786.067          48.000       -3690.449
 118099467.185 8  22473587.462          50.000          17.482
 124216941.757 7  23637701.373          43.000       -3903.000
 126103515.341 8  23996707.434          48.000       -4839.767
 128530712.778 7  24458591.110          46.000         903.113
 131891744.66025  25098163.736          33.000       -4823.910
 131360450.533 6  24997058.576          40.000       -5818.331
 132204100.440 6  25157609.884          39.000        1620.511
 195812763.443 6  37261934.545          41.000       -2167.343
 196139139.228 6  37324042.608          41.000       -2170.283
 135548286.190 5  25793978.155          35.000        -181.234
 07  8 29  8  8 54.0000000  0 13G 3G19G16G25G13G23G27G21G31G11S29S37
                                G22
 106378570.358 8  20243173.100          51.000       -2735.200
 110214694.403 8  20973162.416          51.000        -963.843
 114993219.117 8  21882487.950          48.000       -3688.886
 118099449.270 8  22473583.868          50.000          19.128
 124220844.170 7  23638444.020          43.000       -3900.673
 126108354.054 8  23997628.458          48.000       -4837.322
 128529808.916 7  24458419.052          46.000         905.696
 131896567.98225  25099081.357          34.000       -4820.483
 131366268.522 6  24998165.880          40.000       -5816.628
 132202479.127 6  25157300.806          38.000        1621.735
 195814929.485 6  37262346.616          40.000       -2163.227
 196141307.777 7  37324455.185          42.000       -2167.104
 135548467.619 5  25794013.143          34.000        -181.041
 07  8 29  8  8 55.0000000  0 13G 3G19G16G25G13G23G27G21G31G11S29S37
                                G22
 106381304.600 8  20243693.572          51.000       -2732.487
 110215656.866 8  20973345.453          51.000        -961.067
 114996906.690 8  21883189.869          48.000       -3685.895
 118099429.206 8  22473580.256          50.000          21.359
 124224744.451 7  23639186.387          43.000       -3899.766
 126113190.364 8  23998549.010          48.000       -4835.140
 128528902.679 7  24458246.522          46.000         907.814
 131901388.99135  25099998.279          33.000       -4820.375
 131372083.977 6  24999272.224          40.000       -5814.637
 132200855.215 6  25156991.659          39.000        1625.061
 195817093.076 6  37262758.510          40.000       -2164.226
 196143473.731 6  37324867.273          41.000       -2165.323
 135548646.558 5  25794047.556          35.000        -177.679
 07  8 29  8  8 56.0000000  0 13G 3G19G16G25G13G23G27G21G31G11S29S37
                                G22
 106384036.731 8  20244213.449          51.000       -2730.834
 110216617.246 8  20973528.210          51.000        -959.303
 115000591.977 8  21883891.072          48.000       -3684.101
 118099407.072 8  22473576.017          50.000          23.435
 124228642.683 7  23639928.372          43.000       -3897.029
 126118024.307 8  23999469.161          48.000       -4832.664
 128527994.124 7  24458073.225          46.000         910.198
 131906207.85125  25100915.394          33.000       -4816.137
 131377897.014 6  25000378.151          41.000       -5810.812
 132199228.774 6  25156681.849          38.000        1627.587
 195819253.951 7  37263169.709          42.000       -2159.799
 196145637.157 7  37325278.994          43.000       -2163.095
 135548823.024 5  25794081.759          35.000        -175.720
 07  8 29  8  8 57.0000000  0 13G 3G19G16G25G13G23G27G21G31G11S29S37
                                G22
 106386766.748 8  20244732.768          51.000       -2728.816
 110217575.545 8  20973710.391          51.000        -957.052
 115004274.973 8  21884591.891          48.000       -3681.418
 118099382.822 8  22473571.480          50.000          25.263
 124232538.821 7  23640669.431          43.000       -3895.625
 126122855.891 8  24000388.422          48.000       -4830.400
 128527083.254 7  24457899.927          46.000         912.101
 131911024.51325  25101832.019          34.000       -4814.612
 131383707.594 6  25001483.762          41.000       -5809.192
 132197599.805 6  25156371.481          39.000        1630.525
 195821412.678 6  37263580.366          41.000       -2156.104
 196147798.181 7  37325690.210          43.000       -2158.382
 135548997.022 5  25794115.177          35.000        -172.362
 07  8 29  8  8 58.0000000  0 13G 3G19G16G25G13G23G27G21G31G11S29S37
                                G22
 106389494.644 8  20245251.686          51.000       -2726.768
 110218531.739 8  20973892.328          50.000        -954.682
 115007955.688 8  21885292.204          48.000       -3679.386
 118099356.501 8  22473566.526          50.000          27.840
 124236432.894 7  23641410.473          43.000       -3892.176
 126127685.129 8  24001307.665          48.000       -4827.874
 128526170.066 7  24457726.229          46.000         915.449
 131915838.96625  25102748.105          33.000       -4810.922
 131389515.734 6  25002589.095          41.000       -5806.944
 132195968.285 6  25156061.007          38.000        1632.888
 195823568.662 6  37263990.499          40.000       -2154.426
 196149956.770 6  37326100.919          41.000       -2156.188
 135549168.558 5  25794148.036          34.000        -171.512
 07  8 29  8  8 59.0000000  0 13G 3G19G16G25G13G23G27G21G31G11S29S37
                                G22
 106392220.402 8  20245770.412          51.000       -2724.782
 110219485.823 8  20974073.741          51.000        -952.938
 115011634.068 8  21885992.273          48.000       -3676.880
 118099328.081 8  22473561.204          50.000          29.570
 124240324.858 7  23642151.113          43.000       -3890.244
 126132511.976 8  24002226.176          48.000       -4825.438
 128525254.509 7  24457552.251          46.000         916.718
 131920651.18925  25103664.067          34.000       -4810.885
 131395321.384 6  25003694.027          41.000       -5803.882
 132194334.210 6  25155749.714          38.000        1635.086
 195825722.266 6  37264400.511          41.000       -2152.494
 196152112.561 7  37326511.297          42.000       -2153.707
 135549337.560 5  25794179.989          34.000        -169.417
 07  8 29  8  9  0.0000000  0 13G 3G19G16G25G13G23G27G21G31G11S29S37
                                G22
 106394944.134 8  20246288.667          51.000       -2722.420
 110220437.908 8  20974254.788          51.000        -950.633
 115015310.255 8  21886691.957          49.000       -3674.875
 118099297.656 8  22473555.114          50.000          31.364
 124244214.827 7  23642891.405          43.000       -3888.352
 126137336.565 8  24003144.215          48.000       -4823.243
 128524336.744 7  24457377.645          47.000         919.435
 131925461.30725  25104579.261          35.000       -4809.585
 131401124.676 6  25004798.329          41.000       -5802.537
 132192697.688 6  25155438.682          38.000        1637.899
 195827873.711 6  37264809.982          41.000       -2148.288
 196154265.956 7  37326921.116          42.000       -2153.023
 135549504.243 5  25794211.785          34.000        -164.435
 07  8 29  8  9  1.0000000  0 13G 3G19G16G25G13G23G27G21G31G11S29S37
                                G22
 106397665.871 8  20246806.608          51.000       -2720.412
 110221388.027 8  20974435.799          51.000        -948.989
 115018984.283 8  21887390.805          48.000       -3672.495
 118099265.237 8  22473548.973          50.000          34.142
 124248102.863 7  23643631.347          43.000       -3887.025
 126142158.912 8  24004061.976          48.000       -4820.534
 128523416.769 7  24457202.777          46.000         921.021
 131930269.33735  25105493.898          34.000       -4807.240
 131406925.666 6  25005902.423          41.000       -5800.150
 132191058.749 6  25155127.267          39.000        1640.243
 195830022.148 7  37265218.823          42.000       -2146.623
 196156417.070 7  37327330.447          43.000       -2149.168
 135549668.640 5  25794242.987          35.000        -162.009
 07  8 29  8  9  2.0000000  0 13G 3G19G16G25G13G23G27G21G31G11S29S37
                                G22
 106400385.416 8  20247324.112          51.000       -2718.558
 110222335.958 8  20974616.078          51.000        -946.732
 115022655.921 8  21888089.565          48.000       -3670.281
 118099230.631 8  22473542.290          50.000          35.891
 124251988.739 7  23644370.975          43.000       -3884.751
 126146978.819 8  24004978.968          48.000       -4818.431
 128522494.387 7  24457027.334          47.000         923.648
 131935075.03825  25106408.501          34.000       -4802.489
 131412724.094 6  25007005.749          41.000       -5797.296
 132189417.193 6  25154814.734          39.000        1642.259
 195832168.228 6  37265627.385          41.000       -2146.022
 196158565.832 7  37327739.236          43.000       -2148.788
 135549830.454 5  25794273.822          35.000        -160.841
 07  8 29  8  9  3.0000000  0 13G 3G19G16G25G13G23G27G21G31G11S29S37
                                G22
 106403102.780 8  20247841.163          51.000       -2716.420
 110223281.753 8  20974796.026          50.000        -944.890
 115026325.223 8  21888787.888          48.000       -3668.010
 118099193.883 8  22473535.224          50.000          37.691
 124255872.467 7  23645110.394          43.000       -3883.572
 126151796.307 8  24005895.698          48.000       -4816.554
 128521569.642 7  24456851.157          46.000         925.427
 131939878.55225  25107322.892          35.000       -4803.149
 131418520.022 6  25008108.290          40.000       -5794.074
 132187773.026 6  25154501.260          38.000        1646.262
 195834311.994 6  37266035.181          41.000       -2141.345
 196160712.204 7  37328147.642          43.000       -2144.705
 135549989.728 5  25794304.256          35.000        -158.183
 07  8 29  8  9  4.0000000  0 13G 3G19G16G25G13G23G27G21G31G11S29S37
                                G22
 106405818.105 8  20248357.708          51.000       -2714.077
 110224225.537 8  20974975.712          50.000        -942.520
 115029992.310 8  21889485.584          48.000       -3666.002
 118099155.107 8  22473527.861          50.000          40.171
 124259754.201 7  23645849.219          43.000       -3880.603
 126156611.526 8  24006812.080          48.000       -4813.970
 128520642.644 7  24456674.440          46.000         928.479
 131944679.90025  25108237.057          35.000       -4801.059
 131424313.614 6  25009210.952          40.000       -5791.601
 132186126.419 6  25154188.221          39.000        1648.375
 195836453.138 6  37266442.540          40.000       -2140.015
 196162856.020 7  37328555.734          42.000       -2142.407
 135550146.633 5  25794333.957          35.000        -155.628
 07  8 29  8  9  5.0000000  0 13G 3G19G16G25G13G23G27G21G31G11S29S37
                                G22
 106408531.376 8  20248873.904          51.000       -2711.883
 110225167.277 8  20975154.717          51.000        -940.659
 115033657.155 8  21890183.070          48.000       -3663.728
 118099114.304 8  22473520.026          50.000          42.039
 124263633.936 7  23646587.417          43.000       -3878.671
 126161424.426 8  24007728.061          49.000       -4811.225
 128519713.383 7  24456497.862          47.000         930.825
 131949479.15025  25109150.473          35.000       -4797.480
 131430104.788 6  25010312.847          41.000       -5789.871
 132184477.344 6  25153874.380          38.000        1651.218
 195838591.936 6  37266849.601          41.000       -2139.262
 196164997.511 7  37328963.180          42.000       -2138.908
 135550301.170 5  25794363.501          35.000        -153.789
 07  8 29  8  9  6.0000000  0 13G 3G19G16G25G13G23G27G21G31G11S29S37
                                G22
 106411242.587 8  20249389.942          51.000       -2709.916
 110226106.984 8  20975333.425          50.000        -938.722
 115037319.776 8  21890880.067          48.000       -3661.526
 118099071.452 8  22473512.052          50.000          43.910
 124267511.632 7  23647325.405          43.000       -3876.231
 126166235.029 8  24008643.622          49.000       -4809.390
 128518781.862 7  24456320.533          46.000         932.515
 131954276.19725  25110063.416          35.000       -4796.414
 131435893.554 6  25011414.341          40.000       -5786.476
 132182825.785 6  25153560.294          39.000        1651.768
 195840728.034 6  37267256.210          41.000       -2137.420
 196167136.397 7  37329370.242          42.000       -2138.287
 135550453.240 5  25794392.278          35.000        -150.322
 07  8 29  8  9  7.0000000  0 13G 3G19G16G25G13G23G27G21G31G11S29S37
                                G22
 106413951.898 8  20249905.370          51.000       -2707.842
 110227044.813 8  20975511.907          50.000        -936.460
 115040980.313 8  21891576.454          48.000       -3659.072
 118099026.711 8  22473503.590          50.000          46.008
 124271387.473 7  23648063.131          43.000       -3873.889
 126171043.484 8  24009558.730          49.000       -4806.664
 128517848.232 7  24456142.856          46.000         934.763
 131959071.26125  25110975.854          35.000       -4795.071
 131441680.112 6  25012515.677          40.000       -5784.970
 132181171.890 6  25153245.633          38.000        1654.877
 195842861.951 6  37267662.365          40.000       -2132.565
 196169272.671 6  37329776.501          41.000       -2136.016
 135550603.089 5  25794420.827          35.000        -147.067
 07  8 29  8  9  8.0000000  0 13G 3G19G16G25G13G23G27G21G31G11S29S37
                                G22
 106416659.153 8  20250420.693          51.000       -2705.889
 110227980.632 8  20975690.196          51.000        -934.594
 115044638.642 8  21892272.143          48.000       -3656.506
 118098979.959 8  22473494.638          50.000          47.868
 124275261.319 7  23648800.333          43.000       -3873.492
 126175849.664 8  24010473.104          49.000       -4804.799
 128516912.361 7  24455964.743          46.000         937.422
 131963864.21526  25111887.856          36.000       -4791.002
 131447464.274 6  25013616.333          41.000       -5783.373
 132179515.555 6  25152930.238          38.000        1657.669
 195844993.456 6  37268068.066          40.000       -2129.751
 196171406.506 7  37330182.569          43.000       -2132.914
 135550750.586 5  25794448.818          35.000        -145.096
 07  8 29  8  9  9.0000000  0 13G 3G19G16G25G13G23G27G21G31G11S29S37
                                G22
 106419364.432 8  20250935.615          51.000       -2703.968
 110228914.489 8  20975867.962          50.000        -932.563
 115048294.807 8  21892968.058          48.000       -3654.591
 118098931.263 8  22473485.356          50.000          50.195
 124279133.226 7  23649537.170          43.000       -3871.015
 126180653.612 8  24011387.113          49.000       -4802.399
 128515974.302 7  24455786.350          46.000         939.341
 131968655.14726  25112799.944          36.000       -4790.342
 131453246.144 6  25014716.762          41.000       -5780.994
 132177856.801 6  25152613.902          38.000        1660.050
 195847122.806 6  37268473.295          40.000       -2130.418
 196173537.806 6  37330587.939          41.000       -2129.845
 135550895.742 5  25794476.216          34.000        -144.092
 07  8 29  8  9 10.0000000  0 13G 3G19G16G25G13G23G27G21G31G11S29S37
                                G22
 106422067.633 8  20251449.821          51.000       -2702.166
 110229846.298 8  20976045.048          50.000        -930.675
 115051948.740 8  21893663.084          48.000       -3652.584
 118098880.528 8  22473475.916          50.000          51.659
 124283003.084 7  23650273.953          44.000       -3869.072
 126185455.248 8  24012300.685          48.000       -4799.936
 128515033.968 7  24455607.486          46.000         941.481
 131973443.83226  25113711.806          36.000       -4788.146
 131459025.590 6  25015817.121          41.000       -5778.420
 132176195.553 6  25152297.478          38.000        1662.110
 195849249.739 6  37268878.090          40.000       -2125.276
 196175666.865 7  37330992.994          42.000       -2128.413
 135551038.392 5  25794503.597          33.000        -140.005
 07  8 29  8  9 11.0000000  0 13G 3G19G16G25G13G23G27G21G31G11S29S37
                                G22
 106424768.835 8  20251963.731          51.000       -2700.062
 110230776.140 8  20976222.099          51.000        -928.746
 115055600.486 8  21894357.464          48.000       -3650.412
 118098827.822 8  22473466.040          50.000          54.087
 124286870.986 7  23651010.214          45.000       -3867.084
 126190254.630 8  24013214.170          48.000       -4798.236
 128514091.431 7  24455428.116          47.000         943.679
 131978230.45726  25114623.181          36.000       -4783.053
 131464802.706 6  25016916.416          41.000       -5777.003
 132174531.908 6  25151981.054          38.000        1665.491
 195851374.385 6  37269282.621          40.000       -2123.921
 196177793.748 7  37331397.700          42.000       -2125.293
 135551178.816 5  25794530.051          32.000        -141.080
 07  8 29  8  9 12.0000000  0 13G 3G19G16G25G13G23G27G21G31G11S29S37
                                G22
 106427468.098 8  20252477.606          51.000       -2697.636
 110231704.065 8  20976398.556          50.000        -926.480
 115059250.129 8  21895052.070          48.000       -3648.366
 118098773.243 8  22473455.657          50.000          55.791
 124290737.005 7  23651745.776          45.000       -3864.546
 126195051.853 8  24014126.991          48.000       -4796.099
 128513146.768 7  24455248.240          47.000         945.898
 131983015.10436  25115533.367          36.000       -4781.350
 131470577.581 6  25018015.327          41.000       -5773.948
 132172865.906 6  25151664.072          38.000        1667.109
 195853496.360 6  37269686.524          40.000       -2123.172
 196179918.245 7  37331802.005          42.000       -2122.919
 135551316.910 5  25794556.752          32.000        -135.126
 07  8 29  8  9 13.0000000  0 13G 3G19G16G25G13G23G27G21G31G11S29S37
                                G22
 106430165.444 8  20252990.747          51.000       -2696.330
 110232630.106 8  20976574.909          51.000        -924.795
 115062897.705 8  21895746.293          48.000       -3646.159
 118098716.768 8  22473444.961          50.000          57.989
 124294601.145 7  23652481.216          45.000       -3863.273
 126199846.917 8  24015039.551          48.000       -4793.813
 128512199.984 7  24455067.980          47.000         947.836
 131987797.67526  25116442.977          36.000       -4782.342
 131476350.164 6  25019113.802          40.000       -5769.923
 132171197.573 6  25151347.351          38.000        1669.654
 195855615.856 6  37270089.593          40.000       -2114.333
 196182040.446 6  37332205.630          41.000       -2120.633
 135551452.691 5  25794582.281          32.000        -135.757
 07  8 29  8  9 14.0000000  0 13G 3G19G16G25G13G23G27G21G31G11S29S37
                                G22
 106432860.763 8  20253503.610          51.000       -2694.262
 110233554.136 8  20976750.598          51.000        -922.762
 115066543.056 8  21896439.853          48.000       -3644.108
 118098658.273 8  22473433.898          50.000          59.103
 124298463.319 7  23653216.238          44.000       -3860.783
 126204639.722 8  24015951.343          48.000       -4791.895
 128511250.969 7  24454887.633          47.000         950.735
 131992578.25126  25117352.675          36.000       -4779.000
 131482120.411 6  25020212.015          41.000       -5767.758
 132169526.784 6  25151028.624          38.000        1672.076
 195857732.906 6  37270492.517          41.000       -2118.484
 196184160.036 7  37332608.905          43.000       -2117.891
 135551586.186 5  25794608.161          32.000        -133.216
 07  8 29  8  9 15.0000000  0 13G 3G19G16G25G13G23G27G21G31G11S29S37
                                G22
 106435554.160 8  20254016.211          51.000       -2692.447
 110234476.245 8  20976925.886          50.000        -921.230
 115070186.309 7  21897133.133          47.000       -3641.933
 118098597.887 8  22473422.417          50.000          61.733
 124302323.598 7  23653950.526          44.000       -3858.459
 126209430.351 8  24016863.083          48.000       -4789.649
 128510299.833 7  24454706.815          47.000         952.292
 131997356.77926  25118262.774          36.000       -4778.388
 131487888.416 6  25021309.878          40.000       -5766.631
 132167853.632 6  25150710.298          38.000        1674.555
 195859847.219 6  37270894.939          41.000       -2111.757
 196186277.163 7  37333011.674          43.000       -2116.954
 135551716.94435  25794633.273          32.000        -129.647
 07  8 29  8  9 16.0000000  0 13G 3G19G16G25G13G23G27G21G31G11S29S37
                                G22
 106438245.590 8  20254528.550          50.000       -2690.087
 110235396.436 8  20977101.105          51.000        -919.281
 115073827.424 7  21897826.117          47.000       -3639.738
 118098535.563 8  22473410.464          50.000          63.627
 124306181.948 7  23654684.762          43.000       -3857.235
 126214218.788 8  24017774.317          48.000       -4786.989
 128509346.527 7  24454525.228          46.000         954.404
 132002133.18526  25119171.059          36.000       -4775.439
 131493654.103 6  25022406.817          40.000       -5764.679
 132166178.133 6  25150390.907          37.000        1676.400
 195861959.438 6  37271297.062          40.000       -2109.797
 196188391.988 6  37333413.746          41.000       -2113.060
 135551845.82825  25794657.810          31.000        -124.899
 07  8 29  8  9 17.0000000  0 13G 3G19G16G25G13G23G27G21G31G11S29S37
                                G22
 106440935.169 8  20255040.174          50.000       -2688.348
 110236314.798 8  20977276.061          51.000        -917.140
 115077466.529 7  21898518.403          47.000       -3638.035
 118098471.405 8  22473398.302          50.000          65.563
 124310038.476 7  23655418.405          43.000       -3854.816
 126219005.094 8  24018685.237          48.000       -4784.794
 128508391.166 7  24454343.346          47.000         956.321
 132006907.76325  25120079.641          34.000       -4772.140
 131499417.608 6  25023503.879          40.000       -5761.343
 132164500.343 6  25150071.325          37.000        1678.024
 195864069.382 6  37271698.610          40.000       -2108.866
 196190504.488 6  37333815.660          41.000       -2110.931
 135551972.53735  25794681.822          30.000        -123.663
 07  8 29  8  9 18.0000000  0 13G 3G19G16G25G13G23G27G21G31G11S29S37
                                G22
 106443622.743 8  20255551.291          50.000       -2686.283
 110237231.183 8  20977450.442          51.000        -915.264
 115081103.452 8  21899210.776          48.000       -3635.672
 118098405.296 8  22473385.809          50.000          67.352
 124313893.054 7  23656151.594          43.000       -3853.247
 126223789.190 8  24019595.668          48.000       -4782.542
 128507433.585 7  24454161.114          46.000         959.220
 132011680.18725  25120987.891          35.000       -4769.648
 131505178.772 6  25024599.683          39.000       -5760.923
 132162820.145 6  25149751.463          37.000        1680.948
 195866176.975 6  37272099.634          40.000       -2107.482
 196192614.813 6  37334217.173          41.000       -2108.899
 135552096.88834  25794705.537          29.000        -124.187
 07  8 29  8  9 19.0000000  0 13G 3G19G16G25G13G23G27G21G31G11S29S37
                                G22
 106446308.301 8  20256062.531          50.000       -2684.328
 110238145.596 8  20977624.421          51.000        -913.438
 115084738.205 8  21899902.416          48.000       -3633.983
 118098337.238 8  22473372.861          50.000          69.271
 124317745.665 7  23656884.574          42.000       -3850.452
 126228571.033 8  24020505.855          48.000       -4780.312
 128506473.807 7  24453978.690          47.000         961.341
 132016450.579 5  25121895.791          34.000       -4770.507
 131510937.639 6  25025695.139          39.000       -5756.960
 132161137.546 6  25149431.619          36.000        1684.006
 195868281.940 6  37272500.117          39.000       -2104.493
 196194722.609 6  37334618.530          40.000       -2105.149
                  25794729.113          26.000        -121.616
 07  8 29  8  9 20.0000000  0 13G 3G19G16G25G13G23G27G21G31G11S29S37
                                G22
 106448992.053 8  20256573.108          50.000       -2682.604
 110239058.224 8  20977797.982          50.000        -911.294
 115088370.964 7  21900593.795          47.000       -3631.774
 118098267.373 8  22473359.635          50.000          71.054
 124321596.513 7  23657617.396          43.000       -3849.713
 126233350.822 7  24021415.413          47.000       -4778.448
 128505512.018 7  24453795.778          47.000         962.998
 132021219.004 5  25122803.606          34.000       -4763.380
 131516694.319 6  25026790.228          39.000       -5755.747
 132159452.699 6  25149111.199          37.000        1685.100
 195870384.998 6  37272900.077          41.000       -2102.527
 196196828.097 7  37335019.134          42.000       -2104.327
                  25794752.340          25.000        -120.203
 07  8 29  8  9 21.0000000  0 13G 3G19G16G25G13G23G27G21G31G11S29S37
                                G22
 106451674.008 8  20257083.301          50.000       -2680.657
 110239969.078 8  20977971.385          50.000        -909.831
 115092001.762 7  21901284.283          47.000       -3629.314
 118098195.728 8  22473345.780          50.000          72.508
 124325445.593 7  23658349.381          43.000       -3847.991
 126238128.534 8  24022324.622          48.000       -4776.501
 128504548.207 7  24453612.185          46.000         965.050
 132025985.528 5  25123710.965          34.000       -4763.557
 131522448.900 6  25027885.597          39.000       -5752.765
 132157765.622 6  25148790.866          36.000        1686.644
 195872485.953 6  37273299.810          41.000       -2099.738
 196198931.239 7  37335419.251          43.000       -2102.000
                  25794774.329          24.000        -114.527
 07  8 29  8  9 22.0000000  0 13G 3G19G16G25G13G23G27G21G31G11S29S37
                                G22
 106454354.003 8  20257593.353          50.000       -2679.305
 110240878.005 8  20978144.196          50.000        -907.572
 115095630.411 7  21901974.178          47.000       -3627.272
 118098122.167 8  22473331.750          50.000          74.148
 124329292.768 7  23659081.349          43.000       -3846.377
 126242904.071 8  24023233.518          48.000       -4774.418
 128503582.265 7  24453428.592          46.000         966.924
 132030750.119 5  25124617.521          34.000       -4763.596
 131528201.179 6  25028980.406          39.000       -5752.230
 132156076.165 6  25148469.556          36.000        1689.619
 195874584.396 6  37273698.775          39.000       -2099.306
 196201032.265 6  37335819.037          41.000       -2099.254
                  25794796.161          22.000        -110.894
 07  8 29  8  9 23.0000000  0 12G 3G19G16G25G13G23G27G21G31G11S29S37
 106457032.064 8  20258102.866          50.000       -2677.158
 110241785.031 8  20978317.111          50.000        -906.107
 115099256.984 7  21902664.265          47.000       -3625.488
 118098046.700 8  22473317.495          50.000          76.782
 124333138.036 7  23659813.264          43.000       -3844.923
 126247677.426 8  24024141.837          48.000       -4772.333
 128502614.196 7  24453244.196          46.000         969.093
 132035512.645 5  25125523.469          34.000       -4758.086
 131533951.199 6  25030074.833          39.000       -5748.289
 132154384.366 6  25148146.886          37.000        1693.502
 195876681.137 6  37274097.828          39.000       -2095.683
 196203131.209 6  37336218.543          41.000       -2096.926
 07  8 29  8  9 24.0000000  0 12G 3G19G16G25G13G23G27G21G31G11S29S37
 106459708.324 8  20258612.186          50.000       -2675.481
 110242690.294 8  20978489.415          50.000        -904.261
 115102881.580 7  21903353.759          47.000       -3624.065
 118097969.459 8  22473302.889          50.000          78.006
 124336981.575 7  23660544.586          43.000       -3842.162
 126252448.765 8  24025049.738          48.000       -4770.083
 128501644.123 7  24453059.381          46.000         970.559
 132040273.319 5  25126429.135          34.000       -4758.859
 131539699.099 6  25031168.928          39.000       -5745.715
 132152690.387 6  25147824.197          36.000        1694.984
 195878775.360 6  37274496.148          39.000       -2092.153
 196205228.164 7  37336617.525          42.000       -2095.732
 07  8 29  8  9 25.0000000  0 12G 3G19G16G25G13G23G27G21G31G11S29S37
 106462382.760 8  20259121.210          50.000       -2672.966
 110243593.762 8  20978661.265          50.000        -902.349
 115106504.181 7  21904043.358          47.000       -3621.107
 118097890.427 8  22473287.848          50.000          80.566
 124340823.318 7  23661275.663          43.000       -3840.456
 126257218.016 8  24025957.203          48.000       -4767.673
 128500672.027 7  24452874.550          46.000         973.737
 132045031.994 5  25127334.959          35.000       -4757.210
 131545444.856 6  25032261.783          39.000       -5743.929
 132150994.138 6  25147501.805          36.000        1697.906
 195880867.044 6  37274894.118          40.000       -2091.255
 196207323.032 7  37337016.037          43.000       -2093.335
 07  8 29  8  9 26.0000000  0 12G 3G19G16G25G13G23G27G21G31G11S29S37
 106465055.318 8  20259629.762          50.000       -2671.044
 110244495.373 8  20978832.836          50.000        -900.325
 115110124.734 7  21904732.083          47.000       -3619.439
 118097809.556 8  22473272.562          50.000          81.817
 124344663.232 7  23662006.444          43.000       -3838.878
 126261985.157 8  24026864.301          48.000       -4765.476
 128499697.850 7  24452689.474          46.000         975.507
 132049788.813 5  25128240.084          34.000       -4757.110
 131551188.393 6  25033354.394          39.000       -5742.457
 132149295.614 6  25147178.646          36.000        1700.618
 195882957.175 6  37275291.722          40.000       -2088.200
 196209415.509 7  37337414.234          43.000       -2092.480
 07  8 29  8  9 27.0000000  0 12G 3G19G16G25G13G23G27G21G31G11S29S37
 106467725.938 8  20260138.105          50.000       -2669.486
 110245395.084 8  20979003.919          50.000        -898.427
 115113743.171 7  21905420.670          47.000       -3616.980
 118097726.774 8  22473256.683          50.000          84.050
 124348501.218 7  23662737.068          43.000       -3836.937
 126266750.123 8  24027770.893          48.000       -4763.334
 128498721.535 7  24452503.577          46.000         977.456
 132054543.566 5  25129144.460          35.000       -4754.580
 131556929.688 6  25034447.442          39.000       -5739.563
 132147594.732 6  25146855.294          37.000        1702.484
 195885044.628 6  37275688.768          39.000       -2085.095
 196211505.392 6  37337811.943          41.000       -2089.009
 07  8 29  8  9 28.0000000  0 12G 3G19G16G25G13G23G27G21G31G11S29S37
 106470394.662 8  20260645.698          50.000       -2667.544
 110246292.911 8  20979174.897          50.000        -896.794
 115117359.542 7  21906109.187          47.000       -3614.873
 118097642.096 8  22473240.228          50.000          85.751
 124352337.365 7  23663467.029          42.000       -3835.628
 126271512.935 7  24028677.223          47.000       -4761.845
 128497743.122 7  24452317.489          46.000         979.788
 132059296.358 5  25130048.784          34.000       -4751.565
 131562668.703 6  25035539.286          39.000       -5736.767
 132145891.531 6  25146530.965          36.000        1704.797
 195887129.515 6  37276085.115          39.000       -2084.019
 196213592.813 6  37338209.146          41.000       -2085.342
 07  8 29  8  9 29.0000000  0 12G 3G19G16G25G13G23G27G21G31G11S29S37
 106473061.607 8  20261153.220          50.000       -2665.979
 110247189.008 8  20979345.473          50.000        -895.084
 115120973.969 7  21906797.179          47.000       -3613.311
 118097555.706 8  22473223.966          50.000          87.534
 124356171.781 7  23664196.431          42.000       -3833.390
 126276273.758 7  24029583.099          47.000       -4759.432
 128496762.736 7  24452130.825          46.000         981.935
 132064047.250 5  25130952.933          34.000       -4749.138
 131568405.641 6  25036630.902          38.000       -5735.681
 132144186.133 6  25146206.112          37.000        1705.612
 195889211.978 6  37276481.446          39.000       -2080.388
 196215678.002 6  37338605.913          41.000       -2082.670
 07  8 29  8  9 30.0000000  0 12G 3G19G16G25G13G23G27G21G31G11S29S37
 106475726.707 8  20261660.586          50.000       -2663.951
 110248083.288 8  20979515.614          50.000        -893.184
 115124586.369 7  21907484.457          47.000       -3611.545
 118097467.459 8  22473207.511          50.000          89.260
 124360004.391 7  23664925.711          43.000       -3831.687
 126281032.466 7  24030488.679          47.000       -4757.618
 128495780.313 7  24451943.969          46.000         984.572
 132068796.247 5  25131856.592          34.000       -4749.126
 131574140.381 6  25037722.414          39.000       -5733.615
 132142478.487 6  25145881.033          36.000        1708.742
 195891292.188 6  37276877.235          39.000       -2078.617
 196217760.867 6  37339002.120          41.000       -2081.817
 07  8 29  8  9 31.0000000  0 12G 3G19G16G25G13G23G27G21G31G11S29S37
 106478390.033 8  20262167.341          50.000       -2662.418
 110248975.827 8  20979685.405          50.000        -891.886
 115128196.840 7  21908171.490          47.000       -3609.420
 118097377.499 8  22473190.463          50.000          91.081
 124363835.288 7  23665654.730          43.000       -3830.452
 126285789.180 7  24031393.927          47.000       -4755.973
 128494795.911 7  24451756.589          46.000         985.391
 132073543.39335  25132759.626          34.000       -4743.087
 131579873.055 6  25038813.315          39.000       -5731.342
 132140768.643 6  25145554.576          36.000        1712.748
 195893370.569 6  37277272.500          40.000       -2077.707
 196219841.397 7  37339398.119          42.000       -2078.994
 07  8 29  8  9 32.0000000  0 13G 3G19G16G25G13G23G27G21G31G11S29S37
                                G22
 106481051.255 8  20262673.870          50.000       -2659.854
 110249866.283 8  20979855.074          50.000        -889.512
 115131805.032 7  21908858.140          47.000       -3607.048
 118097285.457 8  22473172.891          50.000          93.196
 124367664.103 7  23666382.981          43.000       -3827.775
 126290543.542 8  24032298.722          48.000       -4753.535
 128493809.213 7  24451568.895          46.000         987.939
 132078288.34126  25133662.693          36.000       -4741.567
 131585603.256 6  25039904.042          39.000       -5728.399
 132139056.309 6  25145229.287          38.000        1713.479
 195895446.581 6  37277667.557          39.000       -2073.771
 196221919.304 7  37339793.454          42.000       -2077.623
                  25794987.980          31.000         -92.599
 07  8 29  8  9 33.0000000  0 13G 3G19G16G25G13G23G27G21G31G11S29S37
                                G22
 106483710.753 8  20263180.084          50.000       -2658.476
 110250755.044 8  20980024.325          51.000        -887.701
 115135411.328 7  21909544.353          47.000       -3605.220
 118097191.729 8  22473155.022          50.000          94.189
 124371491.260 7  23667111.231          43.000       -3826.290
 126295295.932 8  24033203.045          48.000       -4751.383
 128492820.587 7  24451380.625          46.000         989.428
 132083031.46026  25134565.601          36.000       -4742.990
 131591331.402 6  25040994.263          39.000       -5727.192
 132137341.789 6  25144902.689          38.000        1715.655
 195897520.357 6  37278062.160          39.000       -2071.789
 196223995.366 6  37340188.528          41.000       -2077.042
                  25795005.397          32.000         -90.011
 07  8 29  8  9 34.0000000  0 13G 3G19G16G25G13G23G27G21G31G11S29S37
                                G22
 106486368.537 8  20263685.844          51.000       -2656.780
 110251642.124 8  20980192.825          51.000        -886.277
 115139015.741 7  21910230.636          47.000       -3603.308
 118097096.344 8  22473136.927          50.000          96.898
 124375316.731 7  23667839.028          42.000       -3823.971
 126300046.378 8  24034106.793          48.000       -4748.827
 128491830.050 7  24451192.199          46.000         991.293
 132087772.78926  25135467.010          36.000       -4741.862
 131597057.511 6  25042084.221          40.000       -5724.993
 132135625.169 6  25144576.232          38.000        1718.264
 195899591.836 6  37278456.291          39.000       -2070.128
 196226069.297 6  37340583.096          41.000       -2074.190
                  25795023.563          31.000         -87.980
 07  8 29  8  9 35.0000000  0 13G 3G19G16G25G13G23G27G21G31G11S29S37
                                G22
 106489024.405 8  20264191.308          51.000       -2654.735
 110252527.320 8  20980361.342          51.000        -884.118
 115142618.077 8  21910916.273          48.000       -3601.206
 118096999.080 8  22473118.187          50.000          98.448
 124379140.307 7  23668566.651          43.000       -3822.339
 126304794.658 8  24035010.331          48.000       -4747.147
 128490837.408 7  24451003.458          47.000         993.540
 132092512.11825  25136368.088          35.000       -4738.958
 131602781.388 6  25043173.448          40.000       -5721.931
 132133906.236 6  25144249.355          39.000        1720.073
 195901660.930 6  37278850.090          40.000       -2069.425
 196228140.847 7  37340977.646          42.000       -2070.181
                  25795039.636          32.000         -85.325
 07  8 29  8  9 36.0000000  0 13G 3G19G16G25G13G23G27G21G31G11S29S37
                                G22
 106491678.559 8  20264696.108          51.000       -2653.295
 110253410.830 8  20980529.458          51.000        -882.765
 115146218.518 8  21911601.369          48.000       -3599.479
 118096900.119 8  22473099.358          50.000         100.021
 124382962.214 7  23669293.749          43.000       -3821.617
 126309540.978 8  24035913.887          48.000       -4745.296
 128489842.844 7  24450813.775          46.000         995.648
 132097249.70226  25137269.987          36.000       -4733.588
 131608503.189 6  25044262.412          40.000       -5718.793
 132132185.139 6  25143922.199          38.000        1721.520
 195903728.421 6  37279243.716          39.000       -2066.716
 196230209.996 7  37341371.534          42.000       -2067.385
 135553932.93635  25795055.918          31.000         -83.303
 07  8 29  8  9 37.0000000  0 13G 3G19G16G25G13G23G27G21G31G11S29S37
                                G22
 106494331.111 8  20265200.996          51.000       -2651.790
 110254292.755 8  20980697.557          51.000        -881.196
 115149817.191 8  21912286.186          48.000       -3597.579
 118096799.605 8  22473080.042          50.000         101.720
 124386782.579 7  23670020.935          43.000       -3819.329
 126314285.463 8  24036816.570          48.000       -4743.317
 128488846.484 7  24450624.441          46.000         997.167
 132101985.54426  25138171.675          36.000       -4734.833
 131614223.084 6  25045350.957          40.000       -5717.805
 132130462.053 6  25143594.519          38.000        1723.528
 195905793.929 6  37279636.871          40.000       -2062.353
 196232277.333 7  37341765.019          43.000       -2065.633
 135554015.90225  25795071.867          31.000         -82.649
 07  8 29  8  9 38.0000000  0 13G 3G19G16G25G13G23G27G21G31G11S29S37
                                G22
 106496981.845 8  20265705.483          50.000       -2649.371
 110255172.899 8  20980864.835          51.000        -879.068
 115153413.875 8  21912970.689          48.000       -3595.664
 118096697.295 8  22473060.707          50.000         103.539
 124390601.170 7  23670747.598          43.000       -3816.905
 126319027.878 8  24037719.253          48.000       -4741.527
 128487848.114 7  24450434.269          46.000        1000.226
 132106719.54736  25139072.839          36.000       -4733.458
 131619940.814 6  25046438.735          39.000       -5715.614
 132128736.719 6  25143266.334          38.000        1727.474
 195907856.36536  37280029.501          39.000       -2062.348
 196234342.615 6  37342158.104          41.000       -2064.192
 135554096.68125  25795087.015          31.000         -80.990
 07  8 29  8  9 39.0000000  0 13G 3G19G16G25G13G23G27G21G31G11S29S37
                                G22
 106499630.772 8  20266209.568          50.000       -2647.564
 110256051.276 8  20981032.149          51.000        -877.184
 115157008.582 8  21913654.669          48.000       -3593.456
 118096593.206 8  22473040.693          50.000         104.881
 124394417.982 7  23671473.737          42.000       -3817.123
 126323768.248 8  24038621.168          48.000       -4738.907
 128486847.744 7  24450243.783          47.000        1001.654
 132111451.58326  25139973.498          36.000       -4731.787
 131625656.401 6  25047526.006          39.000       -5715.404
 132127009.188 6  25142937.451          38.000        1730.208
 195909917.691 6  37280421.644          38.000       -2058.093
 196236406.129 7  37342550.734          42.000       -2062.739
                  25795102.444          22.000         -71.228
 07  8 29  8  9 40.0000000  0 12G 3G19G16G25G13G23G27G21G31G11S29S37
 106502277.859 8  20266713.234          50.000       -2646.442
 110256927.824 8  20981199.043          51.000        -875.656
 115160601.267 8  21914338.875          48.000       -3591.736
 118096487.299 8  22473020.626          50.000         107.080
 124398232.998 7  23672199.859          43.000       -3814.337
 126328506.526 8  24039522.665          48.000       -4737.087
 128485845.302 7  24450052.809          46.000        1003.704
 132116181.71926  25140873.163          36.000       -4728.113
 131631369.802 6  25048613.051          39.000       -5712.235
 132125279.370 6  25142608.759          38.000        1730.554
 195911976.335 6  37280813.158          39.000       -2055.139
 196238467.610 6  37342943.347          41.000       -2060.624
 07  8 29  8  9 41.0000000  0 13G 3G19G16G25G13G23G27G21G31G11S29S37
                                G22
 106504923.195 8  20267216.534          50.000       -2644.175
 110257802.659 8  20981365.414          51.000        -873.910
 115164192.035 8  21915022.087          48.000       -3589.866
 118096379.685 8  22473000.210          50.000         108.795
 124402046.290 7  23672925.335          43.000       -3810.962
 126333242.809 8  24040423.795          48.000       -4735.257
 128484840.939 7  24449861.730          46.000        1005.441
 132120910.02126  25141772.878          36.000       -4730.777
 131637081.164 6  25049699.799          39.000       -5709.173
 132123547.410 6  25142279.579          38.000        1733.093
 195914032.986 6  37281204.671          39.000       -2054.252
 196240526.646 6  37343335.193          41.000       -2058.656
 135554349.05135  25795135.110          34.000         -73.810
 07  8 29  8  9 42.0000000  0 13G 3G19G16G25G13G23G27G21G31G11S29S37
                                G22
 106507566.795 8  20267719.589          50.000       -2642.637
 110258675.797 8  20981531.558          51.000        -871.747
 115167780.914 8  21915705.264          48.000       -3587.226
 118096270.368 8  22472979.322          50.000         110.123
 124405857.902 7  23673650.741          43.000       -3810.846
 126337977.126 8  24041324.733          48.000       -4732.965
 128483834.642 7  24449670.109          47.000        1007.358
 132125636.53236  25142671.339          36.000       -4725.003
 131642790.449 6  25050785.936          39.000       -5707.980
 132121813.318 6  25141949.770          37.000        1734.352
 195916087.367 6  37281595.556          39.000       -2053.918
 196242583.329 7  37343726.603          42.000       -2054.448
                  25795148.914          29.000         -71.162
 07  8 29  8  9 43.0000000  0 13G 3G19G16G25G13G23G27G21G31G11S29S37
                                G22
 106510208.622 8  20268222.313          50.000       -2640.827
 110259547.184 8  20981697.702          51.000        -870.369
 115171367.843 8  21916388.214          49.000       -3585.123
 118096159.306 8  22472958.313          50.000         112.407
 124409667.784 7  23674375.868          43.000       -3808.279
 126342709.443 8  24042225.514          48.000       -4730.430
 128482826.389 7  24449478.350          46.000        1009.695
 132130361.13826  25143571.178          38.000       -4723.105
 131648497.631 6  25051872.178          39.000       -5705.657
 132120077.039 6  25141619.107          37.000        1737.295
 195918139.676 6  37281986.129          41.000       -2050.226
 196244637.732 7  37344117.610          43.000       -2053.641
 135554494.53035  25795162.754          35.000         -68.001
 07  8 29  8  9 44.0000000  0 13G 3G19G16G25G13G23G27G21G31G11S29S37
                                G22
 106512848.713 8  20268724.705          50.000       -2639.511
 110260416.874 8  20981863.305          51.000        -869.178
 115174952.871 8  21917070.535          49.000       -3584.418
 118096046.530 8  22472936.954          50.000         113.787
 124413475.975 7  23675100.576          43.000       -3807.203
 126347439.777 8  24043125.754          48.000       -4729.640
 128481816.187 7  24449286.241          46.000        1010.947
 132135083.97526  25144470.284          37.000       -4719.827
 131654202.791 6  25052957.286          37.000       -5702.671
 132118338.585 6  25141288.357          38.000        1739.215
 195920189.397 6  37282376.229          41.000       -2048.547
 196246689.987 7  37344508.094          43.000       -2052.127
 135554562.65125  25795175.231          34.000         -66.380
 07  8 29  8  9 45.0000000  0 13G 3G19G16G25G13G23G27G21G31G11S29S37
                                G22
 106515487.147 8  20269226.784          50.000       -2637.233
 110261284.928 8  20982028.403          51.000        -866.887
 115178536.060 8  21917752.578          49.000       -3582.286
 118095932.118 8  22472915.229          50.000         115.428
 124417282.536 7  23675824.953          43.000       -3805.516
 126352168.194 8  24044025.645          48.000       -4727.239
 128480804.144 7  24449093.766          46.000        1013.524
 132139805.07226  25145368.674          36.000       -4719.330
 131659905.874 6  25054042.184          38.000       -5701.153
 132116598.087 6  25140957.030          38.000        1740.988
 195922237.284 6  37282766.120          40.000       -2045.815
 196248740.083 7  37344898.248          43.000       -2048.473
 135554628.73425  25795187.779          34.000         -63.606
 07  8 29  8  9 46.0000000  0 13G 3G19G16G25G13G23G27G21G31G11S29S37
                                G22
 106518123.873 8  20269728.147          50.000       -2636.013
 110262151.302 8  20982193.203          51.000        -866.103
 115182117.387 8  21918434.358          48.000       -3580.960
 118095816.048 8  22472893.347          50.000         116.543
 124421087.439 7  23676549.033          43.000       -3804.069
 126356894.684 8  24044924.785          48.000       -4725.745
 128479790.196 7  24448900.662          46.000        1014.643
 132144524.33926  25146266.923          36.000       -4720.226
 131665606.979 6  25055126.908          38.000       -5699.265
 132114855.440 6  25140624.779          38.000        1743.195
 195924282.879 6  37283155.644          39.000       -2045.821
 196250788.410 6  37345287.858          41.000       -2048.900
 135554692.78425  25795199.697          33.000         -63.831
 07  8 29  8  9 47.0000000  0 13G 3G19G16G25G13G23G27G21G31G11S29S37
                                G22
 106520758.726 8  20270229.736          50.000       -2634.123
 110263015.847 8  20982357.794          51.000        -863.539
 115185696.659 8  21919115.406          49.000       -3578.130
 118095698.127 8  22472870.541          50.000         119.177
 124424890.507 7  23677272.537          43.000       -3802.202
 126361619.052 8  24045823.786          48.000       -4723.597
 128478774.182 7  24448707.071          46.000        1016.975
 132149241.64126  25147164.128          36.000       -4716.654
 131671305.871 6  25056211.300          38.000       -5698.772
 132113110.524 6  25140292.580          38.000        1745.546
 195926326.750 6  37283544.593          40.000       -2043.003
 196252834.710 7  37345677.157          42.000       -2044.872
 135554754.66925  25795211.006          33.000         -60.624
 07  8 29  8  9 48.0000000  0 13G 3G19G16G25G13G23G27G21G31G11S29S37
                                G22
 106523391.948 8  20270730.628          50.000       -2632.127
 110263878.772 8  20982522.333          51.000        -861.870
 115189274.135 8  21919796.088          49.000       -3576.435
 118095578.604 8  22472847.961          50.000         120.695
 124428691.972 7  23677995.727          43.000       -3800.533
 126366341.543 8  24046722.369          48.000       -4721.230
 128477756.328 7  24448513.356          46.000        1018.862
                  25148060.860          37.000       -4714.875
 131677002.790 6  25057294.785          38.000       -5695.592
 132111363.575 6  25139960.713          38.000        1747.963
 195928368.323 6  37283933.280          39.000       -2040.555
 196254878.674 7  37346066.036          42.000       -2042.613
 135554814.52725  25795221.721          33.000         -60.191
 07  8 29  8  9 49.0000000  0 13G 3G19G16G25G13G23G27G21G31G11S29S37
                                G22
 106526023.480 8  20271231.275          50.000       -2630.884
 110264740.045 8  20982686.121          52.000        -861.269
 115192849.755 8  21920476.612          49.000       -3574.720
 118095457.422 8  22472824.805          50.000         122.254
 124432491.802 7  23678718.830          43.000       -3799.333
 126371062.105 8  24047620.567          48.000       -4719.687
 128476736.607 7  24448319.625          46.000        1020.223
 132158666.09826  25148958.063          37.000       -4714.498
 131682697.693 6  25058378.618          39.000       -5693.694
 132109614.495 6  25139627.379          37.000        1749.704
 195930407.732 6  37284321.461          39.000       -2036.965
 196256920.210 6  37346454.356          41.000       -2040.186
 135554872.38625  25795232.384          33.000         -56.364
 07  8 29  8  9 50.0000000  0 13G 3G19G16G25G13G23G27G21G31G11S29S37
                                G22
 106528653.364 8  20271731.801          51.000       -2628.700
 110265599.710 8  20982849.666          52.000        -858.359
 115196423.557 8  21921156.648          49.000       -3572.718
 118095334.648 8  22472801.317          50.000         123.364
 124436290.028 7  23679441.601          43.000       -3796.374
 126375780.783 8  24048518.783          48.000       -4717.566
 128475715.041 7  24448125.370          47.000        1023.024
 132163378.24426  25149854.395          38.000       -4710.750
 131688390.635 6  25059462.470          39.000       -5691.788
 132107863.377 6  25139293.366          37.000        1752.839
 195932445.682 6  37284709.380          41.000       -2037.377
 196258959.982 7  37346842.572          43.000       -2038.139
 135554928.31725  25795242.926          31.000         -53.128
 07  8 29  8  9 51.0000000  0 13G 3G19G16G25G13G23G27G21G31G11S29S37
                                G22
 106531281.503 8  20272231.942          50.000       -2627.244
 110266457.645 8  20983012.878          52.000        -856.874
 115199995.437 8  21921836.474          49.000       -3571.342
 118095210.173 8  22472777.586          50.000         125.568
 124440086.536 7  23680164.389          43.000       -3796.237
 126380497.457 8  24049416.510          48.000       -4714.788
 128474691.524 7  24447930.661          47.000        1024.356
 132168088.46726  25150751.162          38.000       -4709.926
 131694081.495 6  25060545.483          40.000       -5689.341
 132106110.099 6  25138959.631          36.000        1755.079
 195934481.015 6  37285096.618          41.000       -2034.705
 196260997.700 7  37347230.369          43.000       -2037.005
                  25795253.937          28.000         -52.183
 07  8 29  8  9 52.0000000  0 13G 3G19G16G25G13G23G27G21G31G11S29S37
                                G22
 106533908.060 8  20272731.822          50.000       -2625.290
 110267314.032 8  20983175.881          52.000        -855.112
 115203565.571 8  21922515.986          49.000       -3568.542
 118095084.144 8  22472753.383          50.000         127.137
 124443881.512 7  23680886.585          43.000       -3793.511
 126385212.301 8  24050313.435          48.000       -4713.586
 128473666.234 7  24447735.533          47.000        1026.816
 132172797.12026  25151647.039          38.000       -4708.827
 131699770.410 6  25061628.253          39.000       -5687.033
 132104354.816 6  25138626.438          37.000        1757.234
 195936514.293 6  37285483.316          40.000       -2031.655
 196263033.507 6  37347617.730          41.000       -2034.289
 135555020.84635  25795262.941          32.000         -51.811
 07  8 29  8  9 53.0000000  0 13G 3G19G16G25G13G23G27G21G31G11S29S37
                                G22
 106536532.998 8  20273231.178          50.000       -2623.691
 110268168.838 8  20983338.884          51.000        -853.986
 115207133.914 8  21923194.975          49.000       -3567.301
 118094956.534 8  22472729.058          50.000         128.616
 124447674.914 7  23681608.658          43.000       -3793.367
 126389925.284 8  24051210.516          48.000       -4711.957
 128472639.137 7  24447539.847          47.000        1028.102
 132177504.06526  25152542.253          37.000       -4708.525
