     2.11           OBSERVATION DATA    M (MIXED)           RINEX VERSION / TYPE
teqc  2007Jun25                         20080118 19:15:26UTCPGM / RUN BY / DATE
MSXP|IAx86-PII|bcc32 5.0|MSWin95->XP|486/DX+                COMMENT
-Unknown-                                                   MARKER NAME
-Unknown-           -Unknown-                               OBSERVER / AGENCY
-Unknown-           U-BLOX              -Unknown-           REC # / TYPE / VERS
-Unknown-           -Unknown-                               ANT # / TYPE
        0.0000        0.0000        0.0000                  APPROX POSITION XYZ
        0.0000        0.0000        0.0000                  ANTENNA: DELTA H/E/N
     1     0                                                WAVELENGTH FACT L1/2
     4    L1    C1    S1    D1                              # / TYPES OF OBSERV
 SNR is mapped to RINEX snr flag value [0-9]                COMMENT
  L1 & L2: min(max(int(snr_dBHz/6), 0), 9)                  COMMENT
  2007     8    29    13    34    4.0010000     GPS         TIME OF FIRST OBS
    14                                                      LEAP SECONDS
                                                            END OF HEADER
 07  8 29 13 34  4.0010000  0  9G20G28G17G11G 4G 1S37S29G13
 111326078.079 8  21184651.417          49.000       -2190.086
 113813365.355 8  21657970.515          51.000       -2823.305
 112627066.071 8  21432220.118          49.000         612.733
 120708238.681 8  22970016.490          49.000       -3470.123
 122960346.565 8  23398578.058          48.000        1103.429
 135567793.967 7  25797697.781          43.000       -1949.762
 198311704.654 7  37737460.742          42.000       -1161.623
 198002098.294 6  37678555.402          39.000       -1165.387
                  25605377.187          28.000        1951.014
 07  8 29 13 34  5.0010000  0  9G20G28G17G11G 4G 1S37S29G13
 111328268.518 8  21185068.302          49.000       -2190.772
 113816189.279 8  21658507.772          51.000       -2824.176
 112626453.296 8  21432103.359          49.000         612.769
 120711709.091 8  22970676.736          49.000       -3470.921
 122959243.221 8  23398367.992          49.000        1103.024
 135569743.793 7  25798068.877          44.000       -1950.209
 198312866.670 7  37737681.924          43.000       -1162.163
 198003263.021 6  37678777.090          40.000       -1163.330
                  25605011.011          28.000        1948.444
 07  8 29 13 34  6.0010000  0  9G20G28G17G11G 4G 1S37S29G13
 111330459.673 8  21185485.327          49.000       -2190.950
 113819013.898 8  21659045.274          51.000       -2824.642
 112625840.923 8  21431986.460          49.000         612.277
 120715179.698 8  22971337.088          49.000       -3470.170
 122958140.201 8  23398158.101          49.000        1102.903
 135571694.268 7  25798440.427          44.000       -1949.835
 198314028.825 7  37737903.001          43.000       -1161.462
 198004427.262 6  37678998.516          41.000       -1164.378
                  25604645.167          27.000        1947.636
 07  8 29 13 34  7.0010000  0  9G20G28G17G11G 4G 1S37S29G13
 111332651.318 8  21185902.352          50.000       -2191.753
 113821838.968 8  21659582.880          51.000       -2825.285
 112625228.742 8  21431869.788          49.000         612.190
 120718650.289 8  22971997.701          49.000       -3470.025
 122957037.275 8  23397948.210          49.000        1103.436
 135573645.163 7  25798811.471          44.000       -1951.537
 198315191.265 7  37738124.164          43.000       -1163.237
 198005591.879 6  37679220.134          40.000       -1163.470
                  25604279.428          25.000        1948.138
 07  8 29 13 34  8.0010000  0  9G20G28G17G11G 4G 1S37S29G13
 111334843.454 8  21186319.395          50.000       -2192.138
 113824664.517 8  21660120.556          51.000       -2825.788
 112624616.744 8  21431753.360          49.000         612.017
 120722120.874 8  22972658.209          49.000       -3470.532
 122955934.432 8  23397738.458          49.000        1102.838
 135575596.503 7  25799182.689          44.000       -1951.640
 198316353.689 7  37738345.346          43.000       -1163.074
 198006756.363 6  37679441.768          40.000       -1166.942
                  25603911.910          25.000        1951.186
 07  8 29 13 34  9.0010000  0  9G20G28G17G11G 4G 1S37S29G13
 111337036.333 8  21186736.717          50.000       -2192.835
 113827490.776 8  21660658.371          51.000       -2826.298
 112624005.191 8  21431636.862          49.000         611.347
 120725591.702 8  22973318.507          49.000       -3470.834
 122954831.952 8  23397528.619          49.000        1102.671
 135577548.527 7  25799553.314          43.000       -1952.707
 198317516.224 7  37738566.510          42.000       -1162.481
 198007921.393 6  37679663.317          40.000       -1162.678
                  25603545.822          24.000        1950.267
 07  8 29 13 34 10.0010000  0  9G20G28G17G11G 4G 1S37S29G13
 111339229.813 8  21187154.265          50.000       -2194.105
 113830317.637 8  21661196.256          51.000       -2827.074
 112623393.947 8  21431520.329          49.000         611.171
 120729062.635 8  22973979.015          49.000       -3470.856
 122953729.677 8  23397318.571          49.000        1102.094
 135579501.106 7  25799924.270          43.000       -1953.324
 198318678.642 7  37738787.709          43.000       -1163.061
 198009086.004 6  37679885.161          41.000       -1164.712
                  25603179.543          24.000        1953.197
 07  8 29 13 34 11.0010000  0  9G20G28G17G11G 4G 1S37S29G13
 111341423.827 8  21187571.674          50.000       -2194.000
 113833144.976 8  21661734.351          51.000       -2827.323
 112622782.907 8  21431403.797          49.000         611.338
 120732533.584 8  22974639.768          49.000       -3470.865
 122952627.511 8  23397108.924          49.000        1102.454
 135581454.132 7  25800295.524          43.000       -1953.222
 198319840.857 7  37739008.925          43.000       -1162.540
 198010250.615 6  37680106.656          41.000       -1165.858
                  25602813.995          24.000        1952.098
 07  8 29 13 34 12.0010000  0  9G20G28G17G11G 4G 1S37S29G13
 111343618.535 8  21187989.415          49.000       -2194.802
 113835972.998 8  21662272.742          51.000       -2828.206
 112622172.274 8  21431287.334          49.000         610.956
 120736004.726 8  22975300.032          49.000       -3471.201
 122951525.681 8  23396899.329          49.000        1101.747
 135583407.803 7  25800666.794          42.000       -1953.344
 198321003.446 7  37739230.020          42.000       -1162.647
 198011415.269 6  37680328.328          41.000       -1162.518
                  25602443.350          23.000        1945.654
 07  8 29 13 34 13.0010000  0  8G20G28G17G11G 4G 1S37S29
 111345813.926 8  21188406.998          50.000       -2195.704
 113838801.682 8  21662810.889          51.000       -2828.697
 112621562.033 8  21431171.028          49.000         610.173
 120739476.071 8  22975960.540          49.000       -3471.420
 122950424.116 8  23396689.630          49.000        1101.457
 135585362.112 7  25801038.117          42.000       -1953.958
 198322165.953 7  37739451.306          42.000       -1161.615
 198012580.316 6  37680549.945          40.000       -1163.655
 07  8 29 13 34 14.0010000  0  8G20G28G17G11G 4G 1S37S29
 111348009.857 8  21188825.210          50.000       -2196.127
 113841630.894 8  21663349.194          51.000       -2828.904
 112620952.050 8  21431054.792          48.000         610.272
 120742947.444 8  22976621.327          50.000       -3471.190
 122949322.694 8  23396479.896          49.000        1101.305
 135587316.895 7  25801409.719          42.000       -1955.290
 198323328.052 7  37739672.488          42.000       -1161.897
 198013745.064 6  37680771.597          40.000       -1164.960
 07  8 29 13 34 15.0010000  0  8G20G28G17G11G 4G 1S37S29
 111350206.487 8  21189243.230          49.000       -2196.686
 113844460.762 8  21663887.480          51.000       -2829.939
 112620342.448 8  21430938.608          48.000         609.752
 120746419.038 8  22977282.097          50.000       -3471.209
 122948221.591 8  23396270.231          48.000        1100.802
 135589272.339 7  25801781.444          43.000       -1955.917
 198324490.140 7  37739893.582          42.000       -1162.387
 198014909.681 6  37680993.285          40.000       -1164.869
 07  8 29 13 34 16.0010000  0  8G20G28G17G11G 4G 1S37S29
 111352403.779 8  21189661.092          49.000       -2197.569
 113847291.268 8  21664426.081          51.000       -2830.580
 112619733.198 8  21430822.651          48.000         609.104
 120749890.769 8  22977942.448          49.000       -3471.690
 122947120.764 8  23396060.794          48.000        1101.041
 135591228.373 7  25802153.081          43.000       -1956.124
 198325652.492 7  37740114.676          42.000       -1162.197
 198016074.545 6  37681214.885          41.000       -1164.768
 07  8 29 13 34 17.0010000  0  8G20G28G17G11G 4G 1S37S29
 111354601.555 8  21190079.304          49.000       -2198.299
 113850122.221 8  21664965.135          52.000       -2831.438
 112619124.130 8  21430706.537          48.000         608.900
 120753362.495 8  22978603.096          49.000       -3471.691
 122946020.014 8  23395851.269          49.000        1100.598
 135593184.803 7  25802525.346          42.000       -1957.241
 198326814.961 7  37740335.840          42.000       -1161.808
 198017239.106 6  37681436.696          41.000       -1163.440
 07  8 29 13 34 18.0010000  0  8G20G28G17G11G 4G 1S37S29
 111356800.064 8  21190497.620          50.000       -2198.748
 113852953.907 8  21665503.736          52.000       -2831.896
 112618515.519 8  21430590.441          49.000         608.254
 120756834.446 8  22979263.796          50.000       -3471.805
 122944919.622 8  23395641.953          49.000        1100.012
 135595141.927 7  25802897.227          42.000       -1957.736
 198327977.880 7  37740557.073          42.000       -1164.606
 198018403.822 6  37681658.539          40.000       -1166.770
 07  8 29 13 34 19.0010000  0  8G20G28G17G11G 4G 1S37S29
 111358999.245 8  21190916.181          50.000       -2199.140
 113855786.226 8  21666042.825          52.000       -2832.458
 112617907.271 8  21430474.746          49.000         608.247
 120760306.569 8  22979924.339          50.000       -3472.334
 122943819.500 8  23395432.498          49.000        1099.987
 135597099.685 7  25803269.318          42.000       -1957.555
 198329140.888 7  37740778.377          42.000       -1163.005
 198019568.681 6  37681880.192          41.000       -1164.866
 07  8 29 13 34 20.0010000  0  9G20G28G17G11G 4G23G 1S37S29
 111361198.982 8  21191334.724          50.000       -2199.654
 113858619.074 8  21666582.054          52.000       -2832.925
 112617299.261 8  21430358.929          49.000         608.086
 120763778.757 8  22980585.057          50.000       -3471.606
 122942719.516 8  23395223.375          49.000        1100.421
 128488069.24326  24450466.607          36.000        1511.468
 135599057.922 7  25803641.566          43.000       -1958.406
 198330303.841 7  37740999.699          42.000       -1161.284
 198020733.567 6  37682101.828          41.000       -1163.955
 07  8 29 13 34 21.0010000  0  9G20G28G17G11G 4G23G 1S37S29
 111363399.259 8  21191753.145          50.000       -2200.088
 113861452.428 8  21667121.318          52.000       -2833.151
 112616691.498 8  21430243.304          49.000         607.882
 120767250.973 8  22981245.722          50.000       -3472.157
 122941619.675 8  23395014.199          49.000        1099.946
 128486558.68926  24450168.312          37.000        1508.763
 135601016.622 7  25804014.372          43.000       -1958.699
 198331466.486 7  37741220.827          42.000       -1163.972
 198021898.536 6  37682323.498          41.000       -1162.575
 07  8 29 13 34 22.0010000  0  9G20G28G17G11G 4G23G 1S37S29
 111365600.236 8  21192172.142          50.000       -2200.868
 113864286.477 8  21667660.530          52.000       -2834.224
 112616084.143 8  21430127.888          49.000         607.388
 120770723.393 8  22981906.718          50.000       -3472.555
 122940520.186 8  23394805.215          49.000        1099.516
 128485048.44826  24449882.199          37.000        1510.292
 135602975.971 7  25804387.684          43.000       -1960.005
 198332629.224 7  37741442.236          43.000       -1161.588
 198023063.681 7  37682545.185          42.000       -1164.560
 07  8 29 13 34 23.0010000  0  9G20G28G17G11G 4G23G 1S37S29
 111367801.862 8  21192590.947          50.000       -2201.995
 113867121.148 8  21668200.247          52.000       -2834.652
 112615477.129 8  21430011.966          49.000         607.138
 120774195.972 8  22982567.803          50.000       -3472.641
 122939420.929 8  23394595.900          49.000        1099.396
 128483538.37826  24449594.306          36.000        1511.577
 135604935.916 7  25804760.631          42.000       -1959.689
 198333791.719 7  37741663.488          43.000       -1160.845
 198024228.865 6  37682766.785          41.000       -1165.505
 07  8 29 13 34 24.0010000  0  9G20G28G17G11G 4G23G 1S37S29
 111370003.979 8  21193010.188          50.000       -2202.344
 113869956.271 8  21668739.825          51.000       -2835.380
 112614870.303 8  21429896.637          48.000         606.744
 120777668.524 8  22983228.747          50.000       -3472.647
 122938321.765 8  23394386.602          49.000        1099.528
 128482028.27526  24449306.114          36.000        1508.900
 135606896.290 7  25805134.030          43.000       -1960.654
 198334954.221 7  37741884.599          42.000       -1162.593
 198025393.603 6  37682988.333          41.000       -1166.267
 07  8 29 13 34 25.0010000  0  9G20G28G17G11G 4G23G 1S37S29
 111372206.784 8  21193429.238          50.000       -2203.012
 113872792.071 8  21669279.106          51.000       -2835.987
 112614263.873 8  21429781.361          49.000         606.799
 120781141.269 8  22983889.587          50.000       -3472.577
 122937222.905 8  23394177.915          49.000        1099.471
 128480518.50326  24449016.721          36.000        1511.766
 135608857.309 7  25805507.377          43.000       -1961.060
 198336116.926 7  37742105.746          42.000       -1162.462
 198026558.472 6  37683209.794          40.000       -1165.212
 07  8 29 13 34 26.0010000  0  9G20G28G17G11G 4G23G 1S37S29
 111374410.284 8  21193848.496          50.000       -2203.786
 113875628.538 8  21669819.016          51.000       -2836.847
 112613657.829 8  21429666.329          49.000         606.198
 120784614.201 8  22984550.322          49.000       -3473.003
 122936124.308 8  23393968.651          49.000        1098.647
 128479008.89626  24448728.564          36.000        1508.934
 135610818.933 7  25805880.654          43.000       -1962.165
 198337279.559 7  37742326.997          43.000       -1161.745
 198027723.254 6  37683431.464          39.000       -1166.816
 07  8 29 13 34 27.0010000  0  9G20G28G17G11G 4G23G 1S37S29
 111376614.362 8  21194267.930          50.000       -2204.269
 113878465.556 8  21670358.873          51.000       -2837.061
 112613052.066 8  21429550.913          49.000         605.970
 120788087.210 8  22985211.092          49.000       -3472.566
 122935025.922 8  23393759.685          49.000        1098.323
 128477499.43726  24448440.968          36.000        1509.507
 135612781.092 7  25806253.984          43.000       -1962.053
 198338442.148 7  37742548.144          43.000       -1160.988
 198028888.251 6  37683652.891          39.000       -1163.493
 07  8 29 13 34 28.0010000  0  9G20G28G17G11G 4G23G 1S37S29
 111378818.930 8  21194687.415          50.000       -2204.542
 113881303.052 8  21670898.573          51.000       -2837.900
 112612446.501 8  21429435.654          49.000         605.296
 120791560.236 8  22985872.123          49.000       -3472.948
 122933927.645 8  23393550.945          49.000        1098.240
 128475990.01226  24448153.562          36.000        1508.324
 135614743.698 7  25806627.943          43.000       -1962.327
 198339604.578 7  37742769.413          42.000       -1161.864
 198030053.506 6  37683874.718          40.000       -1163.956
 07  8 29 13 34 29.0010000  0  9G20G28G17G11G 4G23G 1S37S29
 111381024.159 8  21195106.971          50.000       -2205.260
 113884141.194 8  21671438.814          51.000       -2838.195
 112611841.294 8  21429320.518          48.000         605.313
 120795033.405 8  22986532.858          49.000       -3472.943
 122932829.610 8  23393342.014          49.000        1097.840
 128474480.76826  24447865.634          36.000        1508.782
 135616706.892 7  25807001.447          43.000       -1962.675
 198340766.996 7  37742990.594          42.000       -1162.360
 198031218.200 6  37684096.544          39.000       -1166.316
 07  8 29 13 34 30.0010000  0  9G20G28G17G11G 4G23G 1S37S29
 111383229.928 8  21195526.508          49.000       -2205.901
 113886979.825 8  21671978.637          51.000       -2838.675
 112611236.314 8  21429205.660          49.000         605.146
 120798506.612 8  22987193.768          49.000       -3473.293
 122931731.741 8  23393133.449          49.000        1097.565
 128472971.60126  24447578.281          36.000        1510.089
 135618670.555 7  25807374.724          43.000       -1964.413
 198341929.228 7  37743211.863          42.000       -1162.397
 198032383.141 6  37684318.284          41.000       -1165.132
 07  8 29 13 34 31.0010000  0  9G20G28G17G11G 4G23G 1S37S29
 111385436.363 8  21195946.797          49.000       -2206.037
 113889819.102 8  21672519.227          51.000       -2839.382
 112610631.707 8  21429090.785          49.000         604.540
 120801979.990 8  22987854.887          49.000       -3472.621
 122930634.148 8  23392924.552          50.000        1097.927
 128471463.177 5  24447290.894          35.000        1509.481
 135620634.823 7  25807748.542          43.000       -1964.962
 198343091.608 7  37743433.027          43.000       -1162.001
 198033547.735 6  37684539.675          40.000       -1166.487
 07  8 29 13 34 32.0010000  0  9G20G28G17G11G 4G23G 1S37S29
 111387643.443 8  21196366.404          50.000       -2207.574
 113892658.995 8  21673059.520          52.000       -2839.964
 112610027.453 8  21428976.050          49.000         604.382
 120805453.512 8  22988516.006          49.000       -3473.024
 122929536.802 8  23392715.917          50.000        1097.544
 128469954.407 6  24447003.121          36.000        1505.914
 135622599.698 7  25808122.326          43.000       -1965.477
 198344254.247 7  37743654.313          43.000       -1163.749
 198034712.759 6  37684761.223          40.000       -1164.855
 07  8 29 13 34 33.0010000  0  9G20G28G17G11G 4G23G 1S37S29
 111389851.085 8  21196786.204          49.000       -2207.984
 113895499.439 8  21673600.232          52.000       -2840.714
 112609423.464 8  21428861.524          49.000         603.619
 120808927.099 8  22989176.933          49.000       -3473.585
 122928439.632 8  23392507.404          50.000        1097.262
 128468445.770 5  24446716.135          35.000        1507.881
 135624565.074 7  25808496.650          44.000       -1965.961
 198345417.018 7  37743875.634          42.000       -1163.384
 198035878.224 6  37684983.068          40.000       -1164.264
 07  8 29 13 34 34.0010000  0  9G20G28G17G11G 4G23G 1S37S29
 111392059.426 8  21197206.492          50.000       -2208.654
 113898340.560 8  21674140.473          52.000       -2841.247
 112608819.882 8  21428746.614          50.000         603.593
 120812400.891 8  22989837.650          49.000       -3473.635
 122927342.766 8  23392298.735          50.000        1097.083
 128466937.341 6  24446429.027          36.000        1508.081
 135626531.105 7  25808870.748          44.000       -1966.716
 198346579.805 7  37744096.833          42.000       -1162.029
 198037043.529 6  37685204.930          40.000       -1164.978
 07  8 29 13 34 35.0010000  0  9G20G28G17G11G 4G23G 1S37S29
 111394268.253 8  21197626.781          50.000       -2209.265
 113901182.139 8  21674681.465          51.000       -2841.878
 112608216.482 8  21428631.792          49.000         603.454
 120815874.665 8  22990498.752          49.000       -3473.683
 122926245.982 8  23392090.327          50.000        1096.802
 128465428.974 6  24446141.046          36.000        1508.913
 135628497.539 7  25809244.985          45.000       -1966.683
 198347742.296 7  37744317.840          42.000       -1162.476
 198038208.294 6  37685426.792          40.000       -1165.792
 07  8 29 13 34 36.0010000  0  9G20G28G17G11G 4G23G 1S37S29
 111396477.822 8  21198047.366          50.000       -2209.518
 113904024.428 8  21675222.142          51.000       -2842.397
 112607613.523 8  21428517.074          50.000         603.010
 120819348.666 8  22991159.783          49.000       -3474.027
 122925149.561 8  23391881.639          50.000        1096.564
 128463920.909 6  24445853.990          36.000        1509.604
 135630464.661 7  25809619.693          44.000       -1967.556
 198348905.067 7  37744539.039          43.000       -1163.337
 198039372.938 6  37685648.532          41.000       -1165.856
 07  8 29 13 34 37.0010000  0  9G20G28G17G11G 4G23G 1S37S29
 111398687.844 8  21198467.706          50.000       -2210.066
 113906867.163 8  21675763.099          51.000       -2842.648
 112607010.745 8  21428402.583          50.000         602.679
 120822822.661 8  22991820.640          50.000       -3473.939
 122924053.224 8  23391673.162          51.000        1096.720
 128462412.849 5  24445566.985          35.000        1506.618
 135632432.179 7  25809994.419          45.000       -1967.445
 198350067.783 7  37744760.343          43.000       -1162.322
 198040537.670 7  37685870.464          42.000       -1163.172
 07  8 29 13 34 38.0010000  0  9G20G28G17G11G 4G23G 1S37S29
 111400898.322 8  21198888.553          50.000       -2210.533
 113909710.295 8  21676304.055          51.000       -2843.639
 112606408.100 8  21428288.458          50.000         602.512
 120826296.552 8  22992481.916          49.000       -3473.802
 122922956.919 8  23391464.544          50.000        1096.612
 128460904.718 5  24445279.266          35.000        1505.517
 135634400.067 7  25810369.215          45.000       -1967.760
 198351230.372 7  37744981.263          42.000       -1161.375
 198041702.199 6  37686092.029          41.000       -1164.706
 07  8 29 13 34 39.0010000  0  9G20G28G17G11G 4G23G 1S37S29
 111403109.534 8  21199309.417          50.000       -2211.398
 113912554.154 8  21676845.082          52.000       -2843.798
 112605805.890 8  21428173.863          50.000         602.373
 120829770.723 8  22993143.280          49.000       -3474.134
 122921860.945 8  23391256.119          50.000        1096.010
 128459396.896 5  24444992.107          35.000        1509.433
 135636368.682 7  25810743.870          43.000       -1968.961
 198352392.934 7  37745202.514          43.000       -1162.236
 198042867.079 6  37686313.595          41.000       -1164.455
 07  8 29 13 34 40.0010000  0  9G20G28G17G11G 4G23G 1S37S29
 111405321.329 8  21199730.246          50.000       -2212.286
 113915398.581 8  21677386.003          52.000       -2844.519
 112605203.966 8  21428059.110          50.000         601.561
 120833244.961 8  22993804.119          50.000       -3473.695
 122920765.202 8  23391047.344          50.000        1095.647
 128457889.228 5  24444704.491          34.000        1507.489
 135638337.748 7  25811118.142          44.000       -1970.269
 198353555.523 7  37745423.730          43.000       -1162.709
 198044031.867 6  37686535.336          40.000       -1162.285
 07  8 29 13 34 41.0010000  0  9G20G28G17G11G 4G23G 1S37S29
 111407533.802 8  21200151.128          50.000       -2212.386
 113918243.657 8  21677927.536          51.000       -2844.870
 112604602.428 8  21427944.270          49.000         601.278
 120836719.369 8  22994464.924          50.000       -3474.071
 122919669.718 8  23390838.849          50.000        1095.103
 128456381.30235  24444416.877          34.000        1509.144
 135640307.481 7  25811492.170          44.000       -1970.544
 198354718.377 7  37745645.034          43.000       -1162.075
 198045196.494 6  37686757.092          41.000       -1163.486
 07  8 29 13 34 42.0010000  0  9G20G28G17G11G 4G23G 1S37S29
 111409746.974 8  21200572.358          49.000       -2213.152
 113921089.417 8  21678468.876          51.000       -2845.911
 112604001.292 8  21427829.517          49.000         601.063
 120840193.992 8  22995126.287          49.000       -3474.368
 122918574.526 8  23390630.755          50.000        1094.893
 128454874.05235  24444129.507          32.000        1507.450
 135642277.870 7  25811866.285          43.000       -1970.403
 198355881.500 7  37745866.337          43.000       -1162.816
 198046361.595 6  37686978.762          40.000       -1165.126
 07  8 29 13 34 43.0010000  0  9G20G28G17G11G 4G23G 1S37S29
 111411960.785 8  21200993.432          49.000       -2214.006
 113923935.793 8  21679010.827          51.000       -2846.299
 112603400.497 8  21427715.427          49.000         600.664
 120843668.748 8  22995787.144          49.000       -3474.843
 122917479.598 8  23390422.120          50.000        1094.843
 128453367.05125  24443841.875          31.000        1506.970
 135644248.815 6  25812240.662          41.000       -1972.492
 198357044.371 7  37746087.711          43.000       -1162.455
 198047526.867 6  37687200.362          41.000       -1165.410
 07  8 29 13 34 44.0010000  0  9G20G28G17G11G 4G23G 1S37S29
 111414175.296 8  21201414.889          50.000       -2214.785
 113926782.825 8  21679552.674          51.000       -2847.307
 112602800.105 8  21427601.303          50.000         600.568
 120847143.679 8  22996448.560          50.000       -3475.152
 122916384.979 8  23390214.131          50.000        1094.658
 128451860.29125  24443554.662          31.000        1508.771
 135646220.432 6  25812615.422          40.000       -1972.569
 198358207.340 7  37746308.997          42.000       -1164.070
 198048692.387 6  37687421.997          40.000       -1165.044
 07  8 29 13 34 45.0010000  0  9G20G28G17G11G 4G23G 1S37S29
 111416390.242 8  21201836.539          49.000       -2215.181
 113929630.271 8  21680094.311          51.000       -2847.605
 112602199.844 8  21427487.318          50.000         600.500
 120850618.589 8  22997109.906          50.000       -3474.958
 122915290.426 8  23390005.688          50.000        1094.746
                  24443266.876          31.000        1515.323
 135648192.374 6  25812990.148          41.000       -1972.929
 198359370.249 7  37746530.283          43.000       -1163.107
 198049857.587 6  37687644.016          41.000       -1166.202
 07  8 29 13 34 46.0010000  0 10G20G28G17G11G 4G23G 1S37S29G13
 111418605.717 8  21202257.961          50.000       -2215.402
 113932478.211 8  21680636.559          52.000       -2848.082
 112601599.805 8  21427373.420          50.000         599.750
 120854093.493 8  22997771.269          49.000       -3475.048
 122914195.972 8  23389797.716          50.000        1094.218
                  24442976.657          30.000        1504.423
 135650164.828 6  25813364.857          41.000       -1971.938
 198360533.031 7  37746751.395          43.000       -1163.202
 198051022.523 6  37687865.687          40.000       -1163.278
                  25589776.239          27.000        1951.243
 07  8 29 13 34 47.0010000  0 10G20G28G17G11G 4G23G 1S37S29G13
 111420821.869 8  21202679.733          50.000       -2216.352
 113935326.819 8  21681178.876          52.000       -2849.139
 112601000.200 8  21427259.627          50.000         599.833
 120857568.584 8  22998432.754          49.000       -3474.809
 122913101.821 8  23389589.657          50.000        1094.214
                  24442684.594          29.000        1508.829
 135652137.871 7  25813740.001          42.000       -1973.900
 198361695.929 7  37746972.856          43.000       -1162.687
 198052187.316 7  37688087.374          42.000       -1165.503
                  25589401.515          29.000        1955.316
 07  8 29 13 34 48.0010000  0  9G20G28G17G11G 4G 1S37S29G13
 111423038.511 8  21203101.749          50.000       -2216.777
 113938175.878 8  21681721.124          51.000       -2849.298
 112600400.749 8  21427145.625          50.000         599.496
 120861043.670 8  22999093.891          49.000       -3474.857
 122912007.753 8  23389381.563          50.000        1094.229
 135654111.350 7  25814115.844          42.000       -1973.575
 198362858.540 7  37747194.072          43.000       -1162.786
 198053351.976 7  37688308.782          42.000       -1165.463
                  25589027.400          29.000        1957.232
 07  8 29 13 34 49.0010000  0  9G20G28G17G11G 4G 1S37S29G13
 111425255.716 8  21203523.625          49.000       -2217.169
 113941025.460 8  21682263.581          51.000       -2849.783
 112599801.547 8  21427031.413          50.000         599.179
 120864518.811 8  22999755.132          49.000       -3475.251
 122910913.844 8  23389173.487          50.000        1093.893
 135656085.341 7  25814491.198          42.000       -1974.325
 198364021.074 7  37747415.358          43.000       -1162.363
 198054516.802 6  37688530.330          41.000       -1165.418
                  25588655.169          29.000        1955.067
 07  8 29 13 34 50.0010000  0  9G20G28G17G11G 4G 1S37S29G13
 111427473.636 8  21203945.710          50.000       -2218.208
 113943875.781 8  21682806.074          51.000       -2850.529
 112599202.796 8  21426917.742          50.000         598.877
 120867994.183 8  23000416.495          49.000       -3475.161
 122909820.288 8  23388965.201          50.000        1093.728
 135658060.026 6  25814866.971          41.000       -1974.213
 198365184.071 7  37747636.680          43.000       -1161.629
 198055681.876 6  37688752.210          40.000       -1165.493
                  25588283.235          30.000        1955.479
 07  8 29 13 34 51.0010000  0  9G20G28G17G11G 4G 1S37S29G13
 111429692.234 8  21204368.093          50.000       -2218.737
 113946726.707 8  21683348.670          51.000       -2850.827
 112598604.392 8  21426803.810          50.000         598.388
 120871469.710 8  23001078.260          49.000       -3475.425
 122908726.969 8  23388757.142          49.000        1093.507
 135660035.273 6  25815242.046          41.000       -1975.390
 198366347.228 7  37747858.053          43.000       -1162.663
 198056847.142 6  37688974.003          40.000       -1163.925
                  25587911.599          29.000        1958.595
 07  8 29 13 34 52.0010000  0  9G20G28G17G11G 4G 1S37S29G13
 111431911.427 8  21204790.021          50.000       -2219.367
 113949578.229 8  21683891.634          51.000       -2851.995
 112598006.308 8  21426690.156          50.000         597.993
 120874945.341 8  23001739.605          49.000       -3475.757
 122907633.876 8  23388549.187          49.000        1092.955
 135662011.104 7  25815618.010          42.000       -1975.539
 198367510.093 7  37748079.357          43.000       -1162.742
 198058012.309 6  37689195.847          41.000       -1164.683
                  25587538.617          29.000        1955.094
 07  8 29 13 34 53.0010000  0  9G20G28G17G11G 4G 1S37S29G13
 111434131.270 8  21205212.543          50.000       -2219.840
 113952430.361 8  21684434.388          51.000       -2852.380
 112597408.570 8  21426576.451          50.000         597.934
 120878421.121 8  23002401.004          49.000       -3475.116
 122906541.036 8  23388341.059          49.000        1093.197
 135663987.491 7  25815994.306          42.000       -1977.137
 198368672.688 7  37748300.608          43.000       -1161.671
 198059177.229 6  37689417.604          41.000       -1164.793
                  25587164.955          29.000        1955.583
 07  8 29 13 34 54.0010000  0  9G20G28G17G11G 4G 1S37S29G13
 111436351.554 8  21205635.152          50.000       -2220.428
 113955282.924 8  21684977.281          51.000       -2852.915
 112596810.970 8  21426462.693          50.000         597.672
 120881896.845 8  23003062.314          49.000       -3475.426
 122905448.246 8  23388133.017          49.000        1093.088
 135665964.264 7  25816370.655          42.000       -1976.638
 198369834.875 7  37748521.737          43.000       -1162.017
 198060342.253 6  37689639.414          41.000       -1166.199
                  25586791.905          28.000        1956.678
 07  8 29 13 34 55.0010000  0  9G20G28G17G11G 4G 1S37S29G13
 111438572.565 8  21206057.796          50.000       -2221.259
 113958136.180 8  21685520.209          51.000       -2853.756
 112596213.800 8  21426348.742          50.000         596.990
 120885372.796 8  23003724.079          49.000       -3475.700
 122904355.824 8  23387925.115          49.000        1092.376
 135667941.731 7  25816747.126          42.000       -1977.940
 198370997.475 7  37748742.884          43.000       -1161.922
 198061507.178 6  37689860.980          40.000       -1164.172
                  25586416.587          29.000        1959.981
 07  8 29 13 34 56.0010000  0  9G20G28G17G11G 4G 1S37S29G13
 111440794.220 8  21206480.772          50.000       -2221.718
 113960990.059 8  21686063.312          51.000       -2853.867
 112595617.005 8  21426234.915          50.000         597.017
 120888848.884 8  23004385.494          49.000       -3475.825
 122903263.629 8  23387717.143          49.000        1092.306
 135669919.754 7  25817123.737          42.000       -1977.485
 198372160.560 7  37748964.257          43.000       -1162.703
 198062672.472 6  37690082.562          40.000       -1165.806
                  25586043.603          30.000        1952.342
 07  8 29 13 34 57.0010000  0  9G20G28G17G11G 4G 1S37S29G13
 111443016.531 8  21206903.678          50.000       -2222.464
 113963844.572 8  21686606.660          52.000       -2854.012
 112595020.551 8  21426121.156          50.000         596.461
 120892325.138 8  23005046.858          49.000       -3475.891
 122902171.692 8  23387509.346          49.000        1091.943
 135671898.389 7  25817500.451          42.000       -1978.972
 198373323.739 7  37749185.578          43.000       -1162.161
 198063837.771 6  37690304.111          41.000       -1164.271
                  25585670.432          30.000        1957.258
 07  8 29 13 34 58.0010000  0  9G20G28G17G11G 4G 1S37S29G13
 111445239.221 8  21207326.461          50.000       -2222.744
 113966699.442 8  21687149.850          52.000       -2854.966
 112594424.196 8  21426007.695          49.000         596.044
 120895801.276 8  23005708.605          49.000       -3475.924
 122901079.772 8  23387301.409          49.000        1092.227
 135673877.359 7  25817877.236          42.000       -1979.605
 198374486.697 7  37749406.742          43.000       -1162.738
 198065002.448 6  37690525.850          41.000       -1166.085
                  25585296.716          29.000        1952.268
 07  8 29 13 34 59.0010000  0  9G20G28G17G11G 4G 1S37S29G13
 111447462.441 8  21207749.542          50.000       -2223.738
 113969554.814 8  21687693.232          52.000       -2855.554
 112593828.084 8  21425893.832          49.000         596.052
 120899277.447 8  23006369.933          49.000       -3475.993
 122899987.985 8  23387093.594          49.000        1091.485
 135675856.809 7  25818254.143          43.000       -1980.082
 198375649.193 7  37749627.959          43.000       -1162.214
 198066167.379 6  37690747.556          41.000       -1162.308
                  25584922.500          29.000        1962.125
 07  8 29 13 35  0.0010000  0  9G20G28G17G11G 4G 1S37S29G13
 111449686.377 8  21208172.657          50.000       -2223.836
 113972410.880 8  21688236.789          52.000       -2856.164
 112593232.374 8  21425780.266          49.000         595.559
 120902753.833 8  23007031.680          49.000       -3475.992
 122898896.522 8  23386885.727          49.000        1091.405
 135677836.898 7  25818630.963          43.000       -1980.392
 198376811.694 7  37749849.227          43.000       -1163.676
 198067332.375 6  37690969.295          41.000       -1165.447
                  25584547.318          29.000        1956.145
 07  8 29 13 35  1.0010000  0  9G20G28G17G11G 4G 1S37S29G13
 111451910.676 8  21208596.313          50.000       -2224.599
 113975267.292 8  21688780.293          52.000       -2856.653
 112592636.757 8  21425666.805          49.000         595.587
 120906230.075 8  23007692.886          49.000       -3476.304
 122897805.026 8  23386677.825          49.000        1091.141
 135679817.301 7  25819008.516          43.000       -1980.772
 198377974.300 7  37750070.566          43.000       -1162.641
 198068496.865 6  37691190.721          41.000       -1165.678
                  25584172.679          28.000        1954.607
 07  8 29 13 35  2.0010000  0  9G20G28G17G11G 4G 1S37S29G13
 111454135.669 8  21209019.498          50.000       -2224.703
 113978124.366 8  21689324.111          52.000       -2856.985
 112592041.515 8  21425553.221          49.000         595.242
 120909706.516 8  23008353.953          49.000       -3476.143
 122896713.833 8  23386470.220          49.000        1091.721
 135681798.348 7  25819386.174          44.000       -1980.853
 198379136.752 7  37750291.660          43.000       -1163.018
 198069662.082 6  37691412.217          40.000       -1163.918
                  25583798.355          28.000        1957.040
 07  8 29 13 35  3.0010000  0  9G20G28G17G11G 4G 1S37S29G13
 111456361.329 8  21209443.172          51.000       -2225.680
 113980982.074 8  21689867.790          52.000       -2858.072
 112591446.659 8  21425440.039          50.000         594.616
 120913183.117 8  23009015.665          49.000       -3476.913
 122895622.893 8  23386262.702          49.000        1091.017
 135683779.979 7  25819764.093          45.000       -1981.254
 198380298.900 7  37750512.807          43.000       -1161.412
 198070827.128 6  37691633.992          40.000       -1162.957
                  25583421.204          27.000        1957.266
 07  8 29 13 35  4.0010000  0  9G20G28G17G11G 4G 1S37S29G13
 111458587.601 8  21209866.688          51.000       -2226.247
 113983840.381 8  21690411.643          52.000       -2858.479
 112590852.127 8  21425326.909          50.000         594.767
 120916659.844 8  23009677.535          49.000       -3476.379
 122894532.224 8  23386054.835          49.000        1091.082
 135685762.183 7  25820142.221          45.000       -1982.219
 198381461.253 7  37750734.059          43.000       -1161.424
 198071991.722 6  37691855.749          40.000       -1165.219
                  25583045.851          28.000        1959.749
 07  8 29 13 35  5.0010000  0  9G20G28G17G11G 4G 1S37S29G13
 111460814.571 8  21210290.746          50.000       -2227.234
 113986699.356 8  21690955.566          52.000       -2859.210
 112590257.981 8  21425213.570          50.000         593.829
 120920136.770 8  23010339.020          49.000       -3476.918
 122893441.830 8  23385847.247          49.000        1090.459
 135687745.026 7  25820520.210          45.000       -1982.739
 198382624.002 7  37750955.310          43.000       -1161.535
 198073156.449 7  37692077.245          42.000       -1163.809
                  25582670.949          28.000        1955.699
 07  8 29 13 35  6.0010000  0  9G20G28G17G11G 4G 1S37S29G13
 111463042.049 8  21210714.646          50.000       -2227.790
 113989558.815 8  21691499.873          52.000       -2859.715
 112589664.056 8  21425100.422          49.000         593.686
 120923613.701 8  23011000.575          49.000       -3476.864
 122892351.557 8  23385639.781          49.000        1090.323
 135689728.310 7  25820897.763          45.000       -1982.945
 198383786.685 7  37751176.614          43.000       -1160.814
 198074321.286 6  37692298.880          41.000       -1163.815
                  25582295.856          28.000        1955.316
 07  8 29 13 35  7.0010000  0 10G20G28G17G11G 4G23G 1S37S29G13
 111465270.171 8  21211138.582          50.000       -2228.077
 113992418.879 8  21692044.145          52.000       -2859.907
 112589070.461 8  21424987.659          49.000         593.927
 120927090.764 8  23011662.183          48.000       -3476.528
 122891261.532 8  23385432.525          48.000        1090.151
                  24436938.079          32.000        1504.825
 135691712.167 7  25821275.525          45.000       -1983.791
 198384949.401 7  37751398.074          43.000       -1163.042
 198075486.365 6  37692520.394          40.000       -1162.885
                  25581921.288          27.000        1957.695
 07  8 29 13 35  8.0010000  0 10G20G28G17G11G 4G23G 1S37S29G13
 111467498.811 8  21211562.569          50.000       -2228.715
 113995279.462 8  21692588.138          51.000       -2860.857
 112588477.119 8  21424874.669          49.000         593.443
 120930567.872 8  23012324.052          48.000       -3477.193
 122890171.661 8  23385224.867          48.000        1089.920
                  24436658.734          31.000        1498.686
 135693696.503 7  25821653.235          44.000       -1984.513
 198386112.062 7  37751619.151          43.000       -1161.945
 198076651.422 6  37692742.290          40.000       -1163.806
                  25581548.148          25.000        1951.521
 07  8 29 13 35  9.0010000  0 10G20G28G17G11G 4G23G 1S37S29G13
 111469728.095 8  21211986.784          50.000       -2229.310
 113998140.651 8  21693132.480          51.000       -2861.218
 112587884.108 8  21424761.626          49.000         593.004
 120934045.101 8  23012985.764          48.000       -3476.825
 122889082.016 8  23385017.175          49.000        1090.298
                  24436375.448          30.000        1502.414
 135695681.422 7  25822031.224          44.000       -1984.287
 198387274.861 7  37751840.594          43.000       -1163.314
 198077816.633 6  37692963.960          40.000       -1165.627
                  25581176.896          26.000        1955.825
 07  8 29 13 35 10.0010000  0 10G20G28G17G11G 4G23G 1S37S29G13
 111471957.975 8  21212411.260          49.000       -2230.076
 114001002.423 8  21693676.927          51.000       -2862.024
 112587291.411 8  21424649.002          48.000         592.683
 120937522.428 8  23013647.284          48.000       -3477.516
 122887992.596 8  23384809.674          48.000        1089.576
                  24436087.713          31.000        1506.400
 135697666.904 7  25822409.213          44.000       -1985.446
 198388437.632 7  37752062.019          42.000       -1164.109
 198078981.470 6  37693185.472          39.000       -1166.488
                  25580805.085          24.000        1958.235
 07  8 29 13 35 11.0010000  0 10G20G28G17G11G 4G23G 1S37S29G13
 111474188.350 8  21212835.597          49.000       -2230.155
 114003864.659 8  21694221.618          51.000       -2862.055
 112586698.912 8  21424536.117          49.000         592.616
 120940999.762 8  23014308.613          48.000       -3476.812
 122886903.287 8  23384601.999          48.000        1089.548
                  24435799.453          30.000        1505.701
 135699652.810 7  25822787.219          43.000       -1985.778
 198389600.408 7  37752283.271          42.000       -1162.026
 198080146.516 6  37693407.091          41.000       -1164.665
                  25580431.266          23.000        1958.205
 07  8 29 13 35 12.0010000  0 10G20G28G17G11G 4G23G 1S37S29G13
 111476419.347 8  21213260.422          50.000       -2231.400
 114006727.483 8  21694766.186          51.000       -2863.369
 112586106.738 8  21424423.615          49.000         592.406
 120944477.216 8  23014970.255          48.000       -3477.583
 122885814.199 8  23384394.603          48.000        1088.654
                  24435513.722          31.000        1502.820
 135701639.288 7  25823164.859          43.000       -1986.361
 198390763.328 7  37752504.610          43.000       -1162.323
 198081311.661 6  37693628.656          41.000       -1165.405
                  25580060.692          23.000        1953.695
 07  8 29 13 35 13.0010000  0  9G20G28G17G11G 4G23G 1S37S29
 111478650.868 8  21213685.160          50.000       -2231.935
 114009590.809 8  21695311.191          51.000       -2863.327
 112585514.785 8  21424311.323          49.000         591.769
 120947954.687 8  23015632.281          48.000       -3477.959
 122884725.226 8  23384187.382          48.000        1088.989
                  24435227.938          31.000        1499.836
 135703626.224 7  25823542.569          42.000       -1986.700
 198391926.044 7  37752725.948          42.000       -1163.195
 198082476.757 6  37693850.379          40.000       -1164.206
 07  8 29 13 35 14.0010000  0  9G20G28G17G11G 4G23G 1S37S29
 111480883.094 8  21214109.741          50.000       -2232.556
 114012454.824 8  21695855.865          51.000       -2864.234
 112584923.255 8  21424198.874          49.000         591.578
 120951432.373 8  23016293.802          48.000       -3477.495
 122883636.589 8  23383980.300          48.000        1088.305
 128406487.63535  24434942.193          33.000        1504.739
 135705613.805 7  25823920.261          42.000       -1988.041
 198393088.876 7  37752947.269          43.000       -1162.463
 198083641.406 6  37694071.875          40.000       -1163.811
 07  8 29 13 35 15.0010000  0  9G20G28G17G11G 4G23G 1S37S29
 111483115.937 8  21214534.741          50.000       -2232.833
 114015319.416 8  21696400.695          51.000       -2864.641
 112584332.056 8  21424086.424          49.000         591.332
 120954910.180 8  23016955.619          48.000       -3477.523
 122882548.156 8  23383772.974          48.000        1088.364
 128404985.14525  24434658.364          33.000        1502.808
 135707601.969 7  25824297.936          42.000       -1988.105
 198394251.636 7  37753168.573          43.000       -1163.363
 198084806.331 6  37694293.684          40.000       -1165.721
 07  8 29 13 35 16.0010000  0  9G20G28G17G11G 4G23G 1S37S29
 111485349.375 8  21214959.950          50.000       -2233.527
 114018184.588 8  21696945.805          51.000       -2865.143
 112583741.144 8  21423973.748          50.000         591.092
 120958388.075 8  23017617.366          48.000       -3477.541
 122881459.959 8  23383565.543          48.000        1088.569
 128403482.77025  24434375.008          34.000        1502.740
 135709590.651 7  25824675.681          42.000       -1988.690
 198395414.407 7  37753389.720          43.000       -1162.403
 198085971.074 6  37694515.546          41.000       -1165.645
 07  8 29 13 35 17.0010000  0  9G20G28G17G11G 4G23G 1S37S29
 111487583.413 8  21215385.002          50.000       -2234.569
 114021050.326 8  21697490.984          51.000       -2866.005
 112583150.556 8  21423861.299          50.000         590.357
 120961866.091 8  23018278.956          48.000       -3478.271
 122880371.939 8  23383358.339          48.000        1087.647
 128401980.61625  24434091.686          33.000        1503.897
 135711579.889 7  25825053.582          42.000       -1989.256
 198396576.930 7  37753611.128          43.000       -1162.195
 198087135.790 6  37694736.955          40.000       -1164.344
 07  8 29 13 35 18.0010000  0  9G20G28G17G11G 4G23G 1S37S29
 111489817.991 8  21215810.125          50.000       -2234.844
 114023916.588 8  21698036.635          51.000       -2866.668
 112582560.200 8  21423749.181          49.000         590.224
 120965344.141 8  23018940.929          48.000       -3478.406
 122879284.090 8  23383151.153          48.000        1088.210
 128400478.51725  24433807.789          34.000        1503.788
 135713569.607 7  25825431.868          42.000       -1990.712
 198397739.349 7  37753832.431          43.000       -1163.106
 198088300.026 6  37694958.450          40.000       -1165.935
 07  8 29 13 35 19.0010000  0  9G20G28G17G11G 4G23G 1S37S29
 111492053.076 8  21216235.700          50.000       -2235.248
 114026783.313 8  21698581.797          50.000       -2867.081
 112581970.059 8  21423636.383          49.000         590.166
 120968822.184 8  23019602.694          48.000       -3477.922
 122878196.340 8  23382944.210          48.000        1087.831
 128398976.46725  24433523.733          34.000        1501.043
 135715559.776 7  25825810.206          42.000       -1990.988
 198398901.630 7  37754053.596          43.000       -1161.559
 198089464.367 6  37695179.998          41.000       -1164.420
 07  8 29 13 35 20.0010000  0  9G20G28G17G11G 4G23G 1S37S29
 111494288.794 8  21216661.032          50.000       -2235.623
 114029650.671 8  21699127.151          51.000       -2867.151
 112581380.281 8  21423523.637          49.000         589.998
 120972300.377 8  23020264.581          48.000       -3478.076
 122877108.860 8  23382737.006          48.000        1087.378
 128397474.62725  24433239.416          34.000        1500.393
 135717550.524 7  25826188.911          42.000       -1990.106
 198400063.690 7  37754274.865          43.000       -1162.022
 198090629.331 6  37695401.860          41.000       -1165.826
 07  8 29 13 35 21.0010000  0  9G20G28G17G11G 4G23G 1S37S29
 111496525.063 8  21217086.660          50.000       -2236.609
 114032518.536 8  21699672.522          51.000       -2868.229
 112580790.735 8  21423411.519          49.000         589.872
 120975778.630 8  23020926.573          48.000       -3477.781
 122876021.550 8  23382529.733          49.000        1087.467
 128395972.88025  24432955.066          34.000        1501.719
 135719541.756 7  25826567.440          42.000       -1991.549
 198401225.844 7  37754496.046          44.000       -1161.700
 198091794.228 6  37695623.704          41.000       -1165.158
 07  8 29 13 35 22.0010000  0  9G20G28G17G11G 4G23G 1S37S29
 111498761.806 8  21217512.253          50.000       -2236.428
 114035386.858 8  21700218.400          50.000       -2868.042
 112580201.371 8  21423299.157          49.000         589.599
 120979256.839 8  23021588.669          48.000       -3477.871
 122874934.285 8  23382322.895          48.000        1087.430
 128394471.17725  24432670.959          35.000        1503.740
 135721533.401 7  25826945.743          42.000       -1991.676
 198402388.296 7  37754717.245          43.000       -1161.642
 198092958.955 6  37695845.323          41.000       -1164.028
 07  8 29 13 35 23.0010000  0  9G20G28G17G11G 4G23G 1S37S29
 111500999.006 8  21217937.986          50.000       -2237.265
 114038255.615 8  21700764.156          50.000       -2868.435
 112579612.182 8  21423186.882          49.000         589.378
 120982735.021 8  23022250.311          48.000       -3477.833
 122873847.102 8  23382116.110          48.000        1087.305
 128392969.45825  24432386.468          34.000        1503.193
 135723525.460 6  25827324.273          41.000       -1991.937
 198403550.775 7  37754938.479          43.000       -1161.556
 198094123.720 6  37696066.923          41.000       -1163.786
 07  8 29 13 35 24.0010000  0  9G20G28G17G11G 4G23G 1S37S29
 111503236.790 8  21218363.509          50.000       -2238.048
 114041124.912 8  21701309.893          50.000       -2869.625
 112579023.269 8  21423074.991          49.000         589.067
 120986213.258 8  23022912.093          48.000       -3478.385
 122872760.079 8  23381909.185          48.000        1087.106
 128391467.84425  24432102.186          35.000        1500.335
 135725518.048 6  25827703.431          41.000       -1992.749
 198404713.039 7  37755159.713          43.000       -1161.516
 198095288.336 6  37696288.698          41.000       -1163.215
 07  8 29 13 35 25.0010000  0  9G20G28G17G11G 4G23G 1S37S29
 111505475.168 8  21218789.329          50.000       -2239.054
 114043994.793 8  21701856.155          50.000       -2870.112
 112578434.676 8  21422962.699          49.000         588.628
 120989691.610 8  23023573.875          48.000       -3478.244
 122871673.282 8  23381702.173          48.000        1086.648
 128389966.933 5  24431817.329          35.000        1501.217
 135727511.175 6  25828082.624          41.000       -1993.285
 198405875.430 7  37755380.894          43.000       -1162.661
 198096452.898 6  37696510.437          41.000       -1165.312
 07  8 29 13 35 26.0010000  0  9G20G28G17G11G 4G23G 1S37S29
 111507714.087 8  21219215.585          50.000       -2238.998
 114046865.191 8  21702402.451          50.000       -2870.492
 112577846.319 8  21422850.407          49.000         588.363
 120993170.006 8  23024235.727          48.000       -3478.462
 122870586.666 8  23381495.388          48.000        1086.355
 128388465.572 5  24431532.838          34.000        1501.503
 135729504.776 6  25828462.236          41.000       -1993.747
 198407037.408 7  37755602.163          43.000       -1162.145
 198097617.062 6  37696731.846          40.000       -1164.276
 07  8 29 13 35 27.0010000  0  9G20G28G17G11G 4G23G 1S37S29
 111509953.611 8  21219641.929          50.000       -2239.878
 114049736.174 8  21702948.590          50.000       -2871.326
 112577258.288 8  21422738.568          49.000         588.450
 120996648.507 8  23024897.544          48.000       -3478.345
 122869500.249 8  23381288.621          48.000        1086.620
 128386964.409 5  24431247.842          34.000        1503.447
 135731498.933 6  25828841.744          41.000       -1993.935
 198408199.507 7  37755823.275          43.000       -1161.695
 198098781.916 6  37696953.568          41.000       -1165.388
 07  8 29 13 35 28.0010000  0  9G20G28G17G11G 4G23G 1S37S29
 111512193.687 8  21220068.115          50.000       -2240.106
 114052607.680 8  21703495.271          50.000       -2871.560
 112576670.510 8  21422626.991          49.000         587.780
 121000127.052 8  23025559.640          48.000       -3478.436
 122868413.992 8  23381082.010          48.000        1086.106
 128385463.313 5  24430962.757          34.000        1501.684
 135733493.575 7  25829221.268          42.000       -1995.615
 198409361.606 7  37756044.422          43.000       -1161.894
 198099946.196 7  37697175.029          42.000       -1165.330
 07  8 29 13 35 29.0010000  0  9G20G28G17G11G 4G23G 1S37S29
 111514434.230 8  21220494.354          50.000       -2240.412
 114055479.627 8  21704041.863          51.000       -2872.396
 112576082.913 8  21422515.118          49.000         587.311
 121003605.586 8  23026221.667          48.000       -3478.031
 122867327.806 8  23380875.155          48.000        1085.595
 128383962.282 5  24430677.846          35.000        1500.124
 135735488.631 7  25829601.054          42.000       -1995.796
 198410523.788 7  37756265.533          44.000       -1162.207
 198101110.449 7  37697396.630          42.000       -1163.510
 07  8 29 13 35 30.0010000  0  9G20G28G17G11G 4G23G 1S37S29
 111516675.330 8  21220920.768          50.000       -2240.792
 114058352.113 8  21704588.526          51.000       -2872.276
 112575495.576 8  21422403.192          49.000         587.650
 121007084.165 8  23026883.361          48.000       -3478.191
 122866241.786 8  23380668.597          48.000        1086.124
 128382461.334 5  24430392.431          35.000        1501.099
 135737484.204 7  25829981.347          42.000       -1995.358
 198411685.843 7  37756486.575          44.000       -1161.677
 198102274.222 7  37697618.108          42.000       -1164.090
 07  8 29 13 35 31.0010000  0  9G20G28G17G11G 4G23G 1S37S29
 111518916.954 8  21221347.408          50.000       -2241.416
 114061225.084 8  21705135.119          51.000       -2873.013
 112574908.475 8  21422291.528          49.000         587.336
 121010562.776 8  23027545.265          49.000       -3478.130
 122865155.908 8  23380462.004          48.000        1086.258
 128380960.430 5  24430107.032          35.000        1498.888
 135739480.217 7  25830361.761          43.000       -1996.464
 198412847.843 7  37756707.722          44.000       -1160.971
 198103438.475 6  37697839.866          41.000       -1161.697
 07  8 29 13 35 32.0010000  0  9G20G28G17G11G 4G23G 1S37S29
 111521159.045 8  21221774.170          50.000       -2242.312
 114064098.507 8  21705682.009          51.000       -2873.417
 112574321.551 8  21422180.039          50.000         586.649
 121014041.354 8  23028207.274          48.000       -3478.575
 122864070.108 8  23380255.498          49.000        1085.907
 128379459.603 5  24429821.896          35.000        1501.644
 135741476.661 7  25830742.089          43.000       -1996.508
 198414009.584 7  37756928.624          44.000       -1161.687
 198104602.282 6  37698061.308          41.000       -1165.330
 07  8 29 13 35 33.0010000  0  9G20G28G17G11G 4G23G 1S37S29
 111523401.732 8  21222201.142          51.000       -2242.454
 114066972.486 8  21706228.986          51.000       -2874.093
 112573734.930 8  21422068.218          50.000         587.100
 121017520.031 8  23028869.213          48.000       -3478.533
 122862984.495 8  23380049.271          49.000        1086.049
 128377958.859 5  24429536.742          35.000        1500.427
 135743473.638 7  25831122.748          43.000       -1996.536
 198415171.022 7  37757149.527          44.000       -1160.918
 198105766.805 6  37698282.769          41.000       -1163.612
 07  8 29 13 35 34.0010000  0  9G20G28G17G11G 4G23G 1S37S29
 111525644.715 8  21222627.869          51.000       -2243.027
 114069846.746 8  21706775.840          51.000       -2874.577
 112573148.308 8  21421956.885          50.000         586.763
 121020998.494 8  23029531.344          48.000       -3478.404
 122861898.794 8  23379842.556          49.000        1086.367
 128376458.033 5  24429251.135          35.000        1501.541
 135745470.847 7  25831503.075          43.000       -1996.832
 198416332.295 7  37757370.516          44.000       -1161.654
 198106930.711 6  37698504.230          41.000       -1163.369
 07  8 29 13 35 35.0010000  0  9G20G28G17G11G 4G23G 1S37S29
 111527888.349 8  21223054.684          50.000       -2244.013
 114072721.623 8  21707322.905          51.000       -2875.342
 112572562.045 8  21421845.448          49.000         586.293
 121024477.127 8  23030193.284          48.000       -3478.188
 122860813.369 8  23379636.311          49.000        1085.417
 128374957.360 5  24428965.666          35.000        1498.973
 135747468.651 7  25831883.350          42.000       -1998.560
 198417493.650 7  37757591.488          43.000       -1161.606
 198108094.440 6  37698725.655          41.000       -1164.400
 07  8 29 13 35 36.0010000  0  9G20G28G17G11G 4G23G 1S37S29
