     2.11           OBSERVATION DATA    M (MIXED)           RINEX VERSION / TYPE
teqc  2007Jun25                         20070906 02:02:29UTCPGM / RUN BY / DATE
MSXP|IAx86-PII|bcc32 5.0|MSWin95->XP|486/DX+                COMMENT
-Unknown-                                                   MARKER NAME
-Unknown-           -Unknown-                               OBSERVER / AGENCY
-Unknown-           U-BLOX              -Unknown-           REC # / TYPE / VERS
-Unknown-           -Unknown-                               ANT # / TYPE
        0.0000        0.0000        0.0000                  APPROX POSITION XYZ
        0.0000        0.0000        0.0000                  ANTENNA: DELTA H/E/N
     1     0                                                WAVELENGTH FACT L1/2
     4    L1    C1    S1    D1                              # / TYPES OF OBSERV
 SNR is mapped to RINEX snr flag value [0-9]                COMMENT
  L1 & L2: min(max(int(snr_dBHz/6), 0), 9)                  COMMENT
  2007     8    29    13    23   14.0010000     GPS         TIME OF FIRST OBS
    14                                                      LEAP SECONDS
                                                            END OF HEADER
 07  8 29 13 23 14.0010000  0  9G20G28G17G11G 4G19G 1S37S29
 110033064.343 8  20938598.136          48.000       -1804.410
 112103995.203 8  21332688.163          50.000       -2450.217
 113086414.205 8  21519633.714          52.000         776.564
 118475664.789 8  22545172.358          50.000       -3416.780
 123722287.360 8  23543575.174          49.000        1222.067
 135043412.547 6  25697977.235          38.000       -4019.428
 134416424.527 6  25578590.253          39.000       -1612.253
 197556811.236 7  37593810.369          42.000       -1179.930
 197245742.770 7  37534625.703          42.000       -1181.429
 07  8 29 13 23 15.0010000  0  9G20G28G17G11G 4G19G 1S37S29
 110034868.581 8  20938941.556          48.000       -1804.576
 112106446.196 8  21333154.625          50.000       -2451.045
 113085637.901 8  21519486.050          52.000         776.257
 118479081.452 8  22545822.466          50.000       -3416.487
 123721065.672 8  23543342.667          49.000        1222.153
 135047432.675 6  25698742.165          38.000       -4019.963
 134418036.719 6  25578897.045          39.000       -1612.563
 197557990.588 7  37594034.674          43.000       -1179.256
 197246924.385 7  37534850.479          42.000       -1182.058
 07  8 29 13 23 16.0010000  0  9G20G28G17G11G 4G19G 1S37S29
 110036673.282 8  20939284.942          48.000       -1804.928
 112108897.646 8  21333621.121          50.000       -2451.547
 113084861.685 8  21519338.351          52.000         776.386
 118482498.039 8  22546472.696          50.000       -3416.369
 123719844.018 8  23543110.038          49.000        1222.189
 135051452.770 6  25699506.712          38.000       -4020.538
 134419649.264 6  25579203.803          39.000       -1612.591
 197559169.653 7  37594258.910          42.000       -1178.186
 197248105.869 7  37535075.361          42.000       -1179.759
 07  8 29 13 23 17.0010000  0  9G20G28G17G11G 4G19G 1S37S29
 110038478.528 8  20939628.414          48.000       -1805.230
 112111349.620 8  21334087.775          50.000       -2452.156
 113084085.634 8  21519190.600          52.000         776.332
 118485914.658 8  22547122.559          50.000       -3416.120
 123718622.479 8  23542877.706          49.000        1221.663
 135055472.909 6  25700271.764          37.000       -4020.274
 134421262.244 6  25579510.595          39.000       -1612.374
 197560348.811 7  37594483.267          43.000       -1178.829
 197249287.247 7  37535300.172          42.000       -1182.026
 07  8 29 13 23 18.0010000  0  9G20G28G17G11G 4G19G 1S37S29
 110040284.280 8  20939971.904          48.000       -1805.805
 112113802.094 8  21334554.498          50.000       -2452.163
 113083309.711 8  21519043.006          52.000         776.002
 118489331.272 8  22547772.719          50.000       -3416.569
 123717401.023 8  23542645.164          49.000        1221.852
 135059493.064 6  25701037.061          37.000       -4020.933
 134422875.671 6  25579818.207          39.000       -1613.010
 197561527.965 7  37594707.589          44.000       -1179.172
 197250468.207 7  37535525.001          43.000       -1179.642
 07  8 29 13 23 19.0010000  0  9G20G28G17G11G 4G19G 1S37S29
 110042090.694 8  20940315.725          48.000       -1806.524
 112116255.191 8  21335021.152          50.000       -2453.203
 113082534.068 8  21518894.976          52.000         776.117
 118492748.007 8  22548422.879          50.000       -3416.538
 123716179.798 8  23542412.797          49.000        1221.858
 135063513.373 6  25701801.625          37.000       -4020.872
 134424489.653 6  25580125.732          39.000       -1613.580
 197562707.079 7  37594931.860          43.000       -1177.323
 197251649.503 7  37535749.776          42.000       -1182.619
 07  8 29 13 23 20.0010000  0  9G20G28G17G11G 4G19G 1S37S29
 110043897.461 8  20940659.268          48.000       -1806.983
 112118708.636 8  21335487.822          50.000       -2453.925
 113081758.392 8  21518747.486          52.000         775.481
 118496164.594 8  22549073.039          50.000       -3417.233
 123714958.513 8  23542180.133          49.000        1221.270
 135067533.507 6  25702566.415          37.000       -4020.915
 134426103.883 6  25580434.007          40.000       -1614.598
 197563885.968 7  37595156.060          43.000       -1178.380
 197252830.623 7  37535974.536          42.000       -1180.863
 07  8 29 13 23 21.0010000  0  9G20G28G17G11G 4G19G 1S37S29
 110045704.927 8  20941003.368          48.000       -1807.625
 112121162.763 8  21335954.790          50.000       -2453.788
 113080983.030 8  21518599.858          52.000         775.296
 118499581.345 8  22549723.235          50.000       -3416.570
 123713737.475 8  23541947.714          49.000        1221.201
 135071553.871 6  25703331.171          36.000       -4020.157
 134427718.731 6  25580742.545          40.000       -1615.012
 197565064.906 7  37595380.609          43.000       -1178.666
 197254011.428 7  37536199.330          42.000       -1179.253
 07  8 29 13 23 22.0010000  0  9G20G28G17G11G 4G19G 1S37S29
 110047512.850 8  20941347.294          48.000       -1807.861
 112123617.325 8  21336421.967          50.000       -2454.500
 113080207.756 8  21518452.525          52.000         775.159
 118502998.047 8  22550373.517          49.000       -3416.419
 123712516.471 8  23541715.347          49.000        1221.356
 135075574.181 5  25704095.124          35.000       -4020.160
 134429333.931 6  25581051.134          41.000       -1615.143
 197566243.657 7  37595604.845          44.000       -1178.110
 197255192.267 7  37536423.914          43.000       -1180.313
 07  8 29 13 23 23.0010000  0  9G20G28G17G11G 4G19G 1S37S29
 110049321.197 8  20941691.151          48.000       -1808.439
 112126072.295 8  21336889.005          49.000       -2455.087
 113079432.521 8  21518305.158          52.000         775.547
 118506414.661 8  22551023.608          49.000       -3416.041
 123711295.467 8  23541482.805          49.000        1221.139
 135079594.364 6  25704859.305          37.000       -4019.427
 134430949.461 6  25581359.252          41.000       -1615.941
 197567422.298 7  37595829.098          42.000       -1176.662
 197256372.853 6  37536648.830          41.000       -1178.628
 07  8 29 13 23 24.0010000  0  9G20G28G17G11G 4G19G 1S37S29
 110051130.040 8  20942035.321          48.000       -1808.888
 112128527.766 8  21337356.444          50.000       -2455.207
 113078657.412 8  21518157.721          52.000         775.062
 118509831.236 8  22551673.035          49.000       -3416.060
 123710074.545 8  23541250.211          49.000        1221.070
 135083614.596 6  25705623.641          38.000       -4020.469
 134432565.460 6  25581667.127          41.000       -1615.463
 197568600.796 7  37596053.263          43.000       -1179.037
 197257553.107 6  37536873.466          41.000       -1180.433
 07  8 29 13 23 25.0010000  0  9G20G28G17G11G 4G19G 1S37S29
 110052939.439 8  20942379.335          48.000       -1809.541
 112130983.772 8  21337823.638          50.000       -2455.706
 113077882.480 8  21518010.511          53.000         774.975
 118513247.839 8  22552322.916          49.000       -3416.600
 123708853.733 8  23541017.983          49.000        1221.124
 135087634.906 6  25706388.641          40.000       -4020.085
 134434181.850 7  25581975.489          42.000       -1616.553
 197569778.732 7  37596277.464          43.000       -1177.677
 197258733.522 7  37537098.138          42.000       -1180.859
 07  8 29 13 23 26.0010000  0  9G20G28G17G11G 4G19G 1S37S29
 110054749.373 8  20942723.889          48.000       -1809.985
 112133440.295 8  21338291.199          50.000       -2456.789
 113077107.696 8  21517862.760          53.000         774.609
 118516664.470 8  22552973.006          49.000       -3416.270
 123707633.026 8  23540785.634          49.000        1220.736
 135091655.215 6  25707153.659          40.000       -4020.265
 134435798.729 7  25582283.084          42.000       -1617.215
 197570956.596 7  37596501.681          43.000       -1178.411
 197259914.069 7  37537322.862          42.000       -1179.421
 07  8 29 13 23 27.0010000  0  9G20G28G17G11G 4G19G 1S37S29
 110056559.879 8  20943068.461          48.000       -1810.613
 112135897.386 8  21338758.725          50.000       -2457.515
 113076333.116 8  21517715.236          52.000         774.818
 118520081.161 8  22553623.044          49.000       -3416.668
 123706412.501 8  23540553.179          49.000        1220.380
 135095675.596 6  25707918.589          40.000       -4020.702
 134437416.083 6  25582590.784          41.000       -1617.214
 197572134.576 7  37596725.830          42.000       -1175.699
 197261094.412 7  37537547.534          42.000       -1179.854
 07  8 29 13 23 28.0010000  0  9G20G28G17G11G 4G19G 1S37S29
 110058370.970 8  20943413.242          48.000       -1810.945
 112138355.028 8  21339226.181          50.000       -2457.887
 113075558.735 8  21517567.781          52.000         774.445
 118523497.918 8  22554273.309          48.000       -3416.413
 123705192.108 8  23540320.760          49.000        1220.561
 135099696.093 6  25708683.432          40.000       -4020.014
 134439033.933 6  25582898.588          41.000       -1617.747
 197573312.699 7  37596950.013          44.000       -1177.229
 197262275.140 7  37537772.274          43.000       -1181.932
 07  8 29 13 23 29.0010000  0  9G20G28G17G11G 4G19G 1S37S29
 110060182.578 7  20943757.744          47.000       -1811.834
 112140813.187 8  21339693.934          50.000       -2457.896
 113074784.502 8  21517420.519          53.000         774.366
 118526914.681 8  22554923.365          48.000       -3416.171
 123703971.803 8  23540088.585          49.000        1221.176
 135103716.584 6  25709448.659          40.000       -4020.373
 134440652.190 7  25583206.846          42.000       -1617.933
 197574490.607 7  37597174.283          42.000       -1177.410
 197263455.648 7  37537996.963          43.000       -1182.226
 07  8 29 13 23 30.0010000  0  9G20G28G17G11G 4G19G 1S37S29
 110061994.407 8  20944102.560          48.000       -1812.066
 112143271.534 8  21340161.617          50.000       -2458.553
 113074010.104 8  21517273.274          52.000         774.557
 118530331.146 8  22555573.420          48.000       -3416.291
 123702751.284 8  23539856.444          49.000        1220.690
 135107736.811 6  25710213.991          39.000       -4019.429
 134442270.590 6  25583515.051          41.000       -1618.765
 197575668.223 7  37597398.344          43.000       -1175.993
 197264635.193 7  37538221.532          42.000       -1177.519
 07  8 29 13 23 31.0010000  0  9G20G28G17G11G 4G19G 1S37S29
 110063806.841 7  20944447.359          47.000       -1812.637
 112145730.475 8  21340629.527          49.000       -2458.816
 113073235.932 8  21517125.628          52.000         774.132
 118533747.699 8  22556223.493          48.000       -3416.798
 123701530.968 8  23539624.286          48.000        1220.110
 135111757.132 6  25710979.602          39.000       -4020.086
 134443889.547 6  25583823.187          41.000       -1618.810
 197576845.966 7  37597622.265          43.000       -1177.786
 197265814.825 7  37538446.150          42.000       -1180.949
 07  8 29 13 23 32.0010000  0  9G20G28G17G11G 4G19G 1S37S29
 110065619.788 8  20944792.646          48.000       -1813.201
 112148189.901 8  21341097.263          49.000       -2459.764
 113072461.887 8  21516978.243          52.000         774.228
 118537164.225 8  22556873.514          48.000       -3416.486
 123700310.707 8  23539391.989          48.000        1220.583
 135115777.463 6  25711745.160          40.000       -4020.369
 134445508.889 6  25584131.183          41.000       -1619.455
 197578023.098 7  37597846.134          43.000       -1176.957
 197266994.683 7  37538670.490          42.000       -1180.184
 07  8 29 13 23 33.0010000  0  9G20G28G17G11G 4G19G 1S37S29
 110067433.181 8  20945137.916          48.000       -1813.825
 112150649.757 8  21341565.399          49.000       -2460.203
 113071687.907 8  21516830.963          52.000         774.139
 118540580.674 8  22557523.500          48.000       -3416.724
 123699090.463 8  23539159.360          48.000        1220.268
 135119797.734 6  25712510.544          39.000       -4020.764
 134447128.584 6  25584439.337          41.000       -1619.346
 197579200.097 7  37598070.195          42.000       -1177.260
 197268174.161 6  37538894.935          41.000       -1178.069
 07  8 29 13 23 34.0010000  0  9G20G28G17G11G 4G19G 1S37S29
 110069247.114 8  20945483.220          48.000       -1814.200
 112153110.142 8  21342033.589          49.000       -2460.204
 113070914.093 8  21516683.823          52.000         773.815
 118543997.172 8  22558173.520          48.000       -3416.169
 123697870.356 8  23538927.150          48.000        1220.113
 135123818.077 6  25713275.544          39.000       -4020.430
 134448748.747 6  25584747.838          40.000       -1621.082
 197580377.058 6  37598294.011          41.000       -1177.756
 197269353.524 6  37539119.361          41.000       -1182.439
 07  8 29 13 23 35.0010000  0  9G20G28G17G11G 4G19G 1S37S29
 110071061.515 7  20945828.455          47.000       -1814.581
 112155570.990 8  21342502.092          49.000       -2460.736
 113070140.367 8  21516536.474          52.000         774.105
 118547413.604 8  22558823.366          48.000       -3416.300
 123696650.261 8  23538694.696          48.000        1220.165
 135127838.359 6  25714041.051          39.000       -4019.307
 134450369.301 6  25585056.062          39.000       -1620.553
 197581553.787 7  37598517.880          43.000       -1176.810
 197270532.815 7  37539343.825          42.000       -1178.716
 07  8 29 13 23 36.0010000  0  9G20G28G17G11G 4G19G 1S37S29
 110072876.472 8  20946174.179          48.000       -1814.763
 112158032.349 8  21342970.194          49.000       -2461.358
 113069366.801 8  21516389.194          52.000         773.840
 118550830.075 8  22559473.474          48.000       -3416.165
 123695430.287 8  23538462.625          48.000        1220.033
 135131858.735 6  25714805.545          36.000       -4019.540
 134451990.301 6  25585363.394          38.000       -1622.278
 197582730.423 7  37598741.872          43.000       -1175.308
 197271711.726 7  37539568.321          42.000       -1178.962
 07  8 29 13 23 37.0010000  0  9G20G28G17G11G 4G19G 1S37S29
 110074691.826 8  20946519.606          48.000       -1815.744
 112160494.117 8  21343438.523          49.000       -2461.821
 113068593.268 8  21516241.879          52.000         773.888
 118554246.419 8  22560123.443          48.000       -3416.221
 123694210.301 7  23538230.485          47.000        1220.173
 135135879.033 5  25715570.179          35.000       -4018.900
 134453611.670 6  25585670.798          37.000       -1620.154
 197583907.092 7  37598965.635          43.000       -1176.386
 197272890.686 7  37539792.661          42.000       -1180.278
 07  8 29 13 23 38.0010000  0  9G20G28G17G11G 4G19G 1S37S29
 110076507.808 8  20946865.277          48.000       -1815.684
 112162956.479 8  21343907.288          49.000       -2462.252
 113067819.988 8  21516094.965          52.000         773.290
 118557662.889 8  22560773.428          49.000       -3416.184
 123692990.525 8  23537998.188          48.000        1219.891
 135139899.260 6  25716334.533          36.000       -4019.785
 134455233.530 6  25585978.532          38.000       -1621.981
 197585083.915 7  37599189.609          42.000       -1177.091
 197274069.564 7  37540016.897          42.000       -1177.713
 07  8 29 13 23 39.0010000  0  9G20G28G17G11G 4G19G 1S37S29
 110078324.291 8  20947211.018          48.000       -1816.498
 112165419.343 8  21344376.105          50.000       -2463.173
 113067046.829 8  21515947.685          53.000         773.358
 118561079.327 8  22561423.641          48.000       -3416.397
 123691770.821 7  23537765.716          47.000        1219.276
 135143919.680 5  25717098.800          35.000       -4020.443
 134456855.819 6  25586285.463          36.000       -1624.028
 197586260.600 7  37599413.583          42.000       -1176.178
 197275248.067 7  37540241.202          42.000       -1178.323
 07  8 29 13 23 40.0010000  0  9G20G28G17G11G 4G19G 1S37S29
 110080141.419 8  20947556.881          49.000       -1816.860
 112167882.796 8  21344844.713          49.000       -2463.658
 113066273.941 8  21515800.388          51.000         772.948
 118564495.869 8  22562073.906          48.000       -3416.300
 123690551.326 7  23537533.331          45.000        1219.885
 135147940.094 5  25717862.910          33.000       -4021.187
 134458478.643 6  25586594.105          38.000       -1624.758
 197587437.165 7  37599637.434          43.000       -1175.892
 197276426.768 6  37540465.489          41.000       -1179.059
 07  8 29 13 23 41.0010000  0  9G20G28G17G11G 4G19G 1S37S29
 110081958.949 8  20947902.901          48.000       -1817.644
 112170346.706 8  21345313.547          50.000       -2464.366
 113065501.085 8  21515653.352          52.000         772.738
 118567912.362 8  22562724.258          48.000       -3416.204
 123689331.825 7  23537301.226          47.000        1219.192
 135151960.607 6  25718627.945          36.000       -4020.211
 134460101.808 6  25586902.748          38.000       -1622.971
 197588613.641 7  37599861.128          44.000       -1177.713
 197277605.305 7  37540689.742          42.000       -1179.147
 07  8 29 13 23 42.0010000  0  9G20G28G17G11G 4G19G 1S37S29
 110083776.952 8  20948248.852          49.000       -1817.983
 112172811.034 8  21345782.609          50.000       -2464.157
 113064728.323 8  21515506.526          53.000         772.988
 118571328.772 8  22563374.348          49.000       -3415.966
 123688112.385 7  23537068.667          47.000        1220.130
 135155981.032 6  25719393.800          39.000       -4019.088
 134461725.353 6  25587211.215          38.000       -1624.389
 197589789.869 7  37600085.014          43.000       -1176.780
 197278783.791 7  37540913.855          42.000       -1178.984
 07  8 29 13 23 43.0010000  0  9G20G28G17G11G 4G19G 1S37S29
 110085595.628 8  20948594.732          49.000       -1818.726
 112175275.991 8  21346251.584          50.000       -2465.265
 113063955.837 8  21515359.525          53.000         772.452
 118574745.315 8  22564024.421          49.000       -3416.379
 123686893.149 8  23536836.544          48.000        1219.081
 135160001.568 6  25720159.323          38.000       -4020.549
 134463349.460 6  25587520.363          39.000       -1624.072
 197590965.866 7  37600308.831          43.000       -1177.462
 197279962.057 7  37541138.248          42.000       -1177.966
 07  8 29 13 23 44.0010000  0  9G20G28G17G11G 4G19G 1S37S29
 110087414.700 8  20948940.805          49.000       -1819.181
 112177741.350 8  21346720.959          50.000       -2465.628
 113063183.383 8  21515212.403          52.000         772.669
 118578161.752 8  22564674.302          49.000       -3416.194
 123685673.924 8  23536604.090          48.000        1219.657
 135164021.993 6  25720924.795          38.000       -4020.982
 134464973.887 6  25587829.545          39.000       -1625.127
 197592141.692 7  37600532.543          43.000       -1174.998
 197281140.114 7  37541362.361          42.000       -1178.797
 07  8 29 13 23 45.0010000  0  9G20G28G17G11G 4G19G 1S37S29
 110089234.361 8  20949286.860          48.000       -1819.948
 112180207.276 8  21347190.283          49.000       -2465.789
 113062411.144 8  21515065.385          52.000         772.696
 118581578.256 8  22565324.428          49.000       -3416.406
 123684454.831 7  23536371.862          47.000        1219.002
 135168042.638 5  25721689.271          35.000       -4020.308
 134466598.792 6  25588138.902          39.000       -1625.938
 197593317.303 7  37600756.202          42.000       -1176.507
 197282318.078 7  37541586.527          42.000       -1177.466
 07  8 29 13 23 46.0010000  0  9G20G28G17G11G 4G19G 1S37S29
 110091054.579 8  20949633.456          48.000       -1820.613
 112182673.726 8  21347659.519          49.000       -2466.702
 113061639.071 8  21514918.454          52.000         772.002
 118584994.804 8  22565974.518          49.000       -3416.549
 123683235.870 7  23536139.512          46.000        1218.564
 135172063.234 5  25722453.818          35.000       -4019.990
 134468224.172 6  25588448.207          39.000       -1626.805
 197594492.914 7  37600980.019          43.000       -1175.182
 197283495.595 7  37541810.658          42.000       -1177.212
 07  8 29 13 23 47.0010000  0  9G20G28G17G11G 4G19G 1S37S29
 110092875.364 8  20949979.930          48.000       -1820.807
 112185140.732 8  21348128.528          49.000       -2467.153
 113060867.190 8  21514771.715          52.000         771.966
 118588411.390 8  22566624.940          48.000       -3416.333
 123682017.047 7  23535907.617          46.000        1219.191
 135176083.869 5  25723219.481          34.000       -4020.606
 134469850.008 6  25588757.705          39.000       -1625.601
 197595668.581 7  37601203.731          44.000       -1175.760
 197284673.481 7  37542034.736          43.000       -1176.501
 07  8 29 13 23 48.0010000  0  9G20G28G17G11G 4G19G 1S37S29
 110094696.458 8  20950326.473          48.000       -1821.316
 112187608.035 8  21348597.991          49.000       -2467.301
 113060095.232 8  21514624.819          52.000         771.692
 118591827.762 8  22567274.978          49.000       -3416.182
 123680798.119 7  23535675.232          46.000        1218.611
 135180104.333 5  25723984.412          34.000       -4018.460
 134471476.093 6  25589067.079          39.000       -1626.487
 197596844.060 7  37601427.512          44.000       -1175.419
 197285851.235 7  37542258.814          43.000       -1177.548
 07  8 29 13 23 49.0010000  0  9G20G28G17G11G 4G19G 1S37S29
 110096518.257 8  20950673.122          49.000       -1821.676
 112190076.016 8  21349067.454          49.000       -2467.866
 113059323.616 8  21514478.237          52.000         771.502
 118595244.326 8  22567925.243          49.000       -3416.678
 123679579.483 7  23535443.144          47.000        1218.351
 135184125.050 5  25724749.412          35.000       -4019.441
 134473102.778 6  25589376.629          39.000       -1626.806
 197598019.621 7  37601651.172          43.000       -1175.513
 197287028.989 7  37542482.997          42.000       -1177.361
 07  8 29 13 23 50.0010000  0  9G20G28G17G11G 4G19G 1S37S29
 110098340.485 8  20951019.927          48.000       -1822.256
 112192544.405 8  21349537.266          49.000       -2468.594
 113058552.028 8  21514331.131          52.000         771.299
 118598660.797 8  22568575.298          49.000       -3416.334
 123678360.837 7  23535210.759          46.000        1218.515
 135188145.624 5  25725515.685          35.000       -4021.103
 134474729.821 6  25589686.126          39.000       -1626.359
 197599194.709 7  37601874.866          43.000       -1176.002
 197288206.699 7  37542707.023          42.000       -1178.103
 07  8 29 13 23 51.0010000  0  9G20G28G17G11G 4G19G 1S37S29
 110100163.314 8  20951366.680          48.000       -1822.688
 112195013.377 8  21350007.183          49.000       -2468.763
 113057780.676 8  21514184.323          52.000         771.588
 118602077.328 8  22569225.651          49.000       -3416.194
 123677142.350 7  23534978.427          46.000        1218.770
 135192166.330 6  25726281.628          37.000       -4020.111
 134476357.327 6  25589995.954          39.000       -1627.595
 197600369.907 7  37602098.526          42.000       -1175.243
 197289384.315 7  37542931.153          42.000       -1179.037
 07  8 29 13 23 52.0010000  0  9G20G28G17G11G 4G19G 1S37S29
 110101986.804 8  20951713.486          48.000       -1823.415
 112197483.010 8  21350476.803          49.000       -2469.326
 113057009.621 8  21514037.584          52.000         771.366
 118605494.025 8  22569875.846          48.000       -3416.307
 123675924.088 7  23534746.060          45.000        1218.430
 135196187.207 6  25727046.942          37.000       -4021.421
 134477985.460 6  25590305.521          40.000       -1627.559
 197601545.331 7  37602322.098          43.000       -1174.658
 197290561.783 7  37543155.092          42.000       -1176.850
 07  8 29 13 23 53.0010000  0  9G20G28G17G11G 4G19G 1S37S29
 110103810.740 8  20952060.396          48.000       -1824.039
 112199953.073 8  21350946.947          49.000       -2470.115
 113056238.644 8  21513890.635          52.000         771.109
 118608910.672 8  22570526.495          48.000       -3416.401
 123674705.882 7  23534513.623          45.000        1218.175
 135200208.078 6  25727813.618          36.000       -4019.413
 134479613.985 6  25590615.436          40.000       -1628.622
 197602720.282 6  37602545.565          41.000       -1175.301
 197291738.981 6  37543379.310          41.000       -1177.887
 07  8 29 13 23 54.0010000  0  9G20G28G17G11G 4G19G 1S37S29
 110105635.139 8  20952407.184          48.000       -1824.946
 112202423.577 8  21351417.073          49.000       -2471.010
 113055467.733 8  21513743.722          51.000         770.872
 118612327.247 8  22571177.178          49.000       -3416.571
 123673487.649 7  23534281.360          45.000        1217.856
 135204228.845 6  25728579.350          37.000       -4021.298
 134481242.818 6  25590924.916          38.000       -1629.124
 197603894.978 7  37602769.138          44.000       -1173.698
 197292916.140 7  37543603.126          42.000       -1177.848
 07  8 29 13 23 55.0010000  0  9G20G28G17G11G 4G19G 1S37S29
 110107460.182 8  20952754.652          48.000       -1825.443
 112204894.731 8  21351887.251          49.000       -2471.015
 113054697.130 8  21513596.931          52.000         770.609
 118615743.938 8  22571827.321          49.000       -3416.555
 123672269.663 7  23534049.395          46.000        1217.776
 135208249.760 6  25729344.508          36.000       -4020.113
 134482872.291 6  25591234.151          39.000       -1629.604
 197605069.400 7  37602992.640          43.000       -1174.843
 197294093.315 7  37543827.205          42.000       -1177.279
 07  8 29 13 23 56.0010000  0  9G20G28G17G11G 4G19G 1S37S29
 110109285.799 8  20953101.964          48.000       -1825.415
 112207366.413 8  21352357.936          49.000       -2471.760
 113053926.676 8  21513450.366          52.000         770.810
 118619160.662 8  22572477.568          49.000       -3416.670
 123671051.831 7  23533817.569          46.000        1217.869
 135212270.720 6  25730109.927          37.000       -4019.833
 134484502.209 6  25591544.852          39.000       -1629.025
 197606243.904 7  37603215.951          43.000       -1173.812
 197295270.441 7  37544051.319          42.000       -1175.065
 07  8 29 13 23 57.0010000  0  9G20G28G17G11G 4G19G 1S37S29
 110111111.833 8  20953449.799          49.000       -1826.216
 112209838.509 8  21352828.237          49.000       -2472.037
 113053156.294 8  21513303.470          51.000         770.496
 118622577.320 8  22573127.990          49.000       -3416.678
 123669833.994 7  23533585.690          46.000        1217.574
 135216291.641 6  25730874.996          38.000       -4021.681
 134486132.480 6  25591854.576          39.000       -1630.187
 197607418.127 7  37603439.296          42.000       -1173.850
 197296447.342 7  37544275.414          42.000       -1176.700
 07  8 29 13 23 58.0010000  0  9G20G28G17G11G 4G19G 1S37S29
 110112938.518 8  20953797.337          49.000       -1826.748
 112212311.238 8  21353298.799          50.000       -2472.777
 113052386.159 8  21513157.098          52.000         770.441
 118625994.110 8  22573777.487          48.000       -3416.745
 123668616.383 7  23533353.812          46.000        1217.908
 135220312.738 6  25731640.450          38.000       -4019.840
 134487763.203 6  25592164.962          39.000       -1631.568
 197608592.350 7  37603662.781          44.000       -1174.505
 197297623.884 7  37544499.405          43.000       -1177.389
 07  8 29 13 23 59.0010000  0  9G20G28G17G11G 4G19G 1S37S29
 110114765.655 8  20954144.858          48.000       -1827.098
 112214784.403 8  21353769.797          50.000       -2473.245
 113051616.113 8  21513010.847          52.000         770.012
 118629410.796 8  22574427.752          49.000       -3416.656
 123667398.783 7  23533122.439          46.000        1217.665
 135224333.736 6  25732406.671          38.000       -4021.374
 134489394.405 5  25592474.913          33.000       -1630.664
 197609766.524 7  37603886.109          42.000       -1172.944
 197298800.305 6  37544723.082          41.000       -1176.104
 07  8 29 13 24  0.0010000  0  9G20G28G17G11G 4G19G 1S37S29
 110116593.210 8  20954492.274          48.000       -1827.645
 112217257.952 8  21354240.534          50.000       -2474.018
 113050846.116 8  21512864.248          52.000         769.945
 118632827.415 8  22575078.174          49.000       -3416.842
 123666181.177 7  23532890.717          46.000        1217.195
 135228354.679 6  25733171.933          39.000       -4020.715
 134491025.865 5  25592785.667          34.000       -1630.320
 197610940.598 7  37604109.455          44.000       -1173.131
 197299976.318 7  37544946.899          43.000       -1175.848
 07  8 29 13 24  1.0010000  0  9G20G28G17G11G 4G19G 1S37S29
 110118421.382 8  20954840.406          48.000       -1828.000
 112219732.119 8  21354711.289          50.000       -2474.125
 113050076.362 8  21512717.876          52.000         769.959
 118636244.128 8  22575728.177          49.000       -3416.671
 123664963.781 7  23532658.944          45.000        1217.764
 135232375.765 6  25733938.033          39.000       -4020.724
 134492657.915 5  25593096.367          35.000       -1633.038
 197612114.738 7  37604332.974          43.000       -1173.575
 197301152.552 7  37545170.680          42.000       -1177.293
 07  8 29 13 24  2.0010000  0  9G20G28G17G11G 4G19G 1S37S29
 110120250.083 8  20955187.996          48.000       -1829.336
 112222206.782 8  21355182.287          50.000       -2474.563
 113049306.756 8  21512571.102          52.000         769.788
 118639660.841 8  22576378.442          49.000       -3416.733
 123663746.478 7  23532427.153          45.000        1218.151
 135236396.841 6  25734703.713          38.000       -4021.529
 134494290.351 6  25593406.440          36.000       -1631.542
 197613288.592 7  37604556.494          43.000       -1173.801
 197302328.736 7  37545394.427          42.000       -1174.396
 07  8 29 13 24  3.0010000  0  9G20G28G17G11G 4G19G 1S37S29
 110122079.268 8  20955536.268          48.000       -1829.263
 112224681.907 8  21355653.303          50.000       -2475.525
 113048537.261 8  21512424.747          52.000         769.598
 118643077.521 8  22577028.672          49.000       -3416.903
 123662529.208 7  23532195.379          46.000        1217.245
 135240417.905 6  25735468.731          38.000       -4021.832
 134495923.283 6  25593718.380          38.000       -1631.840
 197614462.491 7  37604780.101          43.000       -1173.583
 197303505.135 7  37545618.365          42.000       -1175.988
 07  8 29 13 24  4.0010000  0  9G20G28G17G11G 4G19G 1S37S29
 110123909.005 8  20955884.277          48.000       -1830.036
 112227157.600 8  21356124.354          50.000       -2475.921
 113047767.947 8  21512277.781          52.000         769.366
 118646494.246 8  22577679.060          49.000       -3416.508
 123661312.093 7  23531963.448          46.000        1217.961
 135244438.974 6  25736233.452          38.000       -4021.631
 134497556.578 6  25594029.378          39.000       -1632.947
 197615636.190 7  37605003.376          42.000       -1174.888
 197304681.319 7  37545842.042          43.000       -1176.015
 07  8 29 13 24  5.0010000  0  9G20G28G17G11G 4G19G 1S37S29
 110125739.182 8  20956232.688          48.000       -1830.804
 112229633.695 8  21356595.650          50.000       -2476.248
 113046998.683 8  21512131.793          52.000         769.727
 118649910.898 8  22578329.237          49.000       -3416.198
 123660094.961 7  23531732.093          46.000        1217.357
 135248459.989 6  25736998.853          39.000       -4020.849
 134499190.286 6  25594340.236          40.000       -1633.294
 197616809.786 7  37605226.775          42.000       -1173.602
 197305857.586 7  37546066.016          42.000       -1175.888
 07  8 29 13 24  6.0010000  0  9G20G28G17G11G 4G19G 1S37S29
 110127569.926 8  20956581.203          48.000       -1831.361
 112232110.335 8  21357067.242          50.000       -2476.398
 113046229.600 8  21511985.367          52.000         768.744
 118653327.567 8  22578979.676          49.000       -3417.263
 123658877.994 7  23531500.650          46.000        1216.975
 135252481.092 6  25737763.661          41.000       -4021.310
 134500824.418 6  25594651.094          40.000       -1634.655
 197617983.507 7  37605450.120          44.000       -1172.416
 197307033.169 7  37546289.519          43.000       -1174.255
 07  8 29 13 24  7.0010000  0  9G20G28G17G11G 4G19G 1S37S29
 110129401.222 8  20956930.086          48.000       -1831.642
 112234587.531 8  21357538.589          49.000       -2477.099
 113045460.711 8  21511839.030          52.000         769.252
 118656744.302 8  22579629.767          49.000       -3416.550
 123657661.149 7  23531268.999          46.000        1217.533
 135256502.189 6  25738528.766          41.000       -4021.767
 134502459.069 6  25594962.266          40.000       -1634.320
 197619157.141 7  37605673.587          43.000       -1173.850
 197308208.659 7  37546513.247          42.000       -1176.530
 07  8 29 13 24  8.0010000  0  9G20G28G17G11G 4G19G 1S37S29
 110131233.018 8  20957278.427          48.000       -1831.753
 112237065.223 8  21358009.867          50.000       -2478.097
 113044691.948 8  21511692.745          52.000         768.572
 118660160.999 8  22580280.032          49.000       -3416.840
 123656444.402 7  23531037.085          46.000        1216.658
 135260523.347 7  25739293.644          42.000       -4022.090
 134504094.060 6  25595273.316          40.000       -1635.405
 197620330.461 7  37605896.898          43.000       -1173.994
 197309384.050 6  37546737.047          41.000       -1176.079
 07  8 29 13 24  9.0010000  0  9G20G28G17G11G 4G19G 1S37S29
 110133065.399 8  20957626.803          48.000       -1832.123
 112239543.478 8  21358481.616          49.000       -2478.514
 113043923.383 8  21511546.634          52.000         768.898
 118663577.767 8  22580930.332          49.000       -3416.534
 123655227.761 7  23530805.067          45.000        1216.628
 135264544.582 7  25740058.505          42.000       -4021.068
 134505729.575 6  25595584.540          40.000       -1636.311
 197621503.720 7  37606120.156          42.000       -1173.476
 197310559.496 6  37546960.759          41.000       -1174.983
 07  8 29 13 24 10.0010000  0  9G20G28G17G11G 4G19G 1S37S29
 110134898.264 8  20957975.667          48.000       -1833.109
 112242022.194 8  21358953.190          49.000       -2479.105
 113043154.946 8  21511400.349          52.000         768.580
 118666994.496 8  22581580.649          49.000       -3416.367
 123654011.229 7  23530573.660          45.000        1216.610
 135268565.806 7  25740823.191          42.000       -4020.865
 134507365.509 6  25595895.294          40.000       -1636.010
 197622676.869 7  37606343.414          43.000       -1174.071
 197311735.190 6  37547184.365          41.000       -1176.396
 07  8 29 13 24 11.0010000  0  9G20G28G17G11G 4G19G 1S37S29
 110136731.741 8  20958324.636          48.000       -1833.667
 112244501.517 8  21359424.730          49.000       -2479.449
 113042386.750 8  21511253.837          52.000         768.062
 118670411.331 8  22582230.669          49.000       -3417.139
 123652794.907 7  23530342.218          45.000        1216.786
 135272587.134 7  25741588.173          43.000       -4021.022
 134509001.971 6  25596206.605          40.000       -1636.792
 197623850.183 7  37606566.934          44.000       -1173.602
 197312911.248 7  37547408.095          43.000       -1176.287
 07  8 29 13 24 12.0010000  0  9G20G28G17G11G 4G19G 1S37S29
 110138565.686 8  20958673.868          48.000       -1833.623
 112246981.291 8  21359896.601          49.000       -2479.422
 113041618.637 8  21511107.586          52.000         768.391
 118673828.126 8  22582880.586          49.000       -3416.498
 123651578.607 7  23530111.020          45.000        1216.385
 135276608.529 7  25742353.400          44.000       -4020.377
 134510638.786 6  25596518.476          39.000       -1636.237
 197625023.217 7  37606790.210          44.000       -1171.813
 197314086.947 7  37547632.190          43.000       -1176.255
 07  8 29 13 24 13.0010000  0  9G20G28G17G11G 4G19G 1S37S29
 110140400.010 8  20959022.924          48.000       -1834.540
 112249461.429 8  21360368.281          49.000       -2479.916
 113040850.546 8  21510961.615          52.000         768.501
 118677244.773 8  22583530.746          49.000       -3416.454
 123650362.268 7  23529879.560          45.000        1217.033
 135280629.747 7  25743119.343          44.000       -4021.182
 134512275.926 6  25596829.979          40.000       -1637.426
 197626195.793 7  37607013.485          43.000       -1172.367
 197315261.952 7  37547855.624          42.000       -1173.584
 07  8 29 13 24 14.0010000  0  9G20G28G17G11G 4G19G 1S37S29
 110142235.024 8  20959372.190          48.000       -1835.328
 112251942.206 8  21360840.309          49.000       -2481.197
 113040082.742 8  21510815.365          52.000         767.869
 118680661.580 8  22584180.871          49.000       -3416.564
 123649146.155 7  23529648.135          46.000        1216.004
 135284651.070 7  25743885.093          44.000       -4022.196
 134513913.655 6  25597141.605          39.000       -1638.652
 197627368.776 7  37607236.690          42.000       -1174.287
 197316437.183 7  37548079.405          42.000       -1174.824
 07  8 29 13 24 15.0010000  0  9G20G28G17G11G 4G19G 1S37S29
 110144070.522 8  20959721.334          48.000       -1835.718
 112254423.474 8  21361312.581          50.000       -2481.249
 113039315.075 8  21510669.237          52.000         768.241
 118684078.365 8  22584830.839          49.000       -3416.686
 123647930.108 7  23529416.920          46.000        1215.906
 135288672.465 7  25744650.372          43.000       -4021.359
 134515551.770 6  25597453.562          39.000       -1638.828
 197628541.755 7  37607460.105          43.000       -1174.989
 197317611.919 7  37548302.942          42.000       -1174.831
 07  8 29 13 24 16.0010000  0  9G20G28G17G11G 4G19G 1S37S29
 110145906.516 8  20960070.966          48.000       -1835.827
 112256905.220 8  21361785.011          50.000       -2481.994
 113038547.524 8  21510523.545          52.000         767.776
 118687495.149 8  22585480.720          49.000       -3416.931
 123646714.144 7  23529185.617          46.000        1216.030
 135292693.904 6  25745415.983          40.000       -4021.635
 134517190.293 6  25597765.799          39.000       -1638.577
 197629714.430 7  37607683.277          42.000       -1172.942
 197318786.786 6  37548526.497          41.000       -1174.966
 07  8 29 13 24 17.0010000  0  9G20G28G17G11G 4G19G 1S37S29
 110147743.089 8  20960420.459          48.000       -1836.661
 112259387.517 8  21362257.475          50.000       -2482.701
 113037780.166 8  21510377.382          52.000         767.132
 118690911.962 8  22586130.933          48.000       -3416.507
 123645498.356 7  23528953.913          46.000        1216.411
 135296715.227 6  25746181.001          41.000       -4020.849
 134518829.322 6  25598077.616          40.000       -1639.764
 197630886.681 7  37607906.378          42.000       -1172.623
 197319961.445 6  37548750.122          41.000       -1173.715
 07  8 29 13 24 18.0010000  0  9G20G28G17G11G 4G19G 1S37S29
 110149580.206 8  20960770.126          48.000       -1837.559
 112261870.338 8  21362729.852          50.000       -2483.288
 113037013.006 8  21510231.515          52.000         767.014
 118694328.823 8  22586780.726          48.000       -3416.907
 123644282.678 7  23528722.732          46.000        1215.382
 135300736.726 6  25746945.949          39.000       -4020.694
 134520468.809 6  25598389.679          39.000       -1639.144
 197632059.009 7  37608129.566          44.000       -1173.137
 197321135.921 7  37548973.694          42.000       -1173.774
 07  8 29 13 24 19.0010000  0  9G20G28G17G11G 4G19G 1S37S29
 110151417.908 8  20961119.601          48.000       -1837.624
 112264353.720 8  21363202.247          49.000       -2483.375
 113036246.028 8  21510085.492          52.000         767.443
 118697745.735 8  22587430.904          48.000       -3416.685
 123643067.133 7  23528491.884          46.000        1215.825
 135304758.336 6  25747711.106          40.000       -4020.957
 134522108.780 6  25598702.125          39.000       -1639.813
 197633231.414 7  37608352.720          43.000       -1172.618
 197322309.902 7  37549196.970          42.000       -1172.782
 07  8 29 13 24 20.0010000  0  9G20G28G17G11G 4G19G 1S37S29
 110153256.078 8  20961469.146          48.000       -1838.360
 112266837.560 8  21363675.148          50.000       -2484.157
 113035479.154 8  21509939.503          52.000         766.771
 118701162.597 8  22588081.099          48.000       -3417.317
 123641851.626 7  23528260.703          46.000        1215.322
 135308779.830 6  25748476.786          39.000       -4022.317
 134523749.148 6  25599014.448          38.000       -1641.582
 197634403.770 7  37608575.699          43.000       -1171.731
 197323484.009 7  37549420.349          42.000       -1175.056
 07  8 29 13 24 21.0010000  0  9G20G28G17G11G 4G19G 1S37S29
 110155094.931 8  20961819.093          48.000       -1838.937
 112269322.055 8  21364147.944          49.000       -2484.966
 113034712.595 8  21509794.021          52.000         766.773
 118704579.635 8  22588731.277          48.000       -3417.394
 123640636.389 7  23528029.627          46.000        1215.557
 135312801.560 6  25749241.996          40.000       -4021.197
 134525390.116 6  25599326.057          37.000       -1641.060
 197635575.983 7  37608798.712          42.000       -1173.276
 197324658.464 7  37549643.800          42.000       -1173.536
 07  8 29 13 24 22.0010000  0  9G20G28G17G11G 4G19G 1S37S29
 110156934.224 8  20962169.196          48.000       -1839.429
 112271806.974 8  21364620.757          49.000       -2484.796
 113033946.090 8  21509648.015          52.000         766.726
 118707996.585 8  22589381.629          48.000       -3417.339
 123639421.174 7  23527798.761          47.000        1215.314
 135316823.252 6  25750007.031          39.000       -4021.460
 134527031.454 6  25599637.386          37.000       -1641.919
 197636748.173 7  37609021.796          44.000       -1172.488
 197325832.742 7  37549867.146          42.000       -1173.135
 07  8 29 13 24 23.0010000  0  9G20G28G17G11G 4G19G 1S37S29
 110158774.063 8  20962519.631          48.000       -1840.041
 112274292.433 8  21365093.553          49.000       -2485.686
 113033179.773 8  21509502.288          52.000         766.397
 118711413.573 8  22590031.894          48.000       -3417.043
 123638206.074 7  23527567.493          46.000        1214.988
 135320844.934 6  25750772.659          40.000       -4020.978
 134528673.259 6  25599949.222          36.000       -1640.648
 197637920.039 7  37609244.688          44.000       -1171.441
 197327007.301 7  37550090.787          42.000       -1173.760
 07  8 29 13 24 24.0010000  0  9G20G28G17G11G 4G19G 1S37S29
 110160614.370 8  20962870.014          48.000       -1840.350
 112276778.339 8  21365566.611          49.000       -2485.892
 113032413.544 8  21509356.701          52.000         766.356
 118714830.501 8  22590681.932          48.000       -3416.802
 123636991.013 7  23527336.469          46.000        1215.161
 135324866.648 6  25751538.375          41.000       -4020.802
 134530315.434 6  25600261.039          36.000       -1641.943
 197639091.667 7  37609467.563          44.000       -1170.571
 197328181.618 7  37550314.116          42.000       -1172.631
 07  8 29 13 24 25.0010000  0  9G20G28G17G11G 4G19G 1S37S29
 110162455.261 8  20963220.048          48.000       -1841.107
 112279264.811 8  21366039.826          49.000       -2486.518
 113031647.519 8  21509210.380          52.000         765.989
 118718247.501 8  22591332.232          48.000       -3416.335
 123635776.129 7  23527105.394          47.000        1215.144
 135328888.351 6  25752303.375          40.000       -4021.680
 134531958.082 6  25600573.136          37.000       -1641.756
 197640263.274 7  37609690.628          43.000       -1171.003
 197329355.593 7  37550537.495          42.000       -1174.905
 07  8 29 13 24 26.0010000  0  9G20G28G17G11G 4G19G 1S37S29
 110164296.499 8  20963570.500          48.000       -1841.243
 112281751.615 8  21366512.866          49.000       -2486.704
 113030881.488 8  21509064.514          52.000         766.177
 118721664.335 8  22591982.724          48.000       -3416.583
 123634561.156 7  23526874.300          47.000        1214.763
 135332909.971 6  25753069.055          40.000       -4021.755
 134533600.968 6  25600885.442          36.000       -1643.587
 197641434.677 7  37609913.572          43.000       -1171.764
 197330529.387 7  37550760.894          42.000       -1172.701
 07  8 29 13 24 27.0010000  0  9G20G28G17G11G 4G19G 1S37S29
 110166138.349 8  20963921.127          48.000       -1842.339
 112284239.013 8  21366986.098          49.000       -2487.584
 113030115.684 8  21508918.822          52.000         766.024
 118725081.257 8  22592632.989          48.000       -3416.716
 123633346.371 7  23526643.312          47.000        1215.002
 135336931.686 6  25753834.212          40.000       -4021.366
 134535244.415 6  25601197.086          36.000       -1643.103
 197642605.980 7  37610136.411          42.000       -1171.698
 197331702.767 7  37550984.133          42.000       -1174.755
 07  8 29 13 24 28.0010000  0  9G20G28G17G11G 4G19G 1S37S29
 110167980.617 8  20964271.720          48.000       -1842.369
 112286726.807 8  21367459.505          49.000       -2488.103
 113029349.917 8  21508773.217          52.000         765.630
 118728498.080 8  22593283.463          48.000       -3416.753
 123632131.591 7  23526412.044          47.000        1215.222
 135340953.339 6  25754599.265          39.000       -4021.933
 134536888.203 6  25601509.689          36.000       -1643.344
 197643777.240 7  37610359.286          44.000       -1170.060
 197332875.916 6  37551207.304          41.000       -1174.447
 07  8 29 13 24 29.0010000  0  9G20G28G17G11G 4G19G 1S37S29
 110169823.480 8  20964622.364          48.000       -1843.090
 112289215.180 8  21367932.999          49.000       -2488.562
 113028584.371 8  21508627.194          51.000         765.923
 118731914.981 8  22593933.518          48.000       -3416.610
 123630916.971 7  23526180.951          47.000        1214.556
 135344975.103 6  25755364.247          40.000       -4021.636
 134538532.537 6  25601823.060          36.000       -1642.925
 197644948.334 7  37610582.073          44.000       -1171.635
 197334049.142 7  37551430.458          43.000       -1174.397
 07  8 29 13 24 30.0010000  0  9G20G28G17G11G 4G19G 1S37S29
 110171666.839 8  20964973.166          49.000       -1843.018
 112291704.033 8  21368406.685          49.000       -2488.785
 113027818.958 8  21508481.519          52.000         765.286
 118735331.859 8  22594583.905          49.000       -3416.807
 123629702.422 7  23525950.154          47.000        1214.526
 135348996.850 6  25756129.719          41.000       -4021.399
 134540177.213 6  25602136.378          37.000       -1645.707
 197646119.236 7  37610804.859          44.000       -1172.162
 197335222.120 7  37551653.525          43.000       -1172.014
 07  8 29 13 24 31.0010000  0  9G20G28G17G11G 4G19G 1S37S29
 110173510.633 8  20965324.089          48.000       -1844.088
 112294193.287 8  21368880.458          49.000       -2489.439
 113027053.593 8  21508335.880          51.000         764.972
 118738748.622 8  22595234.380          49.000       -3416.826
 123628487.885 7  23525719.026          47.000        1214.599
 135353018.498 6  25756894.771          41.000       -4021.916
 134541822.241 6  25602450.691          39.000       -1644.856
 197647290.088 7  37611027.577          43.000       -1171.072
 197336394.944 7  37551876.469          42.000       -1171.743
 07  8 29 13 24 32.0010000  0  9G20G28G17G11G 4G19G 1S37S29
 110175354.983 8  20965675.170          48.000       -1844.456
 112296683.087 8  21369354.301          49.000       -2489.725
 113026288.455 8  21508190.031          51.000         764.913
 118742165.473 8  22595884.854          48.000       -3416.592
 123627273.496 7  23525488.020          47.000        1214.348
 135357040.234 6  25757660.277          40.000       -4021.484
 134543467.781 6  25602764.743          39.000       -1645.383
 197648461.011 7  37611250.381          42.000       -1170.932
 197337568.000 7  37552099.586          42.000       -1174.501
 07  8 29 13 24 33.0010000  0  9G20G28G17G11G 4G19G 1S37S29
 110177199.884 8  20966026.111          48.000       -1844.953
 112299173.421 8  21369828.354          49.000       -2490.493
 113025523.493 8  21508044.566          51.000         765.009
 118745582.334 8  22596534.962          48.000       -3417.157
 123626059.212 7  23525257.188          47.000        1213.924
 135361062.009 6  25758425.155          39.000       -4021.204
 134545113.745 6  25603078.061          40.000       -1645.375
 197649632.089 7  37611473.098          42.000       -1171.879
 197338741.115 7  37552322.863          42.000       -1172.243
 07  8 29 13 24 34.0010000  0  9G20G28G17G11G 4G19G 1S37S29
 110179045.204 8  20966377.523          48.000       -1845.675
 112301664.146 8  21370302.494          49.000       -2490.546
 113024758.575 8  21507899.206          51.000         764.999
 118748999.108 8  22597184.791          48.000       -3416.475
 123624844.933 8  23525026.374          48.000        1214.512
 135365083.707 6  25759190.365          41.000       -4021.297
 134546760.051 6  25603392.008          41.000       -1646.740
 197650802.903 7  37611695.781          44.000       -1170.207
 197339913.532 7  37552545.982          42.000       -1170.170
 07  8 29 13 24 35.0010000  0  9G20G28G17G11G 4G19G 1S37S29
 110180890.959 8  20966728.622          48.000       -1846.087
 112304155.306 8  21370776.406          49.000       -2491.596
 113023993.729 8  21507753.845          51.000         764.751
 118752415.777 8  22597835.108          48.000       -3416.919
 123623630.671 8  23524795.438          48.000        1214.497
 135369105.344 6  25759955.120          41.000       -4022.661
 134548406.704 6  25603706.565          41.000       -1647.538
 197651973.413 7  37611918.481          44.000       -1170.061
 197341085.667 7  37552768.837          42.000       -1173.348
 07  8 29 13 24 36.0010000  0  9G20G28G17G11G 4G19G 1S37S29
 110182737.364 8  20967079.737          48.000       -1846.313
 112306647.089 8  21371250.738          49.000       -2491.697
 113023229.158 8  21507608.415          51.000         764.718
 118755832.600 8  22598484.884          48.000       -3416.248
 123622416.613 7  23524564.764          47.000        1214.073
 135373127.135 6  25760720.243          41.000       -4021.765
 134550053.903 6  25604020.721          41.000       -1647.123
 197653143.709 7  37612141.163          44.000       -1169.818
 197342258.447 6  37552992.096          41.000       -1173.541
 07  8 29 13 24 37.0010000  0  9G20G28G17G11G 4G19G 1S37S29
 110184584.127 8  20967431.062          48.000       -1847.196
 112309139.224 8  21371725.035          49.000       -2492.339
 113022464.570 8  21507462.688          51.000         764.473
 118759249.253 8  22599135.010          48.000       -3416.590
 123621202.516 7  23524333.863          47.000        1214.417
 135377148.794 7  25761485.051          42.000       -4021.576
 134551701.404 6  25604334.685          41.000       -1647.999
 197654313.569 7  37612363.758          43.000       -1169.298
 197343431.007 6  37553215.093          41.000       -1171.571
 07  8 29 13 24 38.0010000  0  9G20G28G17G11G 4G19G 1S37S29
 110186431.435 8  20967782.283          48.000       -1847.092
 112311631.872 8  21372199.122          49.000       -2492.809
 113021700.142 8  21507317.258          51.000         764.729
 118762665.927 8  22599785.641          48.000       -3416.667
 123619988.507 8  23524103.101          48.000        1213.887
 135381170.508 7  25762250.470          42.000       -4022.100
 134553349.363 6  25604648.789          41.000       -1647.958
 197655483.402 7  37612586.405          43.000       -1170.664
 197344602.784 6  37553438.263          41.000       -1171.916
 07  8 29 13 24 39.0010000  0  9G20G28G17G11G 4G19G 1S37S29
 110188279.239 8  20968134.096          48.000       -1848.022
 112314124.982 8  21372673.366          49.000       -2493.223
 113020935.847 8  21507171.950          52.000         764.506
 118766082.596 8  22600435.766          48.000       -3416.460
 123618774.587 8  23523872.304          48.000        1214.136
 135385192.212 7  25763015.679          42.000       -4021.570
 134554997.701 7  25604962.981          42.000       -1647.908
 197656653.395 7  37612809.193          43.000       -1167.519
 197345774.936 7  37553661.224          42.000       -1173.691
 07  8 29 13 24 40.0010000  0  9G20G28G17G11G 4G19G 1S37S29
 110190127.627 8  20968485.631          48.000       -1848.516
 112316618.693 8  21373147.873          49.000       -2493.200
 113020171.761 8  21507026.572          52.000         764.654
 118769499.331 8  22601086.049          48.000       -3416.320
 123617560.821 8  23523641.612          48.000        1214.592
 135389213.975 6  25763781.081          41.000       -4021.183
 134556646.569 7  25605276.840          42.000       -1648.329
 197657823.299 7  37613031.875          44.000       -1169.240
 197346947.248 7  37553884.325          43.000       -1173.293
 07  8 29 13 24 41.0010000  0  9G20G28G17G11G 4G19G 1S37S29
 110191976.390 8  20968837.322          48.000       -1849.365
 112319112.734 8  21373622.326          49.000       -2494.219
 113019407.669 8  21506881.317          52.000         764.047
 118772915.912 8  22601736.506          48.000       -3416.552
 123616346.994 8  23523410.746          48.000        1214.352
 135393235.590 7  25764545.924          42.000       -4021.979
 134558295.700 7  25605591.363          42.000       -1648.426
 197658992.746 7  37613254.348          44.000       -1168.993
 197348119.009 7  37554106.990          43.000       -1172.219
 07  8 29 13 24 42.0010000  0  9G20G28G17G11G 4G19G 1S37S29
 110193825.516 8  20969188.979          48.000       -1849.144
 112321607.139 8  21374097.025          49.000       -2494.329
 113018643.577 8  21506735.764          51.000         764.068
 118776332.344 8  22602386.614          48.000       -3416.146
 123615133.128 8  23523179.967          48.000        1214.135
 135397257.134 6  25765311.343          41.000       -4020.974
 134559945.119 7  25605905.309          42.000       -1648.573
 197660162.029 7  37613476.646          43.000       -1168.149
 197349290.307 7  37554330.109          42.000       -1170.646
 07  8 29 13 24 43.0010000  0  9G20G28G17G11G 4G19G 1S37S29
 110195675.127 8  20969540.950          48.000       -1849.459
 112324101.996 8  21374571.757          49.000       -2495.053
 113017879.596 8  21506590.648          51.000         764.063
 118779748.743 8  22603036.756          48.000       -3416.512
 123613919.334 8  23522948.926          48.000        1213.603
 135401278.628 7  25766076.203          42.000       -4021.267
 134561594.944 7  25606218.994          42.000       -1649.939
 197661330.743 7  37613699.049          43.000       -1169.377
 197350461.120 7  37554552.896          42.000       -1171.071
 07  8 29 13 24 44.0010000  0  9G20G28G17G11G 4G19G 1S37S29
 110197525.222 8  20969892.833          48.000       -1850.407
 112326597.315 8  21375046.560          49.000       -2495.485
 113017115.719 8  21506445.340          52.000         763.531
 118783165.104 8  22603686.881          48.000       -3416.850
 123612705.584 8  23522718.077          48.000        1213.738
 135405300.083 6  25766840.976          41.000       -4022.362
 134563245.150 7  25606533.708          42.000       -1651.287
 197662499.271 7  37613921.330          43.000       -1169.086
 197351632.319 7  37554775.858          42.000       -1170.952
 07  8 29 13 24 45.0010000  0  9G20G28G17G11G 4G19G 1S37S29
 110199375.874 8  20970244.909          48.000       -1850.639
 112329093.174 8  21375521.136          49.000       -2496.042
 113016352.029 8  21506299.945          52.000         763.669
 118786581.503 8  22604336.990          49.000       -3416.087
 123611491.939 8  23522487.402          48.000        1213.411
 135409321.615 6  25767606.169          41.000       -4020.810
 134564895.841 6  25606847.673          41.000       -1650.324
 197663667.925 7  37614143.628          43.000       -1169.248
 197352803.634 7  37554998.714          42.000       -1171.473
 07  8 29 13 24 46.0010000  0  9G20G28G17G11G 4G19G 1S37S29
 110201226.994 8  20970597.106          48.000       -1851.211
