     2.11           OBSERVATION DATA    M (MIXED)           RINEX VERSION / TYPE
teqc  2007Jun25                         20080118 19:15:59UTCPGM / RUN BY / DATE
MSXP|IAx86-PII|bcc32 5.0|MSWin95->XP|486/DX+                COMMENT
-Unknown-                                                   MARKER NAME
-Unknown-           -Unknown-                               OBSERVER / AGENCY
-Unknown-           U-BLOX              -Unknown-           REC # / TYPE / VERS
-Unknown-           -Unknown-                               ANT # / TYPE
        0.0000        0.0000        0.0000                  APPROX POSITION XYZ
        0.0000        0.0000        0.0000                  ANTENNA: DELTA H/E/N
     1     0                                                WAVELENGTH FACT L1/2
     4    L1    C1    S1    D1                              # / TYPES OF OBSERV
 SNR is mapped to RINEX snr flag value [0-9]                COMMENT
  L1 & L2: min(max(int(snr_dBHz/6), 0), 9)                  COMMENT
  2007     8    29    13     8   35.0010000     GPS         TIME OF FIRST OBS
    14                                                      LEAP SECONDS
                                                            END OF HEADER
 07  8 29 13  8 35.0010000  0  9G20G28G17G11G 4G19G23G 1S37
 108614771.948 8  20668710.381          50.000       -1896.714
 110087406.651 8  20948942.044          50.000       -2552.746
 113756833.466 8  21647213.596          51.000         308.674
 115448082.879 8  21969039.562          51.000       -3969.879
 124754313.675 7  23739961.642          46.000         738.281
 131496362.989 6  25022914.293          40.000       -4556.176
 130832879.888 6  24896691.674          39.000         914.759
 133143326.667 6  25336333.189          39.000       -1798.837
 196428951.924 7  37379186.242          45.000       -1841.924
 07  8 29 13  8 36.0010000  0  9G20G28G17G11G 4G19G23G 1S37
 108616667.620 8  20669071.043          50.000       -1894.105
 110089957.847 8  20949427.458          50.000       -2549.491
 113756523.125 8  21647154.528          51.000         311.851
 115452050.886 8  21969794.792          51.000       -3966.398
 124753573.788 7  23739820.680          46.000         741.570
 131500918.271 6  25023780.820          40.000       -4553.632
 130831961.968 6  24896517.069          39.000         920.522
 133145123.419 6  25336675.127          39.000       -1796.040
 196430792.528 7  37379536.468          45.000       -1839.683
 07  8 29 13  8 37.0010000  0  9G20G28G17G11G 4G19G23G 1S37
 108618560.384 8  20669431.548          50.000       -1891.093
 110092506.130 8  20949912.435          50.000       -2546.877
 113756209.430 8  21647094.605          51.000         315.150
 115456015.451 8  21970549.497          51.000       -3962.890
 124752830.556 7  23739679.544          46.000         744.543
 131505470.105 6  25024646.335          40.000       -4549.353
 130831040.413 6  24896342.010          39.000         923.398
 133146917.164 6  25337015.722          38.000       -1791.818
 196432629.613 7  37379885.980          44.000       -1835.679
 07  8 29 13  8 38.0010000  0  9G20G28G17G11G 4G19G23G 1S37
 108620450.134 8  20669791.094          50.000       -1888.052
 110095051.388 8  20950396.907          50.000       -2543.830
 113755892.247 8  21647033.967          51.000         319.006
 115459976.490 8  21971303.139          51.000       -3959.190
 124752083.866 7  23739537.274          46.000         748.590
 131510018.397 6  25025511.413          39.000       -4547.365
 130830115.166 6  24896165.397          39.000         926.520
 133148707.763 6  25337355.252          37.000       -1789.185
 196434462.825 7  37380234.741          44.000       -1832.498
 07  8 29 13  8 39.0010000  0  9G20G28G17G11G 4G19G23G 1S37
 108622336.806 8  20670149.522          50.000       -1885.069
 110097593.557 8  20950880.837          50.000       -2540.380
 113755571.517 8  21646972.648          50.000         322.861
 115463933.920 8  21972056.327          51.000       -3955.199
 124751333.600 7  23739394.620          46.000         751.955
 131514563.141 6  25026376.631          39.000       -4543.935
 130829186.136 6  24895989.640          39.000         931.150
 133150495.167 6  25337694.433          36.000       -1785.557
 196436292.407 7  37380582.805          43.000       -1827.378
 07  8 29 13  8 40.0010000  0  9G20G28G17G11G 4G19G23G 1S37
 108624220.541 8  20670507.864          50.000       -1881.436
 110100132.789 8  20951363.913          50.000       -2537.340
 113755247.394 8  21646911.120          50.000         326.490
 115467887.903 8  21972808.991          51.000       -3952.051
 124750579.963 7  23739251.163          46.000         755.597
 131519104.404 6  25027240.470          39.000       -4540.302
 130828253.486 6  24895811.999          38.000         934.806
 133152279.481 6  25338033.545          36.000       -1782.323
 196438118.497 7  37380930.275          44.000       -1824.566
 07  8 29 13  8 41.0010000  0  9G20G28G17G11G 4G19G23G 1S37
 108626101.347 8  20670866.030          49.000       -1879.167
 110102669.080 8  20951846.639          50.000       -2534.648
 113754919.873 8  21646848.737          50.000         329.650
 115471838.432 8  21973560.887          51.000       -3949.103
 124749822.933 7  23739107.148          46.000         759.036
 131523642.241 6  25028103.978          38.000       -4535.944
 130827317.229 6  24895634.827          38.000         936.672
 133154060.743 6  25338371.958          36.000       -1780.208
 196439940.891 7  37381277.222          43.000       -1819.438
 07  8 29 13  8 42.0010000  0  9G20G28G17G11G 4G19G23G 1S37
 108627979.177 8  20671223.360          50.000       -1876.358
 110105202.385 8  20952328.720          50.000       -2532.019
 113754588.925 8  21646785.534          50.000         332.927
 115475785.479 8  21974312.364          51.000       -3945.061
 124749062.466 7  23738962.417          46.000         762.427
 131528176.586 6  25028966.701          38.000       -4531.469
 130826377.319 6  24895456.226          38.000         941.582
 133155838.926 6  25338710.109          36.000       -1776.924
 196441759.787 7  37381623.261          43.000       -1817.033
 07  8 29 13  8 43.0010000  0  9G20G28G17G11G 4G19G23G 1S37
 108629854.027 8  20671580.148          50.000       -1873.246
 110107732.699 8  20952810.086          50.000       -2528.619
 113754254.512 8  21646721.789          50.000         336.319
 115479728.990 8  21975062.969          51.000       -3941.589
 124748298.567 7  23738817.494          46.000         765.547
 131532707.438 6  25029829.319          38.000       -4528.576
 130825433.708 6  24895276.455          37.000         944.106
 133157613.948 6  25339047.615          37.000       -1773.384
 196443575.141 7  37381968.829          44.000       -1814.307
 07  8 29 13  8 44.0010000  0  9G20G28G17G11G 4G19G23G 1S37
 108631726.085 8  20671936.133          49.000       -1870.529
 110110260.221 8  20953291.259          50.000       -2525.962
 113753916.855 8  21646657.399          50.000         339.889
 115483669.219 8  21975812.702          51.000       -3938.336
 124747531.418 7  23738671.315          47.000         769.472
 131537234.952 6  25030691.221          38.000       -4526.956
 130824486.649 6  24895095.987          38.000         950.046
 133159386.088 6  25339384.929          36.000       -1770.960
 196445386.903 7  37382313.559          43.000       -1810.353
 07  8 29 13  8 45.0010000  0  9G20G28G17G11G 4G19G23G 1S37
 108633595.102 8  20672291.857          49.000       -1867.756
 110112784.690 8  20953771.769          50.000       -2523.131
 113753575.694 8  21646592.433          50.000         342.713
 115487605.883 8  21976562.033          51.000       -3934.779
 124746760.750 7  23738524.647          46.000         772.686
 131541758.957 6  25031552.740          39.000       -4522.783
 130823535.843 6  24894915.693          38.000         953.348
 133161155.056 6  25339722.278          37.000       -1767.523
 196447194.948 7  37382657.609          43.000       -1806.435
 07  8 29 13  8 46.0010000  0  9G20G28G17G11G 4G19G23G 1S37
 108635461.161 8  20672647.354          50.000       -1864.549
 110115306.186 8  20954251.634          50.000       -2520.184
 113753231.097 8  21646526.699          50.000         346.015
 115491539.071 8  21977310.439          51.000       -3931.255
 124745986.682 7  23738377.141          46.000         775.436
 131546279.503 6  25032413.543          39.000       -4518.774
 130822581.403 6  24894734.508          39.000         956.885
 133162920.889 6  25340058.666          37.000       -1765.859
 196448999.444 7  37383001.083          44.000       -1803.069
 07  8 29 13  8 47.0010000  0  9G20G28G17G11G 4G19G23G 1S37
 108637324.394 8  20673001.839          49.000       -1862.033
 110117824.861 8  20954730.783          50.000       -2517.182
 113752883.216 8  21646460.355          50.000         349.458
 115495468.899 8  21978058.636          51.000       -3928.002
 124745209.343 7  23738229.235          46.000         779.154
 131550796.672 6  25033273.160          39.000       -4515.084
 130821623.409 6  24894551.649          39.000         960.510
 133164683.814 6  25340394.463          37.000       -1759.918
 196450800.394 7  37383343.772          44.000       -1800.564
 07  8 29 13  8 48.0010000  0  9G20G28G17G11G 4G19G23G 1S37
 108639184.780 8  20673355.975          50.000       -1859.045
 110120340.682 8  20955209.636          50.000       -2514.011
 113752532.019 8  21646393.452          50.000         352.929
 115499395.367 8  21978805.699          51.000       -3924.747
 124744428.715 7  23738080.770          46.000         782.859
 131555310.470 6  25034132.986          39.000       -4511.541
 130820661.934 6  24894368.876          39.000         963.054
 133166443.764 6  25340729.019          37.000       -1757.859
 196452597.917 7  37383686.094          44.000       -1796.045
 07  8 29 13  8 49.0010000  0  9G20G28G17G11G 4G19G23G 1S37
 108641042.400 8  20673709.395          50.000       -1855.855
 110122853.727 8  20955687.651          50.000       -2511.211
 113752177.599 8  21646326.113          50.000         356.493
 115503318.552 8  21979552.011          51.000       -3921.319
 124743644.848 7  23737931.624          46.000         785.735
 131559821.024 6  25034991.433          40.000       -4507.766
 130819696.977 6  24894184.534          38.000         967.475
 133168200.784 6  25341063.576          36.000       -1754.985
 196454392.003 7  37384027.352          44.000       -1791.966
 07  8 29 13  8 50.0010000  0  9G20G28G17G11G 4G19G23G 1S37
 108642897.100 8  20674062.309          50.000       -1853.525
 110125363.848 8  20956165.386          50.000       -2508.500
 113751819.793 8  21646258.058          50.000         359.577
 115507238.294 8  21980297.677          51.000       -3918.131
 124742857.604 7  23737781.675          46.000         788.824
 131564328.140 6  25035849.182          40.000       -4504.668
 130818728.391 6  24894000.121          39.000         970.313
 133169954.796 6  25341396.981          36.000       -1752.134
 196456182.310 7  37384368.157          43.000       -1786.869
 07  8 29 13  8 51.0010000  0  9G20G28G17G11G 4G19G23G 1S37
 108644748.992 8  20674414.945          50.000       -1850.250
 110127871.159 8  20956642.197          50.000       -2505.739
 113751458.714 8  21646189.410          50.000         362.655
 115511154.721 8  21981042.855          51.000       -3914.586
 124742067.099 7  23737631.099          46.000         792.107
 131568831.913 6  25036706.425          40.000       -4502.104
 130817756.362 6  24893815.237          40.000         974.065
 133171705.855 6  25341729.863          37.000       -1748.933
 196457968.910 7  37384708.210          44.000       -1785.746
 07  8 29 13  8 52.0010000  0  9G20G28G17G11G 4G19G23G 1S37
 108646598.134 8  20674766.881          50.000       -1847.948
 110130375.710 8  20957118.764          50.000       -2502.587
 113751094.429 8  21646120.239          50.000         366.090
 115515067.869 8  21981787.597          51.000       -3911.194
 124741273.345 7  23737479.946          46.000         795.464
 131573332.447 6  25037563.197          40.000       -4498.358
 130816780.895 6  24893630.197          40.000         977.290
 133173453.996 6  25342062.045          37.000       -1747.879
 196459752.514 7  37385047.548          44.000       -1782.352
 07  8 29 13  8 53.0010000  0  9G20G28G17G11G 4G19G23G 1S37
 108648444.556 8  20675118.278          50.000       -1845.255
 110132877.518 8  20957594.789          51.000       -2500.716
 113750726.954 8  21646050.370          50.000         369.327
 115518977.768 8  21982531.588          51.000       -3908.355
 124740476.445 7  23737328.130          46.000         798.673
 131577829.758 6  25038419.516          40.000       -4494.938
 130815802.003 6  24893445.051          40.000         980.213
 133175199.359 6  25342394.194          37.000       -1744.152
 196461532.873 7  37385386.328          43.000       -1778.406
 07  8 29 13  8 54.0010000  0  9G20G28G17G11G 4G19G23G 1S37
 108650288.344 8  20675469.168          50.000       -1842.159
 110135376.693 8  20958070.308          51.000       -2497.639
 113750356.390 8  21645979.802          50.000         372.517
 115522884.527 8  21983274.934          51.000       -3905.102
 124739676.471 7  23737175.861          46.000         801.636
 131582323.897 6  25039275.275          40.000       -4492.417
 130814819.794 6  24893258.527          40.000         984.570
 133176941.947 6  25342724.703          36.000       -1740.143
 196463309.987 7  37385724.357          45.000       -1777.110
 07  8 29 13  8 55.0010000  0  9G20G28G17G11G 4G19G23G 1S37
 108652129.318 8  20675819.325          50.000       -1839.263
 110137873.042 8  20958545.322          51.000       -2494.638
 113749982.537 8  21645908.746          50.000         375.534
 115526787.942 8  21984017.826          51.000       -3901.812
 124738873.204 7  23737023.051          46.000         804.897
 131586814.741 6  25040130.128          41.000       -4489.898
 130813834.087 6  24893071.287          40.000         985.979
 133178681.544 6  25343055.629          37.000       -1738.385
 196465083.802 7  37386061.724          45.000       -1772.411
 07  8 29 13  8 56.0010000  0  9G20G28G17G11G 4G19G23G 1S37
 108653967.631 8  20676169.238          50.000       -1836.880
 110140366.720 8  20959019.515          51.000       -2492.327
 113749605.577 8  21645836.730          50.000         378.390
 115530688.179 8  21984760.159          51.000       -3898.280
 124738066.785 7  23736869.734          46.000         808.169
 131591302.402 6  25040983.951          41.000       -4485.400
 130812845.037 6  24892883.437          40.000         991.267
 133180418.397 6  25343386.679          37.000       -1735.452
 196466854.114 7  37386398.636          44.000       -1768.734
 07  8 29 13  8 57.0010000  0  9G20G28G17G11G 4G19G23G 1S37
 108655803.173 8  20676518.662          51.000       -1834.043
 110142857.622 8  20959493.447          51.000       -2489.221
 113749225.367 8  21645764.261          50.000         382.203
 115534585.122 8  21985501.411          51.000       -3895.101
 124737257.144 7  23736715.615          47.000         811.183
 131595786.769 6  25041837.408          40.000       -4481.928
 130811852.506 6  24892694.574          41.000         993.648
 133182152.348 6  25343717.693          37.000       -1732.303
 196468620.993 7  37386734.886          44.000       -1765.119
 07  8 29 13  8 58.0010000  0  9G20G28G17G11G 4G19G23G 1S37
 108657636.237 8  20676867.091          51.000       -1831.991
 110145346.094 8  20959966.994          51.000       -2487.104
 113748842.238 8  21645691.459          51.000         384.736
 115538479.046 8  21986242.208          51.000       -3892.612
 124736444.655 7  23736561.060          46.000         814.105
 131600268.144 6  25042689.938          41.000       -4480.857
 130810856.823 6  24892505.415          41.000         997.176
 133183883.561 6  25344047.869          38.000       -1730.556
 196470384.557 7  37387070.368          44.000       -1761.838
 07  8 29 13  8 59.0010000  0  9G20G28G17G11G 4G19G23G 1S37
 108659467.571 8  20677215.503          50.000       -1830.546
 110147831.068 8  20960440.176          51.000       -2481.751
 113748456.393 8  21645618.100          51.000         387.939
 115542371.841 8  21986982.656          51.000       -3893.033
 124735627.501 7  23736405.284          46.000         821.925
 131604747.752 6  25043542.068          39.000       -4478.941
 130809858.139 7  24892315.122          42.000        1000.715
 133185614.823 6  25344379.213          40.000       -1732.445
 196472144.177 7  37387405.379          44.000       -1757.628
 07  8 29 13  9  0.0010000  0  9G20G28G17G11G 4G19G23G 1S37
 108661297.544 8  20677563.687          50.000       -1829.417
 110150310.848 8  20960912.485          51.000       -2477.405
 113748067.364 8  21645543.990          51.000         390.776
 115546265.132 8  21987723.505          51.000       -3893.455
 124734803.048 7  23736248.636          47.000         828.425
 131609226.555 6  25044393.045          37.000       -4479.244
 130808856.507 7  24892124.043          43.000        1003.011
 133187348.305 6  25344710.766          41.000       -1735.535
 196473899.181 7  37387739.291          44.000       -1751.856
 07  8 29 13  9 41.0010000  0 10G20G28G17G11G 4G19G23G 1S37S29
 108734268.966 8  20691449.682          49.000       -1733.371
 110249787.231 8  20979842.168          50.000       -2383.456
 113729731.874 8  21642054.727          50.000         515.018
 115703513.297 8  22017648.040          50.000       -3769.533
 124698403.247 7  23729323.090          47.000         942.456
 131790262.59627  25078852.941          44.000       -4366.230
 130765117.799 7  24883771.976          44.000        1116.299
 133256486.95026  25357867.419          41.000       -1621.908
 196543055.518 7  37400898.316          44.000       -1639.200
 196227245.139 7  37340805.978          44.000       -1638.933
 07  8 29 13  9 42.0010000  0 10G20G28G17G11G 4G19G23G 1S37S29
 108736000.685 8  20691779.231          49.000       -1729.388
 110252169.567 8  20980295.823          50.000       -2381.202
 113729216.201 8  21641956.901          50.000         516.381
 115707281.404 8  22018364.879          50.000       -3765.988
 124697459.944 8  23729143.632          48.000         944.273
 131794627.19827  25079683.853          46.000       -4360.081
 130763998.981 7  24883558.998          44.000        1121.956
 133258109.39436  25358176.463          40.000       -1620.139
 196544692.410 7  37401209.752          44.000       -1634.335
 196228883.623 7  37341117.849          44.000       -1636.663
 07  8 29 13  9 43.0010000  0 10G20G28G17G11G 4G19G23G 1S37S29
 108737729.353 8  20692107.959          49.000       -1726.731
 110254549.848 8  20980748.604          50.000       -2379.510
 113728699.630 8  21641858.500          51.000         517.242
 115711046.310 8  22019081.369          51.000       -3762.727
 124696515.479 7  23728963.983          47.000         945.525
 131798986.502 7  25080513.315          45.000       -4356.059
 130762874.401 7  24883345.113          45.000        1126.706
 133259728.94026  25358484.756          40.000       -1619.061
 196546324.438 7  37401520.333          43.000       -1629.523
 196230517.249 7  37341428.814          43.000       -1631.998
 07  8 29 13  9 44.0010000  0 10G20G28G17G11G 4G19G23G 1S37S29
 108739454.788 8  20692436.356          49.000       -1723.291
 110256928.086 8  20981201.298          50.000       -2377.772
 113728182.344 8  21641759.888          50.000         516.730
 115714807.872 8  22019797.457          51.000       -3759.573
 124695569.725 7  23728784.019          47.000         945.809
 131803340.076 7  25081342.674          47.000       -4349.477
 130761743.581 7  24883130.251          45.000        1134.488
 133261345.83726  25358792.056          38.000       -1615.378
 196547951.167 7  37401829.657          43.000       -1623.410
 196232146.710 7  37341739.029          43.000       -1624.681
 07  8 29 13  9 45.0010000  0 10G20G28G17G11G 4G19G23G 1S37S29
 108741176.994 8  20692763.880          49.000       -1720.931
 110259304.489 8  20981653.644          51.000       -2375.546
 113727665.079 8  21641661.365          50.000         518.390
 115718566.206 8  22020512.690          51.000       -3756.883
 124694623.536 7  23728604.509          47.000         946.770
 131807687.514 7  25082169.188          46.000       -4345.738
 130760606.123 7  24882913.765          45.000        1139.293
 133262959.95126  25359099.966          39.000       -1612.139
 196549573.110 7  37402138.283          44.000       -1621.513
 196233770.861 7  37342048.161          44.000       -1621.583
 07  8 29 13  9 46.0010000  0 10G20G28G17G11G 4G19G23G 1S37S29
 108742896.909 8  20693091.387          50.000       -1718.750
 110261678.882 8  20982105.309          50.000       -2373.071
 113727145.776 8  21641562.493          50.000         520.674
 115722321.847 8  22021227.609          52.000       -3754.034
 124693675.154 7  23728424.127          46.000         949.831
 131812031.581 7  25082995.510          46.000       -4341.661
 130759465.101 7  24882696.721          45.000        1143.138
 133264571.77527  25359407.178          42.000       -1609.385
 196551192.292 7  37402446.403          44.000       -1617.016
 196235391.872 7  37342356.751          45.000       -1620.045
 07  8 29 13  9 47.0010000  0 10G20G28G17G11G 4G19G23G 1S37S29
 108744614.246 8  20693418.492          49.000       -1716.138
 110264050.961 8  20982557.026          51.000       -2370.925
 113726624.126 8  21641463.534          50.000         523.017
 115726074.480 8  22021941.656          51.000       -3751.174
 124692724.305 7  23728243.588          47.000         951.897
 131816372.156 7  25083821.534          47.000       -4339.110
 130758320.305 7  24882479.275          47.000        1146.638
 133266181.03127  25359713.762          43.000       -1607.766
 196552807.828 7  37402753.807          44.000       -1613.581
 196237009.391 7  37342664.627          45.000       -1615.578
 07  8 29 13  9 48.0010000  0 10G20G28G17G11G 4G19G23G 1S37S29
 108746329.496 8  20693744.673          49.000       -1713.872
 110266421.002 8  20983007.923          51.000       -2369.047
 113726100.092 8  21641364.033          50.000         525.267
 115729824.525 8  22022655.161          51.000       -3748.828
 124691771.060 7  23728062.264          47.000         954.335
 131820710.026 7  25084646.861          46.000       -4336.447
 130757172.618 7  24882260.991          47.000        1148.914
 133267788.09527  25360019.543          42.000       -1605.648
 196554420.230 7  37403060.583          43.000       -1611.197
 196238624.404 7  37342972.031          43.000       -1614.764
 07  8 29 13  9 49.0010000  0 10G20G28G17G11G 4G19G23G 1S37S29
 108748042.679 8  20694070.539          49.000       -1711.827
 110268788.977 8  20983458.383          51.000       -2367.109
 113725573.534 8  21641263.957          50.000         527.615
 115733571.974 8  22023368.580          51.000       -3745.912
 124690815.324 7  23727880.678          47.000         957.368
 131825045.307 7  25085471.716          47.000       -4334.237
 130756022.199 7  24882042.411          47.000        1151.729
 133269393.477 7  25360324.853          42.000       -1602.957
 196556030.108 7  37403366.835          43.000       -1608.604
 196240236.607 7  37343278.807          44.000       -1610.584
 07  8 29 13  9 50.0010000  0 10G20G28G17G11G 4G19G23G 1S37S29
 108749753.759 8  20694396.317          49.000       -1710.092
 110271154.832 8  20983908.862          51.000       -2364.684
 113725044.410 8  21641163.323          50.000         530.400
 115737316.791 8  22024081.178          51.000       -3743.440
 124689857.000 7  23727698.307          47.000         959.785
 131829377.972 7  25086296.187          47.000       -4331.925
 130754868.986 7  24881823.255          47.000        1154.703
 133270996.140 7  25360630.354          42.000       -1601.127
 196557637.194 7  37403672.581          42.000       -1606.743
 196241845.902 7  37343585.060          43.000       -1607.569
 07  8 29 13  9 51.0010000  0 10G20G28G17G11G 4G19G23G 1S37S29
 108751462.839 8  20694721.608          49.000       -1708.165
 110273518.682 8  20984358.781          51.000       -2362.851
 113724512.829 8  21641062.462          50.000         532.819
 115741059.107 8  22024793.514          51.000       -3740.601
 124688896.219 7  23727515.551          47.000         962.096
 131833708.130 7  25087119.961          47.000       -4328.352
 130753713.108 7  24881603.191          47.000        1157.501
 133272596.671 7  25360935.350          43.000       -1599.566
 196559241.912 7  37403977.962          43.000       -1602.547
 196243453.187 7  37343890.928          44.000       -1605.279
 07  8 29 13  9 52.0010000  0 10G20G28G17G11G 4G19G23G 1S37S29
 108753169.848 8  20695046.305          49.000       -1706.054
 110275880.466 8  20984808.003          51.000       -2360.949
 113723978.719 8  21640960.867          50.000         535.025
 115744798.818 8  22025505.257          52.000       -3738.581
 124687932.926 8  23727332.482          48.000         964.240
 131838035.711 7  25087943.612          47.000       -4326.497
 130752554.475 7  24881382.517          47.000        1160.260
 133274195.004 7  25361239.805          43.000       -1597.687
 196560843.991 7  37404282.835          44.000       -1599.911
 196245057.243 7  37344196.169          45.000       -1600.537
 07  8 29 13  9 53.0010000  0 10G20G28G17G11G 4G19G23G 1S37S29
 108754875.006 8  20695370.548          49.000       -1704.651
 110278240.371 8  20985257.068          51.000       -2358.989
 113723442.296 8  21640858.837          50.000         537.702
 115748536.154 8  22026216.441          52.000       -3736.143
 124686967.325 8  23727148.784          48.000         966.618
 131842360.912 7  25088766.321          46.000       -4324.381
 130751393.298 8  24881161.406          48.000        1162.466
 133275791.354 7  25361543.614          44.000       -1595.707
 196562443.392 7  37404587.290          43.000       -1598.187
 196246658.820 7  37344501.094          43.000       -1600.141
 07  8 29 13  9 54.0010000  0 10G20G28G17G11G 4G19G23G 1S37S29
 108756578.236 8  20695694.599          49.000       -1702.233
 110280598.349 8  20985705.975          51.000       -2356.540
 113722903.493 8  21640755.882          50.000         540.407
 115752271.045 8  22026927.225          52.000       -3733.481
 124685999.356 8  23726964.790          48.000         969.590
 131846683.689 7  25089589.013          46.000       -4320.595
 130750229.504 8  24880939.824          48.000        1164.961
 133277385.650 7  25361847.423          44.000       -1591.989
 196564040.145 7  37404891.239          43.000       -1595.189
 196248257.908 7  37344805.497          45.000       -1597.351
 07  8 29 13  9 55.0010000  0 10G20G28G17G11G 4G19G23G 1S37S29
 108758279.339 8  20696018.180          49.000       -1699.716
 110282954.179 8  20986154.220          51.000       -2354.816
 113722362.096 8  21640652.909          50.000         542.947
 115756003.275 8  22027637.764          52.000       -3730.566
 124685028.808 8  23726780.098          48.000         971.875
 131851003.816 7  25090411.006          46.000       -4318.867
 130749062.912 7  24880717.876          47.000        1168.197
 133278977.681 7  25362150.726          44.000       -1590.666
 196565634.291 7  37405194.664          43.000       -1593.105
 196249853.917 7  37345109.202          44.000       -1594.320
 07  8 29 13  9 56.0010000  0 10G20G28G17G11G 4G19G23G 1S37S29
 108759978.548 8  20696341.568          49.000       -1697.718
 110285308.130 8  20986602.133          51.000       -2352.717
 113721818.358 8  21640549.482          50.000         545.306
 115759733.103 8  22028347.622          52.000       -3728.146
 124684055.909 7  23726595.040          47.000         974.509
 131855321.553 7  25091232.615          46.000       -4316.533
 130747893.753 7  24880495.247          47.000        1170.826
 133280567.735 7  25362453.715          44.000       -1588.425
 196567225.954 7  37405497.497          43.000       -1589.592
 196251447.358 7  37345412.540          43.000       -1591.286
 07  8 29 13  9 57.0010000  0 10G20G28G17G11G 4G19G23G 1S37S29
 108761675.730 8  20696664.589          49.000       -1696.228
 110287660.026 8  20987049.609          51.000       -2350.581
 113721272.124 8  21640445.480          50.000         547.376
 115763460.381 8  22029056.678          52.000       -3725.822
 124683080.498 7  23726409.300          47.000         976.611
 131859636.739 7  25092053.736          46.000       -4313.966
 130746721.889 7  24880272.426          47.000        1173.217
 133282155.597 7  25362755.919          44.000       -1586.793
 196568814.917 7  37405799.928          42.000       -1585.587
 196253037.831 7  37345715.215          44.000       -1588.879
 07  8 29 13  9 58.0010000  0 10G20G28G17G11G 4G19G23G 1S37S29
 108763371.022 8  20696987.349          49.000       -1694.341
 110290010.033 8  20987496.929          51.000       -2349.077
 113720723.560 8  21640340.989          50.000         549.843
 115767185.257 8  22029765.698          51.000       -3723.529
 124682102.762 7  23726223.229          47.000         978.731
 131863949.541 7  25092874.630          46.000       -4311.382
 130745547.458 7  24880049.169          47.000        1176.163
 133283741.481 7  25363057.511          43.000       -1585.022
 196570400.939 7  37406101.887          43.000       -1584.858
 196254626.238 7  37346017.611          45.000       -1585.754
 07  8 29 13  9 59.0010000  0 10G20G28G17G11G 4G19G23G 1S37S29
 108765064.172 8  20697309.760          49.000       -1691.850
 110292357.886 8  20987943.603          51.000       -2346.823
 113720172.380 8  21640236.079          50.000         552.674
 115770907.451 8  22030473.969          52.000       -3720.603
 124681122.420 7  23726036.618          47.000         982.217
 131868259.681 7  25093695.123          46.000       -4308.395
 130744370.196 7  24879825.039          47.000        1178.598
 133285325.068 7  25363358.965          44.000       -1582.368
 196571984.107 7  37406403.270          42.000       -1582.830
 196256211.825 7  37346319.396          43.000       -1583.103
 07  8 29 13 10  0.0010000  0 10G20G28G17G11G 4G19G23G 1S37S29
 108766755.526 8  20697631.386          49.000       -1690.545
 110294703.944 8  20988390.085          51.000       -2344.842
 113719618.963 8  21640130.751          50.000         554.721
 115774627.348 8  22031181.803          52.000       -3718.459
 124680139.820 7  23725849.552          47.000         983.473
 131872567.525 7  25094514.866          46.000       -4306.080
 130743190.467 7  24879600.857          47.000        1180.958
 133286906.749 7  25363659.825          44.000       -1580.665
 196573564.913 7  37406704.044          44.000       -1578.526
 196257794.497 7  37346620.552          45.000       -1581.077
 07  8 29 13 10  1.0010000  0 10G20G28G17G11G 4G19G23G 1S37S29
 108768445.178 8  20697952.959          49.000       -1688.347
 110297048.288 8  20988836.008          51.000       -2343.304
 113719063.377 8  21640024.619          50.000         556.997
 115778345.013 8  22031889.131          52.000       -3716.458
 124679155.089 8  23725661.876          48.000         986.029
 131876873.154 7  25095334.329          46.000       -4303.802
 130742008.363 7  24879375.995          47.000        1183.346
 133288486.596 7  25363960.457          44.000       -1579.666
 196575143.278 7  37407004.362          43.000       -1577.529
 196259375.093 7  37346921.290          44.000       -1579.370
 07  8 29 13 10  2.0010000  0 10G20G28G17G11G 4G19G23G 1S37S29
 108770132.868 8  20698274.166          49.000       -1686.631
 110299390.655 8  20989281.862          51.000       -2341.329
 113718505.371 8  21639918.488          50.000         559.143
 115782060.189 8  22032596.267          52.000       -3713.885
 124678167.922 8  23725473.886          48.000         988.839
 131881176.316 7  25096153.146          46.000       -4301.483
 130740823.620 8  24879150.713          48.000        1185.841
 133290064.361 7  25364260.445          44.000       -1576.709
 196576718.889 7  37407304.124          43.000       -1572.699
 196260952.869 7  37347221.575          44.000       -1575.628
 07  8 29 13 10  3.0010000  0 10G20G28G17G11G 4G19G23G 1S37S29
 108771818.719 8  20698595.251          49.000       -1684.942
 110301731.176 8  20989727.262          51.000       -2339.609
 113717945.075 8  21639812.042          50.000         561.706
 115785773.013 8  22033302.688          51.000       -3711.427
 124677178.454 7  23725285.407          47.000         991.201
 131885477.125 7  25096971.545          46.000       -4299.244
 130739636.360 8  24878924.542          48.000        1189.183
 133291640.170 7  25364560.433          44.000       -1574.973
 196578292.087 7  37407603.536          43.000       -1570.197
 196262528.017 7  37347521.458          44.000       -1573.874
 07  8 29 13 10  4.0010000  0 10G20G28G17G11G 4G19G23G 1S37S29
 108773502.659 8  20698915.830          49.000       -1682.840
 110304069.775 8  20990172.226          50.000       -2337.417
 113717382.410 8  21639705.265          50.000         563.836
 115789483.413 8  22034008.707          51.000       -3709.311
 124676186.638 7  23725096.771          47.000         992.956
 131889775.516 7  25097789.577          46.000       -4297.652
 130738446.506 8  24878698.249          48.000        1190.989
 133293213.930 7  25364859.932          44.000       -1572.635
 196579862.801 7  37407902.337          43.000       -1567.730
 196264101.072 7  37347821.061          42.000       -1572.208
 07  8 29 13 10  5.0010000  0 10G20G28G17G11G 4G19G23G 1S37S29
 108775184.676 8  20699235.902          49.000       -1680.853
 110306406.468 8  20990616.702          51.000       -2335.425
 113716817.387 8  21639597.790          50.000         566.284
 115793191.384 8  22034714.081          51.000       -3706.492
 124675192.454 8  23724907.594          48.000         995.535
 131894071.473 7  25098607.138          46.000       -4294.239
 130737254.080 8  24878471.240          48.000        1193.910
 133294785.652 7  25365159.012          44.000       -1570.569
 196581431.058 7  37408200.754          42.000       -1565.737
 196265671.499 7  37348119.950          43.000       -1568.412
 07  8 29 13 10  6.0010000  0 10G20G28G17G11G 4G19G23G 1S37S29
 108776864.897 8  20699555.626          49.000       -1679.006
 110308741.360 8  20991061.124          51.000       -2333.749
 113716250.105 8  21639489.635          50.000         568.740
 115796897.042 8  22035419.210          51.000       -3704.295
 124674196.039 8  23724718.068          48.000         997.796
 131898365.132 7  25099424.280          46.000       -4291.837
 130736059.157 8  24878243.987          48.000        1196.365
 133296355.462 7  25365457.830          44.000       -1568.110
 196582996.968 7  37408498.769          43.000       -1564.279
 196267239.355 7  37348418.384          44.000       -1566.665
 07  8 29 13 10  7.0010000  0 10G20G28G17G11G 4G19G23G 1S37S29
 108778543.896 8  20699875.558          49.000       -1678.510
 110311074.732 8  20991505.268          51.000       -2332.162
 113715680.478 8  21639381.323          49.000         572.726
 115800600.865 8  22036123.379          50.000       -3703.101
 124673197.377 7  23724528.351          47.000        1001.189
 131902657.497 7  25100240.758          45.000       -4293.347
 130734862.853 7  24878015.842          47.000        1195.188
 133297923.808 7  25365756.386          43.000       -1568.183
 196584561.254 7  37408796.487          43.000       -1564.578
 196268805.513 7  37348716.469          44.000       -1566.267
 07  8 29 13 10  8.0010000  0 10G20G28G17G11G 4G19G23G 1S37S29
 108780223.015 8  20700194.688          49.000       -1678.475
 110313405.663 8  20991948.941          51.000       -2329.563
 113715103.711 8  21639271.127          51.000         579.466
 115804303.388 8  22036827.723          50.000       -3701.005
 124672192.561 7  23724336.331          46.000        1008.299
 131906954.082 7  25101058.578          46.000       -4298.764
 130733671.308 7  24877788.604          47.000        1190.370
 133299490.930 6  25366053.913          41.000       -1566.724
 196586127.219 7  37409094.519          43.000       -1566.671
 196270373.307 7  37349014.937          43.000       -1567.827
 07  8 29 13 10  9.0010000  0 10G20G28G17G11G 4G19G23G 1S37S29
 108781901.496 8  20700513.922          49.000       -1678.014
 110315734.452 8  20992392.282          50.000       -2327.585
 113714521.678 8  21639160.338          51.000         583.826
 115808004.027 8  22037531.700          51.000       -3698.965
 124671183.295 7  23724143.978          47.000        1011.060
 131911252.297 7  25101876.207          46.000       -4299.823
 130732481.652 7  24877562.152          46.000        1190.515
 133301056.196 7  25366350.846          42.000       -1564.464
 196587693.102 7  37409392.534          43.000       -1565.198
 196271941.074 7  37349313.231          44.000       -1567.465
 07  8 29 13 10 10.0010000  0 10G20G28G17G11G 4G19G23G 1S37S29
 108783578.412 8  20700833.000          49.000       -1675.573
 110318061.268 8  20992834.977          51.000       -2324.946
 113713936.329 8  21639049.024          51.000         586.291
 115811702.364 8  22038235.119          50.000       -3696.941
 124670171.027 8  23723951.311          48.000        1013.121
 131915549.250 7  25102694.764          47.000       -4294.930
 130731290.855 7  24877335.265          45.000        1192.233
 133302619.16636  25366647.187          37.000       -1561.630
 196589257.399 7  37409690.289          43.000       -1561.297
 196273507.012 7  37349611.246          44.000       -1565.742
 07  8 29 13 10 11.0010000  0 10G20G28G17G11G 4G19G23G 1S37S29
 108785253.681 8  20701151.746          49.000       -1675.090
 110320386.619 8  20993277.288          50.000       -2324.967
 113713348.975 8  21638937.535          51.000         589.836
 115815398.486 8  22038938.765          51.000       -3695.041
 124669156.957 8  23723757.946          48.000        1014.381
 131919844.144 7  25103511.836          46.000       -4293.797
 130730097.762 7  24877108.029          45.000        1193.542
 133304180.51636  25366943.563          40.000       -1558.584
 196590819.690 7  37409987.640          44.000       -1562.066
 196275070.885 7  37349908.791          45.000       -1562.943
 07  8 29 13 10 12.0010000  0 10G20G28G17G11G 4G19G23G 1S37S29
 108786927.563 8  20701470.458          49.000       -1672.417
 110322710.770 8  20993719.459          50.000       -2324.225
 113712757.275 8  21638824.844          51.000         594.533
 115819091.507 8  22039641.452          51.000       -3690.729
 124668140.393 7  23723564.511          47.000        1017.082
 131924138.850 7  25104329.291          46.000       -4294.517
 130728905.385 7  24876881.193          46.000        1192.044
 133305738.62626  25367240.060          41.000       -1556.382
 196592382.015 7  37410284.817          45.000       -1564.093
 196276634.884 7  37350206.474          45.000       -1564.738
 07  8 29 13 10 13.0010000  0 10G20G28G17G11G 4G19G23G 1S37S29
 108788599.461 8  20701788.175          49.000       -1669.758
 110325035.455 8  20994161.822          51.000       -2324.889
 113712161.702 8  21638711.523          51.000         596.698
 115822779.372 8  22040342.866          51.000       -3685.147
 124667124.191 8  23723371.250          48.000        1016.057
 131928431.650 7  25105146.329          43.000       -4290.545
 130727713.096 7  24876654.358          46.000        1193.435
 133307290.66127  25367535.251          43.000       -1549.166
 196593945.260 7  37410582.256          45.000       -1563.487
 196278199.191 7  37350504.141          44.000       -1562.187
 07  8 29 13 10 14.0010000  0 10G20G28G17G11G 4G19G23G 1S37S29
 108790268.544 8  20702105.596          49.000       -1667.253
 110327361.473 8  20994604.306          50.000       -2327.024
 113711563.640 8  21638597.661          51.000         598.365
 115826461.200 8  22041043.338          50.000       -3678.235
 124666110.315 8  23723178.685          48.000        1012.003
 131932720.457 7  25105962.827          45.000       -4285.159
 130726519.039 7  24876428.099          47.000        1195.761
 133308835.44727  25367828.540          43.000       -1539.438
 196595508.642 7  37410879.765          44.000       -1562.827
 196279764.017 7  37350801.944          44.000       -1566.138
 07  8 29 13 10 15.0010000  0 10G20G28G17G11G 4G19G23G 1S37S29
 108791934.267 8  20702422.912          49.000       -1663.786
 110329688.724 8  20995047.018          49.000       -2328.410
 113710965.176 8  21638483.851          51.000         598.515
 115830137.118 8  22041742.919          51.000       -3672.368
 124665099.765 7  23722986.505          47.000        1008.490
 131937002.918 7  25106778.645          46.000       -4279.167
 130725320.189 7  24876200.236          47.000        1201.052
 133310373.33627  25368120.956          43.000       -1533.683
 196597069.848 7  37411176.943          44.000       -1558.993
 196281327.950 7  37351099.629          42.000       -1563.816
 07  8 29 13 10 16.0010000  0 10G20G28G17G11G 4G19G23G 1S37S29
 108793596.019 8  20702739.320          49.000       -1660.058
 110332017.882 8  20995490.113          50.000       -2330.126
 113710366.177 8  21638370.110          52.000         599.684
 115833805.736 8  22042440.949          50.000       -3663.674
 124664093.854 7  23722794.951          47.000        1003.079
 131941278.102 7  25107592.456          44.000       -4270.592
 130724116.371 7  24875971.675          47.000        1206.247
 133311902.79227  25368410.841          43.000       -1527.945
 196598629.253 7  37411473.650          44.000       -1557.970
 196282890.214 7  37351396.894          44.000       -1561.387
 07  8 29 13 10 17.0010000  0 10G20G28G17G11G 4G19G23G 1S37S29
 108795253.314 8  20703054.613          49.000       -1655.363
 110334349.694 8  20995933.662          50.000       -2332.552
 113709767.889 8  21638256.387          51.000         597.330
 115837466.396 8  22043137.267          50.000       -3656.341
 124663094.123 7  23722604.305          46.000         996.189
 131945544.219 6  25108404.661          41.000       -4264.341
 130722906.009 7  24875742.104          47.000        1214.892
 133313422.75736  25368698.897          40.000       -1514.013
 196600186.372 7  37411770.077          44.000       -1556.281
 196284450.787 7  37351693.862          43.000       -1560.287
 07  8 29 13 10 18.0010000  0 10G20G28G17G11G 4G19G23G 1S37S29
 108796905.966 8  20703369.050          48.000       -1650.939
 110336684.041 8  20996378.065          49.000       -2335.317
 113709171.308 8  21638142.977          51.000         596.991
 115841119.321 8  22043832.347          50.000       -3648.858
 124662100.980 7  23722414.898          45.000         989.224
 131949800.08037  25109214.287          43.000       -4251.510
 130721687.682 7  24875510.874          45.000        1222.431
 133314933.77026  25368985.974          41.000       -1505.608
 196601740.087 7  37412065.651          44.000       -1551.944
 196286008.952 7  37351990.186          44.000       -1556.471
 07  8 29 13 10 19.0010000  0 10G20G28G17G11G 4G19G23G 1S37S29
 108798554.574 8  20703683.086          49.000       -1646.674
 110339019.979 8  20996822.260          50.000       -2336.034
 113708575.262 8  21638029.498          51.000         596.503
 115844765.597 8  22044526.135          50.000       -3643.571
 124661112.332 7  23722225.929          44.000         986.828
 131954048.05337  25110022.723          43.000       -4243.174
 130720462.838 7  24875277.548          45.000        1225.933
 133316437.19926  25369272.089          39.000       -1501.471
 196603290.745 7  37412360.770          44.000       -1548.573
 196287565.306 7  37352286.439          43.000       -1555.309
 07  8 29 13 10 20.0010000  0 10G20G28G17G11G 4G19G23G 1S37S29
 108800200.269 8  20703996.300          49.000       -1644.998
 110341356.513 8  20997266.874          50.000       -2336.401
 113707977.673 8  21637915.985          51.000         598.266
 115848406.575 8  22045219.207          50.000       -3640.056
 124660125.578 7  23722037.763          46.000         986.391
 131958291.05736  25110829.307          40.000       -4244.069
 130719234.673 7  24875043.001          45.000        1230.347
 133317934.62926  25369556.600          41.000       -1495.218
 196604839.965 7  37412655.574          44.000       -1549.013
 196289120.739 7  37352582.446          43.000       -1556.054
 07  8 29 13 10 21.0010000  0 10G20G28G17G11G 4G19G23G 1S37S29
 108801843.776 8  20704309.253          49.000       -1643.209
 110343692.264 8  20997711.472          50.000       -2335.135
 113707377.815 8  21637802.176          51.000         600.435
 115852043.895 8  22045911.511          50.000       -3635.634
 124659138.060 7  23721849.825          46.000         989.195
 131962531.60837  25111637.202          44.000       -4239.659
 130718004.243 7  24874809.850          44.000        1232.674
 133319428.21926  25369840.882          41.000       -1494.005
 196606387.587 7  37412950.117          44.000       -1547.055
 196290674.416 7  37352878.246          43.000       -1552.593
 07  8 29 13 10 22.0010000  0 10G20G28G17G11G 4G19G23G 1S37S29
 108803485.340 8  20704621.526          49.000       -1640.653
 110346027.371 8  20998156.103          50.000       -2334.882
 113706775.775 8  21637687.773          51.000         603.352
 115855677.915 8  22046603.326          50.000       -3631.128
 124658149.940 7  23721661.851          46.000         988.612
                  25112443.019          37.000       -4235.541
 130716771.58937  24874576.158          44.000        1235.304
 133320918.41626  25370124.834          41.000       -1489.430
 196607933.971 7  37413244.415          44.000       -1546.471
 196292226.638 7  37353173.592          45.000       -1549.628
 07  8 29 13 10 23.0010000  0 10G20G28G17G11G 4G19G23G 1S37S29
 108805124.330 8  20704933.467          49.000       -1637.975
 110348362.731 8  20998600.577          50.000       -2335.425
 113706171.604 8  21637572.847          51.000         605.212
 115859307.116 8  22047293.711          50.000       -3626.942
 124657162.768 7  23721474.173          46.000         986.489
 131971016.25336  25113249.553          40.000       -4230.332
 130715536.68137  24874341.367          44.000        1239.552
 133322403.29826  25370407.547          40.000       -1482.717
 196609479.362 7  37413538.504          44.000       -1544.525
 196293778.188 7  37353468.973          45.000       -1548.575
 07  8 29 13 10 24.0010000  0 10G20G28G17G11G 4G19G23G 1S37S29
 108806760.864 8  20705245.007          48.000       -1634.954
 110350698.130 8  20999045.104          50.000       -2335.788
 113705565.444 8  21637457.310          51.000         607.116
 115862931.865 8  22047983.415          50.000       -3622.430
 124656176.202 7  23721286.478          46.000         986.518
 131975246.37227  25114054.759          42.000       -4228.352
 130714298.98627  24874106.784          45.000        1240.376
 133323883.18926  25370688.986          39.000       -1477.141
 196611023.151 7  37413832.419          43.000       -1542.799
 196295328.515 7  37353764.091          43.000       -1549.085
 07  8 29 13 10 25.0010000  0 10G20G28G17G11G 4G19G23G 1S37S29
 108808394.991 8  20705555.901          48.000       -1632.230
 110353033.446 8  20999489.614          50.000       -2335.385
 113704957.230 8  21637341.616          51.000         609.387
 115866552.269 8  22048672.631          50.000       -3618.047
 124655190.061 7  23721098.662          46.000         986.368
 131979472.70827  25114859.861          44.000       -4224.300
 130713058.92327  24873869.688          43.000        1241.702
 133325358.925 6  25370969.692          41.000       -1472.537
 196612565.105 7  37414125.863          43.000       -1540.615
 196296877.983 7  37354059.052          43.000       -1547.666
 07  8 29 13 10 26.0010000  0 10G20G28G17G11G 4G19G23G 1S37S29
 108810026.507 8  20705866.271          49.000       -1630.013
 110355368.729 8  20999934.036          50.000       -2334.655
 113704346.658 8  21637225.538          51.000         611.691
 115870167.952 8  22049360.503          50.000       -3612.926
 124654204.431 7  23720910.984          46.000         985.818
 131983695.60626  25115663.777          39.000       -4218.574
 130711816.38027  24873632.977          44.000        1244.486
 133326828.885 7  25371249.299          42.000       -1466.487
 196614105.820 7  37414419.062          43.000       -1539.370
 196298425.969 7  37354353.735          43.000       -1545.667
 07  8 29 13 10 27.0010000  0 10G20G28G17G11G 4G19G23G 1S37S29
 108811656.040 8  20706176.258          49.000       -1628.702
 110357702.904 8  21000378.214          50.000       -2333.526
 113703734.092 8  21637108.971          51.000         613.474
 115873780.671 8  22050047.902          50.000       -3612.119
 124653217.645 7  23720722.872          45.000         988.531
 131987914.76236  25116465.580          39.000       -4220.015
 130710571.33237  24873395.865          45.000        1248.506
 133328295.974 6  25371528.241          41.000       -1466.160
 196615644.508 7  37414711.946          44.000       -1538.599
 196299972.363 7  37354648.102          43.000       -1546.384
 07  8 29 13 10 28.0010000  0 10G20G28G17G11G 4G19G23G 1S37S29
 108813283.805 8  20706485.877          49.000       -1626.819
 110360036.072 8  21000822.340          51.000       -2333.177
 113703119.438 8  21636991.759          51.000         615.682
 115877390.608 8  22050735.006          50.000       -3607.958
 124652229.685 7  23720535.177          46.000         987.374
 131992132.62026  25117266.756          41.000       -4214.238
 130709324.31137  24873158.368          42.000        1248.809
 133329760.546 6  25371807.010          41.000       -1463.160
 196617181.577 7  37415004.535          43.000       -1535.764
 196301517.077 7  37354942.331          45.000       -1544.058
 07  8 29 13 10 29.0010000  0 10G20G28G17G11G 4G19G23G 1S37S29
 108814909.118 8  20706795.236          49.000       -1624.224
 110362368.937 8  21001266.134          51.000       -2332.383
 113702502.256 8  21636874.529          51.000         618.045
 115880996.244 8  22051420.941          50.000       -3603.651
 124651241.792 7  23720347.257          46.000         989.359
 131996345.36736  25118067.687          36.000       -4212.468
 130708075.08737  24872919.945          43.000        1248.133
 133331220.431 6  25372084.766          41.000       -1459.509
 196618717.720 7  37415296.757          44.000       -1535.714
 196303060.453 7  37355236.210          43.000       -1544.983
 07  8 29 13 10 30.0010000  0 10G20G28G17G11G 4G19G23G 1S37S29
 108816531.842 8  20707104.263          49.000       -1620.809
 110364701.344 8  21001709.981          51.000       -2331.721
 113701882.683 8  21636756.532          51.000         620.522
 115884597.467 8  22052106.404          50.000       -3599.054
 124650254.009 7  23720159.282          46.000         987.434
 132000558.31736  25118869.945          38.000       -4207.536
 130706825.61836  24872681.891          36.000        1253.031
 133332675.760 7  25372361.826          42.000       -1451.338
 196620252.342 7  37415588.717          45.000       -1533.127
 196304602.716 7  37355529.741          45.000       -1541.194
 07  8 29 13 10 31.0010000  0 10G20G28G17G11G 4G19G23G 1S37S29
 108818152.104 8  20707412.540          48.000       -1617.850
 110367033.152 8  21002153.723          51.000       -2330.842
 113701260.863 8  21636637.924          51.000         623.969
 115888194.691 8  22052790.960          50.000       -3595.561
 124649265.983 7  23719971.728          46.000         988.912
                  25119670.178          36.000       -4205.426
 130705571.65237  24872443.766          42.000        1254.138
 133334126.952 7  25372638.221          43.000       -1449.787
 196621785.103 7  37415880.452          44.000       -1529.235
 196306143.365 7  37355822.994          44.000       -1537.886
 07  8 29 13 10 32.0010000  0 10G20G28G17G11G 4G19G23G 1S37S29
 108819769.877 8  20707720.484          49.000       -1617.493
 110369364.243 8  21002597.429          50.000       -2331.830
 113700636.851 8  21636519.228          51.000         624.678
 115891788.015 8  22053474.801          50.000       -3592.044
 124648277.776 7  23719783.771          47.000         988.781
 132008966.06536  25120471.020          38.000       -4207.357
 130704315.76836  24872203.200          40.000        1263.301
 133335574.310 7  25372913.413          42.000       -1444.915
 196623316.008 7  37416171.817          44.000       -1531.194
 196307682.240 7  37356115.861          43.000       -1537.287
 07  8 29 13 10 33.0010000  0 10G20G28G17G11G 4G19G23G 1S37S29
 108821386.222 8  20708028.184          49.000       -1615.145
 110371695.471 8  21003040.752          50.000       -2330.607
 113700011.412 8  21636400.445          51.000         626.579
 115895378.310 8  22054157.908          50.000       -3588.301
 124647289.568 7  23719595.588          46.000         988.380
 132013169.30835  25121271.518          35.000       -4196.849
 130703057.13037  24871962.857          42.000        1259.980
 133337018.242 6  25373188.167          40.000       -1442.346
 196624845.987 7  37416462.870          44.000       -1529.961
 196309220.002 7  37356408.589          43.000       -1535.387
 07  8 29 13 10 34.0010000  0 11G20G28G17G11G 4G19G23G 1S37S29S27
 108823000.833 8  20708335.361          49.000       -1613.200
 110374026.496 8  21003484.372          50.000       -2330.367
 113699384.105 8  21636280.894          51.000         628.384
 115898965.272 8  22054840.597          50.000       -3584.977
 124646301.074 7  23719407.493          46.000         989.591
 132017370.32136  25122070.091          36.000       -4200.519
                  24871723.040          38.000        1262.023
 133338458.434 6  25373461.893          40.000       -1437.876
 196626374.710 7  37416753.818          44.000       -1528.028
 196310756.977 7  37356701.089          44.000       -1537.158
 215346932.89726  40979158.794          38.000       -1483.635
 07  8 29 13 10 35.0010000  0 11G20G28G17G11G 4G19G23G 1S37S29S27
 108824613.841 8  20708642.136          49.000       -1612.911
 110376357.450 8  21003927.991          50.000       -2331.375
 113698754.804 8  21636161.396          51.000         630.591
 115902548.907 8  22055522.640          50.000       -3581.748
 124645312.228 7  23719219.396          46.000         989.045
                  25122866.644          38.000       -4193.065
                  24871483.534          38.000        1258.940
 133339894.786 6  25373734.955          41.000       -1435.491
 196627902.420 7  37417044.451          44.000       -1528.025
 196312293.203 7  37356993.555          45.000       -1534.549
 215348416.99136  40979450.021          39.000       -1483.145
 07  8 29 13 10 36.0010000  0 11G20G28G17G11G 4G19G23G 1S37S29S27
 108826225.543 8  20708949.052          49.000       -1610.810
 110378687.472 8  21004371.489          50.000       -2329.469
 113698123.631 8  21636041.112          51.000         631.881
 115906130.266 8  22056204.264          50.000       -3579.906
 124644321.812 7  23719030.830          45.000         991.204
 132025744.04836  25123663.787          40.000       -4194.335
 130699255.14437  24871241.432          45.000        1265.174
 133341328.792 7  25374008.000          43.000       -1432.867
 196629428.350 7  37417334.824          44.000       -1524.105
 196313827.754 7  37357285.568          44.000       -1532.928
 215349899.15136  40979736.223          37.000       -1479.885
 07  8 29 13 10 37.0010000  0 11G20G28G17G11G 4G19G23G 1S37S29S27
 108827836.016 8  20709255.687          49.000       -1608.999
 110381017.379 8  21004815.004          50.000       -2329.331
 113697491.433 8  21635920.968          51.000         633.622
 115909709.197 8  22056885.207          50.000       -3576.474
 124643331.081 7  23718842.246          46.000         991.015
 132029936.09926  25124462.137          38.000       -4187.654
 130697988.05627  24871001.023          45.000        1270.424
 133342760.148 7  25374280.521          43.000       -1428.779
 196630952.920 7  37417625.075          44.000       -1522.518
 196315361.484 7  37357577.458          43.000       -1533.119
                  40980019.823          29.000       -1481.800
 07  8 29 13 10 38.0010000  0 11G20G28G17G11G 4G19G23G 1S37S29S27
 108829443.780 8  20709561.398          49.000       -1607.269
 110383346.740 8  21005257.908          50.000       -2329.322
 113696857.659 8  21635800.422          51.000         633.794
 115913284.002 8  22057565.715          50.000       -3573.486
 124642340.549 7  23718653.382          46.000         991.198
 132034123.51827  25125260.310          43.000       -4187.254
 130696717.21137  24870759.931          43.000        1271.774
 133344187.313 7  25374552.467          42.000       -1424.664
 196632475.105 7  37417914.836          44.000       -1519.778
 196316892.515 7  37357868.860          43.000       -1531.308
                  40980304.887          35.000       -1490.788
 07  8 29 13 10 39.0010000  0 11G20G28G17G11G 4G19G23G 1S37S29S27
 108831049.285 8  20709867.040          49.000       -1603.902
 110385675.132 8  21005701.197          50.000       -2326.548
 113696222.233 8  21635679.860          51.000         637.405
 115916855.507 8  22058245.088          50.000       -3569.705
 124641349.230 7  23718464.624          46.000         993.280
 132038307.55937  25126057.123          43.000       -4183.150
 130695443.12827  24870518.230          45.000        1277.743
 133345611.183 7  25374823.225          43.000       -1424.525
 196633995.031 7  37418204.075          44.000       -1517.499
 196318421.145 7  37358159.704          43.000       -1528.414
 215354453.20735  40980589.887          35.000       -1481.441
 07  8 29 13 10 40.0010000  0 11G20G28G17G11G 4G19G23G 1S37S29S27
 108832652.697 8  20710172.053          49.000       -1603.055
 110388001.381 8  21006143.891          50.000       -2325.862
 113695584.990 8  21635558.267          51.000         639.155
